~VERSION INFORMATION                                                           
 VERS.           2.0: CWLS Log ASCII Standard - Version 2.0                    
 WRAP.            NO: One Line per Depth Step                                  
~WELL INFORMATION                                                              
#MNEM.UNIT              DATA            DESCRIPTION OF MNEMONIC                
#-----------            ----            -----------------------                
 STRT.M             789.58              :Start Depth                           
 STOP.M            1481.02              :Stop  Depth                           
 STEP.M             0.1524              :Step                                  
 NULL.              -99999.0            :Null Value                            
 COMP.     PETROLEO BRASILEIRO S/A      :Company                               
 ORIG.     SIGEO EXPORTACAO PERFIL      :Origem dos dados                      
 WELL.     7-LP-88-ES                   :Well                                  
 FLD.      LAGOA PARDA                  :Field                                 
 STAT.     ESPIRITO SANTO               :State                                 
 API.      342700034000                 :API Code                              
 X.                410166.50            :Surface X                             
 Y.               7830454.00            :Surface Y                             
 HZCS.           UTM                    :Horizontal Coordinate System          
 MC.               39 W                 :Meridiano Central
 LATI.           -19:37:08.391          :Latitude                              
 LONG.           -39:51:24.187          :Longitude                             
 GDAT.           SIRGAS2000             :Geodetic Datum                        
 LMF.            MR                     :Log Measure From                      
 EDF.M              10.00               :Elevation Derrick Floor               
 EGL.M               4.80               :GROUND ELEVATION                      
~CURVE INFORMATION                                                             
 DEPT.M                                 :Measured Depth                        
 CALI.in                                :CALIPER 
 CALI.in                                :CALIPER 
 CILD.mS/m                              :CALIBRATED DEEP INDUCTION CONDUCTIVITY 
 DRHO.g/cm3                             :BULK DENSITIY CORRECTION 
 DRHO.g/cm3                             :BULK DENSITIY CORRECTION 
 GR.gAPI                                :GAMMA RAY 
 ILD.ohm.m                              :INDUCTION DEEP RESISTIVITY 
 NPHI.%                                 :THERMAL NEUTRON POROSITY (ORIGINAL RATIO METHOD) IN SELECTED LITHOLOGY 
 NPHI.%                                 :THERMAL NEUTRON POROSITY (ORIGINAL RATIO METHOD) IN SELECTED LITHOLOGY 
 NPOR.%                                 :NEUTRON POROSITY (ENVIRONMENTALLY CORRECTED AND ALPHA PROCESSED) 
 NPOR.%                                 :NEUTRON POROSITY (ENVIRONMENTALLY CORRECTED AND ALPHA PROCESSED) 
 PEF.Adim                               :PHOTOELETRIC FACTOR 
 PEF.Adim                               :PHOTOELETRIC FACTOR 
 RHOB.g/cm3                             :BULK DENSITY 
 RHOB.g/cm3                             :BULK DENSITY 
 RSFL.uohm                              :Raw SFL Conductivity 
 SFLU.ohm.m                             :SFL RESISTIVITY UNAVERAGED 
 SP.mV                                  :SPONTANEOUS POTENTIAL 
 TENS.lbf                               :LINE TENSION 
~ASCII LOG DATA                                                                
# ...
   1354.6833   -99999.0     9.1719  1185.3629   -99999.0     0.0323   113.8125     0.8437   -99999.0    38.6232   -99999.0    39.0105   -99999.0     3.3945   -99999.0     2.2944  1073.8265     0.9275   -94.2286  2230.0000 
   1354.8357   -99999.0     9.3047  1154.5054   -99999.0     0.0650   116.5000     0.8662   -99999.0    38.6748   -99999.0    40.8664   -99999.0     3.3086   -99999.0     2.2953  1023.3990     0.9732   -95.6208  2235.0000 
   1354.9881   -99999.0     9.5859  1137.0223   -99999.0     0.1049   115.1250     0.8795   -99999.0    38.7726   -99999.0    47.0721   -99999.0     3.3711   -99999.0     2.3077   897.4922     1.1112   -95.6357  2290.0000 
   1355.1405   -99999.0    10.1406  1109.2715   -99999.0     0.1155   125.4375     0.9015   -99999.0    38.8168   -99999.0    39.8832   -99999.0     3.3691   -99999.0     2.3206   889.3374     1.1197   -95.0534  2220.0000 
   1355.2929   -99999.0    10.1875  1093.0065   -99999.0     0.0915   129.0000     0.9149   -99999.0    39.1801   -99999.0    38.4154   -99999.0     3.3398   -99999.0     2.2856   870.2169     1.1443   -94.2001  2265.0000 
   1355.4453   -99999.0    10.4297  1076.7791   -99999.0     0.0934   130.6250     0.9287   -99999.0    39.6194   -99999.0    39.5362   -99999.0     3.2500   -99999.0     2.2766   913.9157     1.0898   -93.3255  2315.0000 
   1355.5977   -99999.0    10.8125  1068.7634   -99999.0     0.0802   122.1875     0.9357   -99999.0    40.2255   -99999.0    43.8479   -99999.0     3.1445   -99999.0     2.2183   917.0716     1.0858   -92.7930  2250.0000 
   1355.7501   -99999.0    10.8672  1070.3239   -99999.0     0.0813   119.5625     0.9343   -99999.0    40.9328   -99999.0    45.7811   -99999.0     3.3086   -99999.0     2.2157   918.7603     1.0838   -93.8930  2245.0000 
   1355.9025   -99999.0    10.9922  1077.9509   -99999.0     0.0585   122.5000     0.9277   -99999.0    41.1305   -99999.0    42.3774   -99999.0     3.2910   -99999.0     2.1998   928.0760     1.0730   -94.4574  2290.0000 
   1356.0549   -99999.0    10.4531  1089.0883   -99999.0     0.0606   118.5000     0.9182   -99999.0    40.9653   -99999.0    43.0936   -99999.0     3.3965   -99999.0     2.2374   913.9062     1.0896   -93.5856  2240.0000 
   1356.2073   -99999.0    10.6953  1098.2856   -99999.0     0.0501   115.7500     0.9105   -99999.0    40.3939   -99999.0    43.3282   -99999.0     3.3535   -99999.0     2.2443   909.2357     1.0952   -93.5000  2225.0000 
   1356.3597   -99999.0    10.0000  1109.4015   -99999.0     0.0562   116.3750     0.9014   -99999.0    40.5176   -99999.0    43.7796   -99999.0     3.3848   -99999.0     2.2483   903.7040     1.1019   -93.7286  2310.0000 
   1356.5121   -99999.0    10.4062  1115.1510   -99999.0     0.0512   120.7500     0.8967   -99999.0    40.8636   -99999.0    38.7735   -99999.0     3.4688   -99999.0     2.2314   916.7703     1.0862   -94.0930  2240.0000 
   1356.6645   -99999.0    10.3906  1118.5150   -99999.0     0.0527   118.1875     0.8940   -99999.0    41.6048   -99999.0    40.9874   -99999.0     3.3320   -99999.0     2.2248   926.6885     1.0746   -95.7250  2260.0000 
   1356.8169   -99999.0    10.3672  1124.0452   -99999.0     0.0269   118.0625     0.8896   -99999.0    42.2589   -99999.0    49.2690   -99999.0     3.4023   -99999.0     2.2026   930.2740     1.0704   -96.2177  2300.0000 
   1356.9693   -99999.0    10.1641  1126.4128   -99999.0     0.0564   116.1875     0.8878   -99999.0    43.6709   -99999.0    46.2299   -99999.0     3.3652   -99999.0     2.2412   941.4726     1.0577   -96.4785  2225.0000 
   1357.1217   -99999.0    10.5781  1127.7596   -99999.0     0.0719   118.4375     0.8867   -99999.0    44.4928   -99999.0    45.9049   -99999.0     3.3105   -99999.0     2.2582   928.1290     1.0729   -95.8141  2260.0000 
   1357.2741   -99999.0    10.9141  1128.8650   -99999.0     0.0893   118.0625     0.8858   -99999.0    44.8302   -99999.0    46.3373   -99999.0     3.2969   -99999.0     2.2566   938.5388     1.0610   -95.0644  2220.0000 
   1357.4265   -99999.0    10.5078  1125.6820   -99999.0     0.0945   120.1250     0.8884   -99999.0    44.4693   -99999.0    50.9504   -99999.0     3.3203   -99999.0     2.2443   925.9371     1.0755   -94.0863  2225.0000 
   1357.5789   -99999.0    10.3906  1117.8956   -99999.0     0.0871   120.6875     0.8945   -99999.0    44.3494   -99999.0    49.5105   -99999.0     3.3379   -99999.0     2.1954   923.6634     1.0781   -94.4570  2265.0000 
   1357.7313   -99999.0    10.4531  1105.8953   -99999.0     0.1159   120.1250     0.9043   -99999.0    43.7741   -99999.0    45.4196   -99999.0     3.4062   -99999.0     2.2157   909.8556     1.0945   -93.5856  2200.0000 
   1357.8837   -99999.0    10.3906  1097.2321   -99999.0     0.0957   118.5625     0.9114   -99999.0    43.0785   -99999.0    43.9929   -99999.0     3.3535   -99999.0     2.1995   907.7546     1.0970   -93.6143  2215.0000 
   1358.0361   -99999.0    10.3125  1092.8173   -99999.0     0.0986   118.9375     0.9151   -99999.0    43.0351   -99999.0    47.0404   -99999.0     3.3105   -99999.0     2.2368   892.8198     1.1153   -93.5107  2250.0000 
   1358.1885   -99999.0    10.4297  1088.0198   -99999.0     0.0949   120.6875     0.9191   -99999.0    43.7791   -99999.0    45.5894   -99999.0     3.1602   -99999.0     2.2281   871.5173     1.1426   -93.3858  2225.0000 
   1358.3409   -99999.0    10.4062  1082.8682   -99999.0     0.1105   120.3750     0.9235   -99999.0    45.0768   -99999.0    47.8934   -99999.0     3.1270   -99999.0     2.2199   880.7443     1.1306   -93.8321  2305.0000 
   1358.4933   -99999.0    10.6172  1077.1226   -99999.0     0.1143   116.8125     0.9284   -99999.0    46.2515   -99999.0    48.4806   -99999.0     3.1953   -99999.0     2.1951   887.0120     1.1226   -94.4466  2240.0000 
   1358.6457   -99999.0    10.7188  1069.5011   -99999.0     0.0833   116.6250     0.9350   -99999.0    47.1695   -99999.0    47.5611   -99999.0     3.1738   -99999.0     2.1636   921.1313     1.0812   -95.1857  2290.0000 
   1358.7981   -99999.0    10.3281  1065.5648   -99999.0     0.0574   115.8125     0.9385   -99999.0    47.2188   -99999.0    52.1116   -99999.0     3.1602   -99999.0     2.1406   906.3354     1.0987   -96.3923  2230.0000 
   1358.9505   -99999.0     9.6875  1067.0339   -99999.0     0.0429   118.1250     0.9372   -99999.0    46.6915   -99999.0    52.4987   -99999.0     3.2539   -99999.0     2.1557   911.9884     1.0919   -97.5284  2265.0000 
   1359.1029   -99999.0     9.5391  1067.7173   -99999.0     0.0314   115.0000     0.9366   -99999.0    45.4698   -99999.0    51.7544   -99999.0     3.4746   -99999.0     2.1709   921.6601     1.0804   -97.6250  2235.0000 
   1359.2553   -99999.0     9.5078  1059.4032   -99999.0     0.0149   120.8125     0.9439   -99999.0    43.9092   -99999.0    43.8720   -99999.0     3.6367   -99999.0     2.1772   948.6178     1.0498   -97.6250  2240.0000 
   1359.4077   -99999.0     9.5000  1060.3904   -99999.0     0.0200   119.8750     0.9430   -99999.0    42.3811   -99999.0    44.8103   -99999.0     3.7812   -99999.0     2.1848   956.2924     1.0413   -97.2824  2275.0000 
   1359.5601   -99999.0     9.5859  1062.8616   -99999.0     0.0473   121.1875     0.9409   -99999.0    41.8882   -99999.0    45.4100   -99999.0     3.7617   -99999.0     2.2249   951.5627     1.0465   -96.2218  2265.0000 
   1359.7125   -99999.0     9.6797  1056.5984   -99999.0     0.0659   121.0625     0.9464   -99999.0    42.6729   -99999.0    42.8404   -99999.0     3.5586   -99999.0     2.2344   931.6411     1.0689   -95.2106  2305.0000 
   1359.8649   -99999.0    10.2578  1047.9922   -99999.0     0.0615   122.7500     0.9542   -99999.0    43.5977   -99999.0    45.6953   -99999.0     3.3789   -99999.0     2.1716   947.9526     1.0505   -95.4680  2240.0000 
   1360.0173   -99999.0     9.9688  1035.0321   -99999.0     0.0288   123.6250     0.9662   -99999.0    44.6354   -99999.0    53.2920   -99999.0     3.2188   -99999.0     2.0429   940.4990     1.0588   -96.8716  2255.0000 
