~VERSION INFORMATION                                                           
 VERS.           2.0: CWLS Log ASCII Standard - Version 2.0                    
 WRAP.            NO: One Line per Depth Step                                  
~WELL INFORMATION                                                              
#MNEM.UNIT              DATA            DESCRIPTION OF MNEMONIC                
#-----------            ----            -----------------------                
 STRT.M             952.00              :Start Depth                           
 STOP.M            1604.00              :Stop  Depth                           
 STEP.M             0.2000              :Step                                  
 NULL.              -99999.0            :Null Value                            
 COMP.     PETROLEO BRASILEIRO S/A      :Company                               
 ORIG.     SIGEO EXPORTACAO PERFIL      :Origem dos dados                      
 WELL.     7-LP-85-ES                   :Well                                  
 FLD.      LAGOA PARDA                  :Field                                 
 STAT.     ESPIRITO SANTO               :State                                 
 API.      342700026300                 :API Code                              
 X.                412944.10            :Surface X                             
 Y.               7831795.90            :Surface Y                             
 HZCS.           UTM                    :Horizontal Coordinate System          
 MC.               39 W                 :Meridiano Central
 LATI.           -19:36:25.186          :Latitude                              
 LONG.           -39:49:48.609          :Longitude                             
 GDAT.           SIRGAS2000             :Geodetic Datum                        
 LMF.            MR                     :Log Measure From                      
 EDF.M               8.00               :Elevation Derrick Floor               
 EGL.M               3.00               :GROUND ELEVATION                      
~CURVE INFORMATION                                                             
 DEPT.M                                 :Measured Depth                        
 CALI.in                                :CALIPER 
 DRHO.g/cm3                             :BULK DENSITIY CORRECTION 
 EFAC.Adim                              :ELETROFACIES 
 GR.gAPI                                :GAMMA RAY 
 ILD.ohm.m                              :INDUCTION DEEP RESISTIVITY 
 NPHI.%                                 :THERMAL NEUTRON POROSITY (ORIGINAL RATIO METHOD) IN SELECTED LITHOLOGY 
 RHOB.g/cm3                             :BULK DENSITY 
 SN.ohm.m                               :SHORT NORMAL RESISTIVITY 
 SP.mV                                  :SPONTANEOUS POTENTIAL 
 TENS.lbf                               :LINE TENSION 
 VSH.v/v                                :VOLUME DE FOLHELHO 
~ASCII LOG DATA                                                                
# ...
   1132.0000     9.9852     0.0563   -99999.0   118.3516     0.9867    47.5669     2.2159     1.4175    54.8323  1654.0000   -99999.0 
   1132.2000     9.9615     0.0433   -99999.0   117.3076     0.9980    48.7042     2.1998     1.4289    54.1453  1464.0000   -99999.0 
   1132.4000     9.9793     0.0519   -99999.0   114.2661     0.9989    46.0724     2.2018     1.4243    54.2147  1577.0342   -99999.0 
   1132.6000     9.8814     0.0763   -99999.0   113.9980     0.9906    42.9796     2.2112     1.4115    53.6898  1708.0000   -99999.0 
   1132.8000     9.7491     0.0995   -99999.0   114.9505     0.9757    43.7550     2.2205     1.4076    53.3703  1701.9331   -99999.0 
   1133.0000     9.7320     0.1018   -99999.0   111.7189     0.9524    47.5607     2.2268     1.3811    54.2601  1639.0000   -99999.0 
   1133.2000     9.7129     0.0835   -99999.0   107.0622     0.9296    50.3546     2.2251     1.3610    55.8539  1569.8779   -99999.0 
   1133.4000     9.9617     0.0610   -99999.0   107.4222     0.9075    50.2689     2.2191     1.3394    57.7324  1542.5984   -99999.0 
   1133.6000    10.0064     0.0627   -99999.0   113.9201     0.8912    47.6629     2.2250     1.3274    59.0674  1566.0000   -99999.0 
   1133.8000     9.8496     0.0732   -99999.0   118.4693     0.8791    46.7883     2.2309     1.3354    58.7453  1556.2559   -99999.0 
   1134.0000     9.7611     0.0779   -99999.0   118.3304     0.8731    49.7111     2.2320     1.3397    58.0190  1551.0000   -99999.0 
   1134.2000     9.7745     0.0742   -99999.0   118.5211     0.8761    52.9909     2.2305     1.3490    56.7983  1561.0000   -99999.0 
   1134.4000     9.7717     0.0726   -99999.0   121.4838     0.8814    53.4822     2.2278     1.3490    55.6480  1558.0669   -99999.0 
   1134.6000     9.7440     0.0748   -99999.0   123.9484     0.8867    51.9355     2.2252     1.3574    55.0404  1556.0000   -99999.0 
   1134.8000     9.7242     0.0744   -99999.0   122.7084     0.8926    51.1932     2.2215     1.3583    55.3577  1566.0000   -99999.0 
   1135.0000     9.7295     0.0694   -99999.0   119.6098     0.9018    50.6098     2.2123     1.3632    55.2000  1560.7637   -99999.0 
   1135.2000     9.7116     0.0645   -99999.0   119.5524     0.9198    47.0741     2.2090     1.3677    56.2031  1556.0000   -99999.0 
   1135.4000     9.6900     0.0670   -99999.0   121.2000     0.9423    43.1283     2.2237     1.3791    57.4148  1522.0000   -99999.0 
   1135.6000     9.7038     0.0776   -99999.0   120.6933     0.9654    42.2829     2.2450     1.3989    57.0854  1537.6614   -99999.0 
   1135.8000     9.6891     0.0869   -99999.0   119.6362     0.9872    42.5191     2.2543     1.4321    55.9043  1556.0000   -99999.0 
   1136.0000     9.6874     0.0820   -99999.0   118.1270     1.0054    42.3939     2.2491     1.4597    53.1526  1586.0000   -99999.0 
   1136.2000     9.6799     0.0682   -99999.0   113.4901     1.0167    41.5103     2.2364     1.4730    50.1024  1562.5393   -99999.0 
   1136.4000     9.7668     0.0690   -99999.0   109.5510     1.0243    40.0680     2.2274     1.4791    49.0740  1527.0000   -99999.0 
   1136.6000     9.8102     0.0872   -99999.0   110.4580     1.0305    38.9724     2.2259     1.4586    50.0201  1542.0000   -99999.0 
   1136.8000     9.8167     0.0930   -99999.0   113.4016     1.0367    39.3142     2.2186     1.4454    51.2346  1550.0315   -99999.0 
   1137.0000     9.8100     0.0760   -99999.0   113.4883     1.0415    40.1552     2.2003     1.4453    52.0294  1566.0000   -99999.0 
   1137.2000     9.8388     0.0604   -99999.0   112.3326     1.0423    40.6094     2.1864     1.4488    52.9634  1566.0000   -99999.0 
   1137.4000     9.8200     0.0621   -99999.0   111.9642     1.0417    41.3962     2.1854     1.4616    53.3728  1542.0000   -99999.0 
   1137.6000     9.8317     0.0679   -99999.0   111.3664     1.0371    42.5129     2.1966     1.4689    53.6504  1575.8713   -99999.0 
   1137.8000     9.7504     0.0763   -99999.0   111.1104     1.0309    43.0779     2.2190     1.4509    53.9896  1600.0000   -99999.0 
   1138.0000     9.7563     0.0838   -99999.0   112.1878     1.0162    43.9991     2.2368     1.4347    53.7834  1542.0000   -99999.0 
   1138.2000     9.7592     0.0860   -99999.0   113.4731     1.0009    45.2259     2.2358     1.4140    53.7874  1549.2939   -99999.0 
   1138.4000     9.7733     0.0792   -99999.0   116.5833     0.9859    46.2150     2.2195     1.4012    53.9167  1556.0000   -99999.0 
   1138.6000     9.8104     0.0724   -99999.0   121.9224     0.9743    47.5488     2.2071     1.3996    54.6145  1507.0000   -99999.0 
   1138.8000     9.9483     0.0782   -99999.0   123.9420     0.9695    47.8822     2.2130     1.3996    55.1122  1556.4646   -99999.0 
   1139.0000     9.9392     0.0851   -99999.0   120.6268     0.9666    47.1747     2.2275     1.4071    56.1392  1615.0000   -99999.0 
   1139.2000     9.8767     0.0825   -99999.0   117.2000     0.9636    46.6168     2.2373     1.4093    57.1579  1522.0000   -99999.0 
   1139.4000     9.8281     0.0758   -99999.0   117.8320     0.9607    46.4937     2.2422     1.4093    57.7210  1512.5195   -99999.0 
   1139.6000     9.8100     0.0733   -99999.0   119.5074     0.9563    46.6502     2.2433     1.4024    57.8829  1498.0000   -99999.0 
   1139.8000     9.7900     0.0720   -99999.0   118.8744     0.9505    46.9084     2.2358     1.3770    57.6921  1590.0000   -99999.0 
   1140.0000     9.7900     0.0757   -99999.0   117.6000     0.9455    47.3167     2.2280     1.3646    56.9348  1572.4028   -99999.0 
   1140.2000     9.8029     0.0913   -99999.0   118.5665     0.9413    46.3621     2.2293     1.3583    55.1046  1537.0000   -99999.0 
   1140.4000     9.7430     0.1114   -99999.0   120.7264     0.9356    44.4245     2.2185     1.3764    51.6299  1587.7046   -99999.0 
   1140.6000     9.8034     0.1241   -99999.0   118.9239     0.9366    46.1958     2.1779     1.4022    49.0152  1565.2493   -99999.0 
   1140.8000    10.0242     0.1235   -99999.0   113.3839     0.9422    51.0350     2.1431     1.4150    50.2976  1498.0000   -99999.0 
   1141.0000    10.1272     0.1085   -99999.0   111.0531     0.9480    54.6051     2.1414     1.4191    51.7831  1549.8345   -99999.0 
   1141.2000    10.1438     0.0853   -99999.0   115.7593     0.9475    55.7094     2.1629     1.4073    51.7970  1560.1206   -99999.0 
   1141.4000    10.0889     0.0740   -99999.0   117.6261     0.9407    55.8378     2.1745     1.3996    51.3481  1576.0000   -99999.0 
   1141.6000    10.0683     0.0755   -99999.0   113.8433     0.9358    55.2234     2.1675     1.3916    50.4693  1535.2952   -99999.0 
   1141.8000    10.0900     0.0757   -99999.0   111.8573     0.9382    53.6297     2.1554     1.3900    49.7714  1527.0000   -99999.0 
   1142.0000    10.2928     0.0767   -99999.0   112.5268     0.9459    51.2064     2.1685     1.3900    49.4634  1540.2061   -99999.0 
   1142.2000    10.3200     0.0907   -99999.0   110.4342     0.9557    48.2873     2.2040     1.3900    49.5303  1556.0000   -99999.0 
   1142.4000    10.2928     0.1041   -99999.0   107.9840     0.9642    45.1547     2.2303     1.4004    49.8720  1576.0000   -99999.0 
   1142.6000    10.2178     0.1023   -99999.0   107.9962     0.9718    42.7829     2.2320     1.4131    50.9354  1576.0000   -99999.0 
   1142.8000    10.1948     0.0895   -99999.0   108.4409     0.9836    42.7656     2.2248     1.4260    52.2866  1576.0000   -99999.0 
   1143.0000    10.2302     0.0760   -99999.0   109.1273     0.9979    43.9211     2.2190     1.4289    54.2863  1542.0000   -99999.0 
   1143.2000    10.2664     0.0750   -99999.0   111.7211     1.0092    42.8829     2.2183     1.4322    53.2694  1544.9646   -99999.0 
   1143.4000    10.3200     0.0776   -99999.0   115.8535     1.0169    41.3544     2.2125     1.4452    52.4791  1551.0000   -99999.0 
   1143.6000    10.4154     0.0770   -99999.0   117.4770     1.0231    42.0636     2.2033     1.4584    51.3459  1555.7703   -99999.0 
   1143.8000    10.4720     0.0750   -99999.0   115.5803     1.0269    44.7228     2.2051     1.4716    50.5467  1552.2703   -99999.0 
