~VERSION INFORMATION                                                           
 VERS.           2.0: CWLS Log ASCII Standard - Version 2.0                    
 WRAP.            NO: One Line per Depth Step                                  
~WELL INFORMATION                                                              
#MNEM.UNIT              DATA            DESCRIPTION OF MNEMONIC                
#-----------            ----            -----------------------                
 STRT.M             952.00              :Start Depth                           
 STOP.M            1604.00              :Stop  Depth                           
 STEP.M             0.2000              :Step                                  
 NULL.              -99999.0            :Null Value                            
 COMP.     PETROLEO BRASILEIRO S/A      :Company                               
 ORIG.     SIGEO EXPORTACAO PERFIL      :Origem dos dados                      
 WELL.     7-LP-85-ES                   :Well                                  
 FLD.      LAGOA PARDA                  :Field                                 
 STAT.     ESPIRITO SANTO               :State                                 
 API.      342700026300                 :API Code                              
 X.                412944.10            :Surface X                             
 Y.               7831795.90            :Surface Y                             
 HZCS.           UTM                    :Horizontal Coordinate System          
 MC.               39 W                 :Meridiano Central
 LATI.           -19:36:25.186          :Latitude                              
 LONG.           -39:49:48.609          :Longitude                             
 GDAT.           SIRGAS2000             :Geodetic Datum                        
 LMF.            MR                     :Log Measure From                      
 EDF.M               8.00               :Elevation Derrick Floor               
 EGL.M               3.00               :GROUND ELEVATION                      
~CURVE INFORMATION                                                             
 DEPT.M                                 :Measured Depth                        
 CALI.in                                :CALIPER 
 DRHO.g/cm3                             :BULK DENSITIY CORRECTION 
 EFAC.Adim                              :ELETROFACIES 
 GR.gAPI                                :GAMMA RAY 
 ILD.ohm.m                              :INDUCTION DEEP RESISTIVITY 
 NPHI.%                                 :THERMAL NEUTRON POROSITY (ORIGINAL RATIO METHOD) IN SELECTED LITHOLOGY 
 RHOB.g/cm3                             :BULK DENSITY 
 SN.ohm.m                               :SHORT NORMAL RESISTIVITY 
 SP.mV                                  :SPONTANEOUS POTENTIAL 
 TENS.lbf                               :LINE TENSION 
 VSH.v/v                                :VOLUME DE FOLHELHO 
~ASCII LOG DATA                                                                
# ...
    964.0000   -99999.0   -99999.0   -99999.0    69.0472   -99999.0   -99999.0   -99999.0   -99999.0   -99999.0   -99999.0   -99999.0 
    964.2000   -99999.0   -99999.0   -99999.0    66.5014   -99999.0   -99999.0   -99999.0   -99999.0   -99999.0   -99999.0   -99999.0 
    964.4000   -99999.0   -99999.0   -99999.0    65.5000   -99999.0   -99999.0   -99999.0   -99999.0   -99999.0   -99999.0   -99999.0 
    964.6000   -99999.0   -99999.0   -99999.0    65.3760   -99999.0   -99999.0   -99999.0   -99999.0   -99999.0   -99999.0   -99999.0 
    964.8000   -99999.0   -99999.0   -99999.0    65.5629   -99999.0   -99999.0   -99999.0   -99999.0   -99999.0   -99999.0   -99999.0 
    965.0000   -99999.0   -99999.0   -99999.0    67.4228   -99999.0   -99999.0   -99999.0   -99999.0   -99999.0   -99999.0   -99999.0 
    965.2000   -99999.0   -99999.0   -99999.0    67.6146   -99999.0   -99999.0   -99999.0   -99999.0   -99999.0   -99999.0   -99999.0 
    965.4000   -99999.0   -99999.0   -99999.0    65.6408   -99999.0   -99999.0   -99999.0   -99999.0   -99999.0   -99999.0   -99999.0 
    965.6000   -99999.0   -99999.0   -99999.0    63.3424   -99999.0   -99999.0   -99999.0   -99999.0   -99999.0   -99999.0   -99999.0 
    965.8000   -99999.0   -99999.0   -99999.0    63.1874   -99999.0   -99999.0   -99999.0   -99999.0   -99999.0   -99999.0   -99999.0 
    966.0000   -99999.0   -99999.0   -99999.0    65.1594   -99999.0   -99999.0   -99999.0   -99999.0   -99999.0   -99999.0   -99999.0 
    966.2000   -99999.0   -99999.0   -99999.0    66.8209   -99999.0   -99999.0   -99999.0   -99999.0   -99999.0   -99999.0   -99999.0 
    966.4000   -99999.0   -99999.0   -99999.0    63.7901   -99999.0   -99999.0   -99999.0   -99999.0   -99999.0   -99999.0   -99999.0 
    966.6000   -99999.0   -99999.0   -99999.0    58.1530   -99999.0   -99999.0   -99999.0   -99999.0   -99999.0   -99999.0   -99999.0 
    966.8000   -99999.0   -99999.0   -99999.0    56.1302   -99999.0   -99999.0   -99999.0   -99999.0   -99999.0   -99999.0   -99999.0 
    967.0000   -99999.0   -99999.0   -99999.0    63.7563   -99999.0   -99999.0   -99999.0   -99999.0   -99999.0   -99999.0   -99999.0 
    967.2000   -99999.0   -99999.0   -99999.0    79.5114   -99999.0   -99999.0   -99999.0   -99999.0   -99999.0   -99999.0   -99999.0 
    967.4000   -99999.0   -99999.0   -99999.0    93.9251   -99999.0   -99999.0   -99999.0   -99999.0   -99999.0   -99999.0   -99999.0 
    967.6000   -99999.0   -99999.0   -99999.0   100.5067   -99999.0   -99999.0   -99999.0   -99999.0   -99999.0   -99999.0   -99999.0 
    967.8000   -99999.0   -99999.0   -99999.0   103.0572   -99999.0   -99999.0   -99999.0   -99999.0   -99999.0   -99999.0   -99999.0 
    968.0000    12.2031     0.0753   -99999.0   102.5538     0.7849    52.4036     2.1207     1.1882    40.1169  1386.2610   -99999.0 
    968.2000    12.6314     0.0947   -99999.0    96.0299     0.8682    57.7269     2.1142     1.2402    40.1964  1420.0000   -99999.0 
    968.4000    12.7326     0.1178   -99999.0    91.2609     0.9697    59.1940     2.0833     1.2897    40.1348  1413.0447   -99999.0 
    968.6000    13.0216     0.1224   -99999.0    92.3862     0.9767    56.1255     2.0571     1.3293    40.3980  1400.0000   -99999.0 
    968.8000    13.3239     0.1064   -99999.0    96.0173     0.9447    53.0690     2.0549     1.3762    40.6945  1400.0000   -99999.0 
    969.0000    12.9646     0.0934   -99999.0   100.2834     0.9645    49.9512     2.0798     1.4177    40.9139  1405.0000   -99999.0 
    969.2000    12.7560     0.0938   -99999.0   101.4626     1.0079    46.9370     2.1101     1.4507    40.8417  1413.9565   -99999.0 
    969.4000    13.0965     0.0950   -99999.0    98.0079     1.0492    47.0767     2.1436     1.4773    40.6909  1401.8110   -99999.0 
    969.6000    13.2368     0.0951   -99999.0    94.5339     1.0882    51.4960     2.2045     1.4667    41.4778  1406.4316   -99999.0 
    969.8000    13.0714     0.1022   -99999.0    93.3863     1.1200    55.8952     2.2498     1.4481    41.6671  1429.0000   -99999.0 
    970.0000    13.1493     0.1050   -99999.0    92.5228     1.1098    56.5075     2.2117     1.4304    41.7307  1412.9172   -99999.0 
    970.2000    13.2079     0.1012   -99999.0    89.0442     1.0573    53.8542     2.1343     1.4191    40.7682  1424.0000   -99999.0 
    970.4000    13.2783     0.1044   -99999.0    85.8644     1.0057    52.5661     2.0983     1.4191    40.8827  1415.0486   -99999.0 
    970.6000    13.3257     0.1070   -99999.0    88.0287     0.9744    55.4838     2.0881     1.4191    40.8083  1416.7520   -99999.0 
    970.8000    13.3677     0.0949   -99999.0    93.9449     0.9586    60.3555     2.0900     1.4181    40.8383  1420.3831   -99999.0 
    971.0000    13.4971     0.0858   -99999.0    97.1184     0.9488    59.6801     2.1031     1.4053    41.8122  1424.0000   -99999.0 
    971.2000    13.7457     0.0985   -99999.0    94.8386     0.9431    56.0956     2.1054     1.3926    43.2043  1431.2046   -99999.0 
    971.4000    13.9100     0.1190   -99999.0    90.2180     0.9396    54.6098     2.0833     1.3772    44.1819  1433.0486   -99999.0 
    971.6000    13.8755     0.1128   -99999.0    87.8000     0.9339    52.7777     2.0602     1.3816    39.8716  1403.2742   -99999.0 
    971.8000    13.7968     0.0971   -99999.0    88.9835     0.9297    48.8926     2.0642     1.4027    35.7358  1425.6416   -99999.0 
    972.0000    13.8482     0.1056   -99999.0    92.0245     0.9290    46.5101     2.0894     1.4379    35.2728  1439.0000   -99999.0 
    972.2000    13.6451     0.1379   -99999.0    94.4539     0.9378    48.7131     2.0823     1.4645    35.3871  1418.0576   -99999.0 
    972.4000    12.9925     0.1560   -99999.0    95.2783     0.9493    52.6246     2.0338     1.4913    35.0405  1367.6929   -99999.0 
    972.6000    12.3880     0.1444   -99999.0    95.4907     0.9568    55.1293     1.9951     1.4997    35.0907  1567.6995   -99999.0 
    972.8000    11.7940     0.1069   -99999.0    96.7355     0.9589    54.8551     2.0148     1.4974    35.8945  1603.5471   -99999.0 
    973.0000    11.6566     0.0807   -99999.0   101.0728     0.9560    51.2503     2.0657     1.4839    37.1937  1574.4724   -99999.0 
    973.2000    11.9585     0.0846   -99999.0   104.5877     0.9531    46.4659     2.0898     1.4705    38.1126  1559.1287   -99999.0 
    973.4000    12.0953     0.0937   -99999.0   103.7877     0.9445    45.1276     2.0724     1.4557    39.4000  1527.0000   -99999.0 
    973.6000    12.0841     0.0911   -99999.0   101.4441     0.9254    49.8616     2.0418     1.4342    39.0252  1453.9133   -99999.0 
    973.8000    11.7877     0.0978   -99999.0    98.5917     0.8947    59.1618     2.0103     1.4212    36.8040  1381.9316   -99999.0 
    974.0000    11.0302     0.1128   -99999.0    94.2882     0.8633    64.5204     1.9869     1.4191    33.9950  1385.0696   -99999.0 
    974.2000    10.7400     0.1037   -99999.0    93.6866     0.8417    56.7999     1.9965     1.4230    31.7972  1522.0000   -99999.0 
    974.4000    10.7328     0.0815   -99999.0    96.5535     0.8296    46.8507     2.0443     1.4218    32.7203  1441.6011   -99999.0 
    974.6000    10.8672     0.0753   -99999.0   100.5875     0.8280    42.6832     2.0975     1.4191    35.3181  1370.3962   -99999.0 
    974.8000    11.1206     0.0901   -99999.0   103.5027     0.8318    44.7159     2.1157     1.4191    35.8315  1351.0000   -99999.0 
    975.0000    11.1993     0.1039   -99999.0   101.2770     0.8432    48.1285     2.1144     1.4255    35.2416  1373.2651   -99999.0 
    975.2000    11.5682     0.1186   -99999.0    95.3575     0.8567    49.1918     2.1101     1.4578    32.5820  1328.9028   -99999.0 
    975.4000    12.6003     0.1425   -99999.0    89.8937     0.8655    47.1567     2.1032     1.5104    25.5303  1400.0000   -99999.0 
    975.6000    12.8069     0.1570   -99999.0    85.4060     0.8670    45.9275     2.0859     1.5615    20.4612  1400.0000   -99999.0 
    975.8000    12.8871     0.1518   -99999.0    82.3820     0.8706    46.7090     2.0591     1.5975    18.3150  1395.4790   -99999.0 
