~VERSION INFORMATION                                                           
 VERS.           2.0: CWLS Log ASCII Standard - Version 2.0                    
 WRAP.            NO: One Line per Depth Step                                  
~WELL INFORMATION                                                              
#MNEM.UNIT              DATA            DESCRIPTION OF MNEMONIC                
#-----------            ----            -----------------------                
 STRT.M             898.09              :Start Depth                           
 STOP.M            1708.40              :Stop  Depth                           
 STEP.M             0.1524              :Step                                  
 NULL.              -99999.0            :Null Value                            
 COMP.     PETROLEO BRASILEIRO S/A      :Company                               
 ORIG.     SIGEO EXPORTACAO PERFIL      :Origem dos dados                      
 WELL.     7-LP-84-ES                   :Well                                  
 FLD.      LAGOA PARDA                  :Field                                 
 STAT.     ESPIRITO SANTO               :State                                 
 API.      342700024200                 :API Code                              
 X.                411577.00            :Surface X                             
 Y.               7831472.80            :Surface Y                             
 HZCS.           UTM                    :Horizontal Coordinate System          
 MC.               39 W                 :Meridiano Central
 LATI.           -19:36:35.478          :Latitude                              
 LONG.           -39:50:35.593          :Longitude                             
 GDAT.           SIRGAS2000             :Geodetic Datum                        
 LMF.            MR                     :Log Measure From                      
 EDF.M               9.00               :Elevation Derrick Floor               
 EGL.M               4.40               :GROUND ELEVATION                      
~CURVE INFORMATION                                                             
 DEPT.M                                 :Measured Depth                        
 CALI.in                                :CALIPER 
 CILD.mS/m                              :CALIBRATED DEEP INDUCTION CONDUCTIVITY 
 DRHO.g/cm3                             :BULK DENSITIY CORRECTION 
 EFAC.Adim                              :ELETROFACIES 
 GR.gAPI                                :GAMMA RAY 
 ILD.ohm.m                              :INDUCTION DEEP RESISTIVITY 
 NPHI.%                                 :THERMAL NEUTRON POROSITY (ORIGINAL RATIO METHOD) IN SELECTED LITHOLOGY 
 NPOR.%                                 :NEUTRON POROSITY (ENVIRONMENTALLY CORRECTED AND ALPHA PROCESSED) 
 RHOB.g/cm3                             :BULK DENSITY 
 SFLU.ohm.m                             :SFL RESISTIVITY UNAVERAGED 
 SP.mV                                  :SPONTANEOUS POTENTIAL 
 TENS.lbf                               :LINE TENSION 
 VSH.v/v                                :VOLUME DE FOLHELHO 
~ASCII LOG DATA                                                                
# ...
   1449.9327   -99999.0  1080.5400   -99999.0   -99999.0   110.2656     0.9227   -99999.0   -99999.0   -99999.0     1.1573   -12.0332  1866.2500   -99999.0 
   1450.0851   -99999.0  1107.4001   -99999.0   -99999.0   105.3750     0.9025   -99999.0   -99999.0   -99999.0     1.1572   -11.8965  1868.7500     1.0000 
   1450.2375   -99999.0  1138.4089   -99999.0   -99999.0    99.3281     0.8793   -99999.0   -99999.0   -99999.0     1.1231   -11.5723  1852.5000     1.0000 
   1450.3899   -99999.0  1166.1384   -99999.0   -99999.0    92.9844     0.8596   -99999.0   -99999.0   -99999.0     1.0652   -11.4922  1833.7500     1.0000 
   1450.5423   -99999.0  1183.7192   -99999.0   -99999.0    89.6719     0.8461   -99999.0   -99999.0   -99999.0     1.0116   -11.8984  1828.7500     1.0000 
   1450.6947   -99999.0  1194.5359   -99999.0   -99999.0    91.7812     0.8374   -99999.0   -99999.0   -99999.0     0.9909   -12.1699  1832.5000     1.0000 
   1450.8471   -99999.0  1204.0146   -99999.0   -99999.0    96.8281     0.8317   -99999.0   -99999.0   -99999.0     1.0068   -12.0098  1840.0000     1.0000 
   1450.9995   -99999.0  1207.1809   -99999.0   -99999.0   100.4219     0.8297   -99999.0   -99999.0   -99999.0     1.0391   -11.8281  1843.7500     1.0000 
   1451.1519   -99999.0  1202.6392   -99999.0   -99999.0   101.8750     0.8340   -99999.0   -99999.0   -99999.0     1.0847   -11.8262  1837.5000     1.0000 
   1451.3043   -99999.0  1184.1292   -99999.0   -99999.0   103.2656     0.8454   -99999.0   -99999.0   -99999.0     1.1472   -11.6895  1833.7500     1.0000 
   1451.4567   -99999.0  1161.3860   -99999.0   -99999.0   107.6406     0.8611   -99999.0   -99999.0   -99999.0     1.1979   -11.2715  1838.7500     1.0000 
   1451.6091   -99999.0  1139.2842   -99999.0   -99999.0   115.6719     0.8764   -99999.0   -99999.0   -99999.0     1.2073   -11.2031  1842.5000     1.0000 
   1451.7615   -99999.0  1124.9077   -99999.0   -99999.0   121.2500     0.8868   -99999.0   -99999.0   -99999.0     1.1881   -11.7969  1840.0000     1.0000 
   1451.9139   -99999.0  1121.7593   -99999.0   -99999.0   119.5781     0.8907   -99999.0   -99999.0   -99999.0     1.1695   -11.8906  1836.2500     1.0000 
   1452.0663   -99999.0  1122.2952   -99999.0   -99999.0   113.5625     0.8910   -99999.0   -99999.0   -99999.0     1.1639   -11.0488  1835.0000     1.0000 
   1452.2187   -99999.0  1122.8308   -99999.0   -99999.0   109.3750     0.8897   -99999.0   -99999.0   -99999.0     1.1508   -10.6055  1838.7500     1.0000 
   1452.3711   -99999.0  1128.1262   -99999.0   -99999.0   109.6875     0.8881   -99999.0   -99999.0   -99999.0     1.1371   -10.8691  1847.5000     1.0000 
   1452.5235   -99999.0  1124.7734   -99999.0   -99999.0   111.7344     0.8902   -99999.0   -99999.0   -99999.0     1.1268   -11.1094  1851.2500     1.0000 
   1452.6759   -99999.0  1115.6064   -99999.0   -99999.0   112.9844     0.8943   -99999.0   -99999.0   -99999.0     1.1075   -11.3574  1855.0000     1.0000 
   1452.8283   -99999.0  1117.0098   -99999.0   -99999.0   112.9062     0.8949   -99999.0   -99999.0   -99999.0     1.1005   -11.4160  1867.5000     1.0000 
   1452.9807   -99999.0  1119.9524   -99999.0   -99999.0   110.6250     0.8936   -99999.0   -99999.0   -99999.0     1.1120   -11.1406  1865.0000     1.0000 
   1453.1331   -99999.0  1119.2163   -99999.0   -99999.0   106.7500     0.8930   -99999.0   -99999.0   -99999.0     1.1329   -11.0312  1838.7500     1.0000 
   1453.2855   -99999.0  1120.7551   -99999.0   -99999.0   104.0625     0.8934   -99999.0   -99999.0   -99999.0     1.1500   -11.1113  1820.0000     1.0000 
   1453.4379   -99999.0  1116.3416   -99999.0   -99999.0   104.2812     0.8963   -99999.0   -99999.0   -99999.0     1.1505   -11.4453  1825.0000     1.0000 
   1453.5903   -99999.0  1109.2664   -99999.0   -99999.0   107.0156     0.9012   -99999.0   -99999.0   -99999.0     1.1507   -12.0840  1836.2500     1.0000 
   1453.7427   -99999.0  1103.6050   -99999.0   -99999.0   109.5938     0.9065   -99999.0   -99999.0   -99999.0     1.1545   -12.3613  1841.2500     1.0000 
   1453.8951   -99999.0  1095.9631   -99999.0   -99999.0   110.5469     0.9122   -99999.0   -99999.0   -99999.0     1.1602   -12.1309  1843.7500     1.0000 
   1454.0475   -99999.0  1089.4663   -99999.0   -99999.0   111.7656     0.9188   -99999.0   -99999.0   -99999.0     1.1663   -12.2109  1843.7500     1.0000 
   1454.1999   -99999.0  1078.6260   -99999.0   -99999.0   112.7656     0.9281   -99999.0   -99999.0   -99999.0     1.1679   -12.5488  1841.2500     1.0000 
   1454.3523   -99999.0  1063.3599   -99999.0   -99999.0   113.2500     0.9392   -99999.0   -99999.0   -99999.0     1.1617   -12.4062  1841.2500     1.0000 
   1454.5047   -99999.0  1053.8586   -99999.0   -99999.0   113.2188     0.9475   -99999.0   -99999.0   -99999.0     1.1611   -11.9297  1845.0000     1.0000 
   1454.6571   -99999.0  1050.6553   -99999.0   -99999.0   112.2656     0.9528   -99999.0   -99999.0   -99999.0     1.1937   -11.7031  1848.7500     1.0000 
   1454.8095   -99999.0  1043.2153   -99999.0   -99999.0   111.2812     0.9575   -99999.0   -99999.0   -99999.0     1.2390   -12.0645  1847.5000     1.0000 
   1454.9619   -99999.0  1040.3494   -99999.0   -99999.0   109.6250     0.9632   -99999.0   -99999.0   -99999.0     1.2502   -12.5059  1840.0000     1.0000 
   1455.1143   -99999.0  1028.9126   -99999.0   -99999.0   108.2656     0.9729   -99999.0   -99999.0   -99999.0     1.2258   -12.5234  1835.0000     1.0000 
   1455.2667   -99999.0  1013.7771   -99999.0   -99999.0   108.0312     0.9851   -99999.0   -99999.0   -99999.0     1.1955   -12.6250  1840.0000     1.0000 
   1455.4191   -99999.0  1004.5029   -99999.0   -99999.0   110.0469     0.9891   -99999.0   -99999.0   -99999.0     1.2010   -13.2734  1848.7500     1.0000 
   1455.5715   -99999.0  1021.4641   -99999.0   -99999.0   114.5781     0.9804   -99999.0   -99999.0   -99999.0     1.2701   -14.0312  1856.2500     1.0000 
   1455.7239   -99999.0  1032.8711   -99999.0   -99999.0   118.7656     0.9683   -99999.0   -99999.0   -99999.0     1.3346   -14.0625  1861.2500     1.0000 
   1455.8763   -99999.0  1043.9324   -99999.0   -99999.0   120.8125     0.9574   -99999.0   -99999.0   -99999.0     1.3106   -13.4902  1856.2500     1.0000 
   1456.0287   -99999.0  1057.3281   -99999.0   -99999.0   120.5000     0.9458   -99999.0   -99999.0   -99999.0     1.2098   -12.8613  1843.7500     1.0000 
   1456.1811   -99999.0  1070.8513   -99999.0   -99999.0   119.5312     0.9342   -99999.0   -99999.0   -99999.0     1.1286   -12.2422  1838.7500     1.0000 
   1456.3335   -99999.0  1082.7854   -99999.0   -99999.0   117.0938     0.9214   -99999.0   -99999.0   -99999.0     1.1204   -11.9922  1843.7500     1.0000 
   1456.4859   -99999.0  1105.2026   -99999.0   -99999.0   112.5312     0.9062   -99999.0   -99999.0   -99999.0     1.1383   -12.0547  1852.5000     1.0000 
   1456.6383   -99999.0  1121.6921   -99999.0   -99999.0   108.0469     0.8940   -99999.0   -99999.0   -99999.0     1.1405   -11.9043  1858.7500     1.0000 
   1456.7907   -99999.0  1125.9800   -99999.0   -99999.0   105.6406     0.8897   -99999.0   -99999.0   -99999.0     1.1198   -11.8379  1855.0000     1.0000 
   1456.9431   -99999.0  1122.2280   -99999.0   -99999.0   106.3906     0.8901   -99999.0   -99999.0   -99999.0     1.1077   -12.0859  1848.7500     1.0000 
   1457.0955   -99999.0  1123.2324   -99999.0   -99999.0   108.3125     0.8929   -99999.0   -99999.0   -99999.0     1.1274   -12.5312  1846.2500     1.0000 
   1457.2479   -99999.0  1111.2671   -99999.0   -99999.0   111.1719     0.8993   -99999.0   -99999.0   -99999.0     1.1515   -13.0859  1845.0000     1.0000 
   1457.4003   -99999.0  1102.2744   -99999.0   -99999.0   116.8281     0.9106   -99999.0   -99999.0   -99999.0     1.1560   -13.5059  1850.0000     1.0000 
   1457.5527   -99999.0  1077.7026   -99999.0   -99999.0   123.0156     0.9287   -99999.0   -99999.0   -99999.0     1.1467   -13.9082  1855.0000     1.0000 
