~VERSION INFORMATION                                                           
 VERS.           2.0: CWLS Log ASCII Standard - Version 2.0                    
 WRAP.            NO: One Line per Depth Step                                  
~WELL INFORMATION                                                              
#MNEM.UNIT              DATA            DESCRIPTION OF MNEMONIC                
#-----------            ----            -----------------------                
 STRT.M             898.09              :Start Depth                           
 STOP.M            1708.40              :Stop  Depth                           
 STEP.M             0.1524              :Step                                  
 NULL.              -99999.0            :Null Value                            
 COMP.     PETROLEO BRASILEIRO S/A      :Company                               
 ORIG.     SIGEO EXPORTACAO PERFIL      :Origem dos dados                      
 WELL.     7-LP-84-ES                   :Well                                  
 FLD.      LAGOA PARDA                  :Field                                 
 STAT.     ESPIRITO SANTO               :State                                 
 API.      342700024200                 :API Code                              
 X.                411577.00            :Surface X                             
 Y.               7831472.80            :Surface Y                             
 HZCS.           UTM                    :Horizontal Coordinate System          
 MC.               39 W                 :Meridiano Central
 LATI.           -19:36:35.478          :Latitude                              
 LONG.           -39:50:35.593          :Longitude                             
 GDAT.           SIRGAS2000             :Geodetic Datum                        
 LMF.            MR                     :Log Measure From                      
 EDF.M               9.00               :Elevation Derrick Floor               
 EGL.M               4.40               :GROUND ELEVATION                      
~CURVE INFORMATION                                                             
 DEPT.M                                 :Measured Depth                        
 CALI.in                                :CALIPER 
 CILD.mS/m                              :CALIBRATED DEEP INDUCTION CONDUCTIVITY 
 DRHO.g/cm3                             :BULK DENSITIY CORRECTION 
 EFAC.Adim                              :ELETROFACIES 
 GR.gAPI                                :GAMMA RAY 
 ILD.ohm.m                              :INDUCTION DEEP RESISTIVITY 
 NPHI.%                                 :THERMAL NEUTRON POROSITY (ORIGINAL RATIO METHOD) IN SELECTED LITHOLOGY 
 NPOR.%                                 :NEUTRON POROSITY (ENVIRONMENTALLY CORRECTED AND ALPHA PROCESSED) 
 RHOB.g/cm3                             :BULK DENSITY 
 SFLU.ohm.m                             :SFL RESISTIVITY UNAVERAGED 
 SP.mV                                  :SPONTANEOUS POTENTIAL 
 TENS.lbf                               :LINE TENSION 
 VSH.v/v                                :VOLUME DE FOLHELHO 
~ASCII LOG DATA                                                                
# ...
   1605.3807     8.7318   806.7131     0.0845   -99999.0   146.8438     1.2395    38.0745    39.4760     2.3356     1.7261   -20.7305  1977.5000     0.9857 
   1605.5331     8.7418   807.8567     0.0918   -99999.0   144.5938     1.2374    37.6923    42.2363     2.2907     1.6736   -20.3398  1986.2500     0.9910 
   1605.6855     8.7795   810.0557     0.0543   -99999.0   143.0938     1.2349    41.0553    38.4491     2.2906     1.5714   -20.3242  1990.0000     0.9910 
   1605.8379     8.7812   811.2456     0.0094   -99999.0   143.2500     1.2292    42.1524    40.6647     2.2609     1.5171   -20.6992  1986.2500     0.9872 
   1605.9903     8.8186   821.6335     0.0267   -99999.0   146.1562     1.2199    40.2969    43.4814     2.2754     1.5371   -20.7930  1977.5000     0.9843 
   1606.1427     8.7681   824.6191     0.0060   -99999.0   150.4062     1.2191    40.5468    42.6620     2.2119     1.5575   -20.8008  1972.5000     0.9842 
   1606.2951     9.1616   810.5120     0.0139   -99999.0   152.5000     1.2360    41.7084    43.8766     2.2448     1.5217   -20.7695  1971.2500     0.9879 
   1606.4475     8.7764   791.2910     0.0005   -99999.0   148.5625     1.2579    39.4714    39.7461     2.2261     1.4699   -20.2305  1968.7500     0.9939 
   1606.5999     8.7429   787.2681     0.0387   -99999.0   139.5000     1.2662    35.4462    34.0027     2.3383     1.5260   -19.5977  1971.2500     1.0000 
   1606.7523     8.7272   793.3569    -0.0106   -99999.0   132.6250     1.2618    35.4845    32.2235     2.3776     1.7555   -19.4336  1972.5000     1.0000 
   1606.9047     8.6518   796.2207    -0.0121   -99999.0   133.3125     1.2565    39.4409    38.1836     2.3328     1.9343   -19.7031  1965.0000     1.0000 
   1607.0571     8.9629   797.5903     0.0319   -99999.0   140.5000     1.2548    43.6371    45.2148     2.1703     1.8454   -19.9414  1962.5000     0.9997 
   1607.2095     8.7446   796.2502     0.0624   -99999.0   147.6250     1.2561    42.7979    47.0200     2.2169     1.6282   -20.0664  1972.5000     0.9986 
   1607.3619     8.7344   794.2788     0.0322   -99999.0   149.2812     1.2516    40.2405    42.1570     2.2119     1.5057   -20.2891  1986.2500     0.9945 
   1607.5143     8.7943   811.4475    -0.0027   -99999.0   145.6875     1.2316    38.7985    38.4613     2.2585     1.5047   -20.4453  1988.7500     0.9914 
   1607.6667     8.7444   831.6030     0.0136   -99999.0   141.0938     1.2050    37.8334    39.2113     2.2497     1.5176   -20.5508  1977.5000     0.9899 
   1607.8191     8.7722   845.4221     0.0829   -99999.0   141.0625     1.1860    39.4043    38.6620     2.3227     1.4923   -20.5078  1967.5000     0.9897 
   1607.9715     8.7959   850.5234     0.0061   -99999.0   146.1875     1.1760    39.1071    42.0410     2.1875     1.4739   -20.4805  1968.7500     0.9895 
   1608.1239     9.0823   854.9189     0.1039   -99999.0   149.1562     1.1715    38.4628    41.8472     2.3409     1.4902   -20.7188  1978.7500     0.9858 
   1608.2763     8.8235   854.1655     0.0005   -99999.0   144.7812     1.1708    39.2357    38.9648     2.2070     1.5084   -20.9258  1987.5000     0.9830 
   1608.4287     8.7825   853.1006     0.0112   -99999.0   138.5625     1.1726    39.9590    38.3381     2.2719     1.5035   -20.8945  1992.5000     0.9836 
   1608.5811     8.7662   850.9792    -0.0219   -99999.0   136.7188     1.1750    40.1131    39.7110     2.2155     1.4932   -20.3711  1996.2500     0.9926 
   1608.7335     8.8182   849.2625     0.0119   -99999.0   138.4688     1.1780    39.2029    38.8298     2.2559     1.4953   -19.9023  1993.7500     0.9978 
   1608.8859     8.7827   846.0442     0.0142   -99999.0   140.2188     1.1811    42.1600    39.8239     2.2622     1.5143   -20.1484  1983.7500     0.9946 
   1609.0383     8.7812   845.2781     0.0283   -99999.0   140.2188     1.1827    42.4027    45.2332     2.2648     1.5451   -20.7773  1977.5000     0.9875 
   1609.1907     8.8641   845.4070     0.0262   -99999.0   139.5938     1.1821    42.0010    42.3187     2.2442     1.5705   -21.1211  1981.2500     0.9870 
   1609.3431     8.8145   847.6375     0.0150   -99999.0   138.0625     1.1789    41.4478    41.5497     2.2683     1.5695   -20.8594  1983.7500     0.9858 
   1609.4955     8.7824   852.3782     0.0402   -99999.0   135.9375     1.1739    41.0057    40.1550     2.2947     1.5444   -20.5117  1977.5000     0.9890 
   1609.6479     8.8265   855.2080     0.0088   -99999.0   135.8750     1.1712    40.4877    40.8913     2.2823     1.5293   -20.2695  1967.5000     0.9943 
   1609.8003     8.7678   852.4768     0.0576   -99999.0   138.5000     1.1741    40.8176    42.6117     2.2824     1.5374   -20.0898  1961.2500     0.9982 
   1609.9527     8.8864   846.8257     0.0483   -99999.0   142.1250     1.1843    41.5489    42.7198     2.3236     1.5363   -20.1914  1965.0000     0.9955 
   1610.1051     8.9963   831.7236     0.0244   -99999.0   143.7812     1.2041    42.9276    43.3754     2.2889     1.4951   -20.4375  1982.5000     0.9923 
   1610.2575     8.9020   812.3608     0.0189   -99999.0   142.5312     1.2267    42.6098    46.8079     2.2641     1.4626   -20.5195  2001.2500     0.9909 
   1610.4099     9.0496   804.8308     0.0450   -99999.0   139.3438     1.2370    38.4003    39.3250     2.2484     1.5089   -20.3555  2000.0000     0.9930 
   1610.5623     8.8054   811.7920     0.0967   -99999.0   136.2500     1.2350    34.5581    33.5815     2.4741     1.6590   -19.9688  1981.2500     0.9986 
   1610.7147     8.6835   810.4895    -0.0459   -99999.0   135.5000     1.2355    34.4431    35.4080     2.3541     1.7879   -19.5859  1970.0000     1.0000 
   1610.8671     8.7175   804.9055     0.0204   -99999.0   136.9062     1.2430    38.0890    40.1855     2.2516     1.7344   -19.8984  1978.7500     0.9965 
   1611.0195     8.7642   797.8955     0.0617   -99999.0   138.2188     1.2527    40.8264    40.2352     2.2845     1.6127   -20.6172  1990.0000     0.9884 
   1611.1719     8.8792   792.4426     0.0668   -99999.0   137.2812     1.2569    40.0162    39.3997     2.3477     1.5794   -21.0352  1992.5000     0.9798 
   1611.3243     8.7012   799.7954     0.0046   -99999.0   136.4375     1.2468    41.4505    40.0330     2.2498     1.6450   -21.3320  1993.7500     0.9799 
   1611.4767     8.8090   816.6707     0.0512   -99999.0   136.7812     1.2277    42.5995    43.0878     2.2604     1.6893   -21.2148  1996.2500     0.9826 
   1611.6291     8.8352   825.5144    -0.0115   -99999.0   138.2500     1.2150    39.0259    43.5440     2.1887     1.6252   -20.6289  1992.5000     0.9861 
   1611.7815     8.7904   824.5061     0.0020   -99999.0   141.8438     1.2131    36.1237    36.0352     2.2767     1.5716   -20.3477  1981.2500     0.9914 
   1611.9339     8.6981   822.8665    -0.0092   -99999.0   145.2500     1.2160    37.8143    35.5860     2.2144     1.6256   -20.8086  1977.5000     0.9836 
   1612.0863     8.6953   819.2598     0.0402   -99999.0   145.1250     1.2232    41.1011    39.6210     2.2723     1.7088   -21.6719  1980.0000     0.9882 
   1612.2387     8.6573   808.7466     0.0244   -99999.0   139.0312     1.2345    42.2585    44.7571     2.1392     1.7128   -22.4062  1976.2500     0.9897 
   1612.3910     8.8232   803.5691     0.0848   -99999.0   131.9062     1.2422    39.5447    41.9678     2.2673     1.6624   -22.8086  1970.0000     0.9488 
   1612.5434     8.8509   804.2188     0.0319   -99999.0   128.6094     1.2404    39.3420    38.9465     2.2835     1.6410   -22.9727  1971.2500     0.9426 
   1612.6958     8.7072   812.7803     0.0712   -99999.0   128.4688     1.2298    40.5853    40.7867     2.2549     1.6665   -23.3750  1981.2500     0.9408 
   1612.8482     8.7412   822.9341     0.0388   -99999.0   132.8281     1.2151    41.8777    43.2159     2.3002     1.6648   -23.2969  1988.7500     0.9483 
   1613.0006     8.7346   833.5425     0.0244   -99999.0   141.2812     1.2019    40.4984    42.3370     2.2244     1.5847   -22.3516  1991.2500     0.9728 
