~VERSION INFORMATION                                                           
 VERS.           2.0: CWLS Log ASCII Standard - Version 2.0                    
 WRAP.            NO: One Line per Depth Step                                  
~WELL INFORMATION                                                              
#MNEM.UNIT              DATA            DESCRIPTION OF MNEMONIC                
#-----------            ----            -----------------------                
 STRT.M             952.00              :Start Depth                           
 STOP.M            1604.00              :Stop  Depth                           
 STEP.M             0.2000              :Step                                  
 NULL.              -99999.0            :Null Value                            
 COMP.     PETROLEO BRASILEIRO S/A      :Company                               
 ORIG.     SIGEO EXPORTACAO PERFIL      :Origem dos dados                      
 WELL.     7-LP-85-ES                   :Well                                  
 FLD.      LAGOA PARDA                  :Field                                 
 STAT.     ESPIRITO SANTO               :State                                 
 API.      342700026300                 :API Code                              
 X.                412944.10            :Surface X                             
 Y.               7831795.90            :Surface Y                             
 HZCS.           UTM                    :Horizontal Coordinate System          
 MC.               39 W                 :Meridiano Central
 LATI.           -19:36:25.186          :Latitude                              
 LONG.           -39:49:48.609          :Longitude                             
 GDAT.           SIRGAS2000             :Geodetic Datum                        
 LMF.            MR                     :Log Measure From                      
 EDF.M               8.00               :Elevation Derrick Floor               
 EGL.M               3.00               :GROUND ELEVATION                      
~CURVE INFORMATION                                                             
 DEPT.M                                 :Measured Depth                        
 CALI.in                                :CALIPER 
 DRHO.g/cm3                             :BULK DENSITIY CORRECTION 
 EFAC.Adim                              :ELETROFACIES 
 GR.gAPI                                :GAMMA RAY 
 ILD.ohm.m                              :INDUCTION DEEP RESISTIVITY 
 NPHI.%                                 :THERMAL NEUTRON POROSITY (ORIGINAL RATIO METHOD) IN SELECTED LITHOLOGY 
 RHOB.g/cm3                             :BULK DENSITY 
 SN.ohm.m                               :SHORT NORMAL RESISTIVITY 
 SP.mV                                  :SPONTANEOUS POTENTIAL 
 TENS.lbf                               :LINE TENSION 
 VSH.v/v                                :VOLUME DE FOLHELHO 
~ASCII LOG DATA                                                                
# ...
   1300.0000    10.3119     0.1466   -99999.0    90.5425     0.9428    50.4002     2.2526     1.4210    67.8197  1704.0039   -99999.0 
   1300.2000    10.1897     0.1545   -99999.0    93.8697     0.9496    47.6094     2.2550     1.4340    68.1157  1708.0000   -99999.0 
   1300.4000    10.2708     0.1568   -99999.0    93.7745     0.9564    46.2308     2.2608     1.4470    70.0207  1715.4290   -99999.0 
   1300.6000    10.3441     0.1631   -99999.0    92.6311     0.9572    46.3862     2.2716     1.4488    71.2827  1711.6260   -99999.0 
   1300.8000    10.3475     0.1732   -99999.0    91.2547     0.9562    46.1830     2.2591     1.4443    71.4849  1678.0000   -99999.0 
   1301.0000    10.3200     0.1778   -99999.0    87.5838     0.9516    46.3678     2.2264     1.4312    69.9563  1633.7769   -99999.0 
   1301.2000    10.4278     0.1736   -99999.0    86.7917     0.9434    47.9504     2.1997     1.4183    68.9327  1629.7991   -99999.0 
   1301.4000    10.3806     0.1692   -99999.0    92.3357     0.9321    49.6955     2.1995     1.4055    68.0613  1751.0000   -99999.0 
   1301.6000    10.2311     0.1794   -99999.0    97.2186     0.9224    50.2259     2.2106     1.3996    67.7901  1669.1614   -99999.0 
   1301.8000    10.1220     0.1930   -99999.0    97.7929     0.9141    51.3400     2.2099     1.3996    66.6083  1634.9211   -99999.0 
   1302.0000    10.2997     0.1891   -99999.0    96.5841     0.9120    52.8771     2.1964     1.3996    67.7214  1712.0000   -99999.0 
   1302.2000    10.3200     0.1715   -99999.0    93.3269     0.9107    50.6078     2.1994     1.3996    69.6820  1665.5366   -99999.0 
   1302.4000    10.3959     0.1575   -99999.0    89.4484     0.9079    47.4964     2.2229     1.4088    70.4898  1676.0039   -99999.0 
   1302.6000    10.3504     0.1565   -99999.0    88.8484     0.9057    50.0007     2.2461     1.3996    70.4216  1683.2231   -99999.0 
   1302.8000    10.4201     0.1591   -99999.0    92.0058     0.9057    54.3511     2.2607     1.3996    70.0279  1698.0000   -99999.0 
   1303.0000    10.4057     0.1609   -99999.0    94.6173     0.9094    54.6628     2.2756     1.3996    68.3055  1650.1653   -99999.0 
   1303.2000    10.2201     0.1594   -99999.0    95.9972     0.9154    49.2234     2.2852     1.3996    68.0603  1654.7007   -99999.0 
   1303.4000    10.1902     0.1575   -99999.0    99.1399     0.9226    43.7470     2.2713     1.4045    67.5426  1698.0000   -99999.0 
   1303.6000    10.1506     0.1662   -99999.0   103.1394     0.9300    43.5179     2.2355     1.4173    66.6240  1677.4290   -99999.0 
   1303.8000    10.1768     0.1859   -99999.0   102.0404     0.9381    47.7939     2.1963     1.4302    65.5217  1674.3516   -99999.0 
   1304.0000    10.5534     0.1984   -99999.0    97.8470     0.9438    49.5541     2.1763     1.4388    67.0160  1683.0000   -99999.0 
   1304.2000    10.5700     0.1846   -99999.0    95.6921     0.9479    47.2436     2.1776     1.4388    69.1157  1660.9646   -99999.0 
   1304.4000    10.4565     0.1528   -99999.0    97.7681     0.9483    44.4439     2.1964     1.4388    70.0711  1655.3713   -99999.0 
   1304.6000    10.5823     0.1380   -99999.0   104.3457     0.9454    42.7762     2.2204     1.4388    69.5462  1673.0000   -99999.0 
   1304.8000    10.5524     0.1429   -99999.0   107.0909     0.9425    42.6036     2.2346     1.4388    69.1606  1659.7598   -99999.0 
   1305.0000    10.4310     0.1510   -99999.0   102.3761     0.9375    45.0393     2.2451     1.4388    69.4945  1653.8621   -99999.0 
   1305.2000    10.4853     0.1497   -99999.0   100.5074     0.9340    48.7562     2.2543     1.4356    68.8357  1639.0000   -99999.0 
   1305.4000    10.3003     0.1464   -99999.0   104.3453     0.9284    49.6638     2.2551     1.4289    68.8268  1685.2715   -99999.0 
   1305.6000    10.2316     0.1488   -99999.0   106.7408     0.9248    48.4692     2.2455     1.4196    69.0892  1712.0000   -99999.0 
   1305.8000    10.0993     0.1474   -99999.0   104.5244     0.9220    47.6902     2.2335     1.4191    70.2034  1620.0000   -99999.0 
   1306.0000    10.0400     0.1419   -99999.0   100.1307     0.9204    47.2845     2.2411     1.4247    70.8996  1675.3740   -99999.0 
   1306.2000    10.0135     0.1507   -99999.0    94.7905     0.9204    46.5471     2.2701     1.4289    70.9350  1618.0813   -99999.0 
   1306.4000    10.3141     0.1712   -99999.0    91.3195     0.9230    46.1254     2.2831     1.4289    70.1827  1635.5039   -99999.0 
   1306.6000    10.2087     0.1709   -99999.0    92.9744     0.9269    47.4837     2.2558     1.4289    69.2937  1761.0000   -99999.0 
   1306.8000    10.0726     0.1537   -99999.0    96.0584     0.9325    49.4965     2.2254     1.4289    68.1618  1692.9226   -99999.0 
   1307.0000    10.4394     0.1424   -99999.0    96.6253     0.9381    49.2451     2.2257     1.4289    67.7939  1668.3240   -99999.0 
   1307.2000    10.3833     0.1477   -99999.0    99.4346     0.9438    47.2582     2.2406     1.4289    66.7886  1605.0000   -99999.0 
   1307.4000    10.3849     0.1555   -99999.0   102.2358     0.9479    45.3705     2.2435     1.4289    66.4000  1734.4841   -99999.0 
   1307.6000    10.3290     0.1643   -99999.0   100.3609     0.9484    44.9330     2.2367     1.4289    67.1626  1763.4106   -99999.0 
   1307.8000    10.4424     0.1675   -99999.0    98.6146     0.9476    46.2613     2.2319     1.4289    68.5346  1595.0000   -99999.0 
   1308.0000    10.4092     0.1546   -99999.0    99.3554     0.9432    46.8786     2.2279     1.4289    70.2331  1666.5051   -99999.0 
   1308.2000    10.3706     0.1360   -99999.0   100.3033     0.9375    47.5781     2.2301     1.4388    70.2948  1697.9016   -99999.0 
   1308.4000    10.4217     0.1395   -99999.0   101.6291     0.9326    51.4648     2.2491     1.4388    69.5000  1683.0000   -99999.0 
   1308.6000    10.2895     0.1604   -99999.0   106.1774     0.9284    55.1409     2.2702     1.4388    69.2475  1679.8438   -99999.0 
   1308.8000    10.2128     0.1755   -99999.0   110.2533     0.9248    55.7090     2.2750     1.4295    69.5718  1678.0000   -99999.0 
   1309.0000    10.2300     0.1737   -99999.0   108.1508     0.9220    55.5754     2.2637     1.4289    69.6488  1678.0000   -99999.0 
   1309.2000    10.2130     0.1758   -99999.0   102.9975     0.9204    57.2374     2.2530     1.4289    69.5000  1652.9973   -99999.0 
   1309.4000    10.0591     0.1868   -99999.0    99.1105     0.9223    57.8655     2.2456     1.4289    70.0283  1634.0000   -99999.0 
   1309.6000     9.8381     0.1879   -99999.0    96.3299     0.9230    52.6618     2.2376     1.4289    71.1579  1776.0000   -99999.0 
   1309.8000     9.7391     0.1699   -99999.0    94.8968     0.9258    45.8184     2.2290     1.4239    71.5516  1723.9592   -99999.0 
   1310.0000     9.6009     0.1504   -99999.0    94.1094     0.9268    43.0278     2.2260     1.4191    71.4547  1693.4395   -99999.0 
   1310.2000     9.6882     0.1478   -99999.0    94.5118     0.9290    44.3202     2.2312     1.4191    69.8091  1692.2834   -99999.0 
   1310.4000     9.7481     0.1579   -99999.0    98.2806     0.9290    45.3892     2.2452     1.4191    68.8020  1654.0000   -99999.0 
   1310.6000     9.7153     0.1715   -99999.0   102.3619     0.9306    44.1983     2.2598     1.4191    68.4509  1624.5708   -99999.0 
   1310.8000     9.7027     0.1779   -99999.0   102.3193     0.9334    42.4640     2.2583     1.4197    67.4799  1625.7756   -99999.0 
   1311.0000     9.8383     0.1762   -99999.0    98.8139     0.9354    42.7137     2.2463     1.4289    67.4276  1776.0000   -99999.0 
   1311.2000     9.7008     0.1743   -99999.0    96.7159     0.9369    43.6611     2.2385     1.4289    68.2841  1657.7361   -99999.0 
   1311.4000     9.6501     0.1710   -99999.0    97.0020     0.9376    44.1235     2.2219     1.4289    69.9059  1605.3464   -99999.0 
   1311.6000     9.6795     0.1624   -99999.0    97.6581     0.9376    45.5445     2.1965     1.4289    71.3051  1693.0000   -99999.0 
   1311.8000     9.6686     0.1628   -99999.0    98.8172     0.9362    47.7938     2.1972     1.4289    70.9743  1711.2295   -99999.0 
