~VERSION INFORMATION                                                           
 VERS.           2.0: CWLS Log ASCII Standard - Version 2.0                    
 WRAP.            NO: One Line per Depth Step                                  
~WELL INFORMATION                                                              
#MNEM.UNIT              DATA            DESCRIPTION OF MNEMONIC                
#-----------            ----            -----------------------                
 STRT.M             898.09              :Start Depth                           
 STOP.M            1708.40              :Stop  Depth                           
 STEP.M             0.1524              :Step                                  
 NULL.              -99999.0            :Null Value                            
 COMP.     PETROLEO BRASILEIRO S/A      :Company                               
 ORIG.     SIGEO EXPORTACAO PERFIL      :Origem dos dados                      
 WELL.     7-LP-84-ES                   :Well                                  
 FLD.      LAGOA PARDA                  :Field                                 
 STAT.     ESPIRITO SANTO               :State                                 
 API.      342700024200                 :API Code                              
 X.                411577.00            :Surface X                             
 Y.               7831472.80            :Surface Y                             
 HZCS.           UTM                    :Horizontal Coordinate System          
 MC.               39 W                 :Meridiano Central
 LATI.           -19:36:35.478          :Latitude                              
 LONG.           -39:50:35.593          :Longitude                             
 GDAT.           SIRGAS2000             :Geodetic Datum                        
 LMF.            MR                     :Log Measure From                      
 EDF.M               9.00               :Elevation Derrick Floor               
 EGL.M               4.40               :GROUND ELEVATION                      
~CURVE INFORMATION                                                             
 DEPT.M                                 :Measured Depth                        
 CALI.in                                :CALIPER 
 CILD.mS/m                              :CALIBRATED DEEP INDUCTION CONDUCTIVITY 
 DRHO.g/cm3                             :BULK DENSITIY CORRECTION 
 EFAC.Adim                              :ELETROFACIES 
 GR.gAPI                                :GAMMA RAY 
 ILD.ohm.m                              :INDUCTION DEEP RESISTIVITY 
 NPHI.%                                 :THERMAL NEUTRON POROSITY (ORIGINAL RATIO METHOD) IN SELECTED LITHOLOGY 
 NPOR.%                                 :NEUTRON POROSITY (ENVIRONMENTALLY CORRECTED AND ALPHA PROCESSED) 
 RHOB.g/cm3                             :BULK DENSITY 
 SFLU.ohm.m                             :SFL RESISTIVITY UNAVERAGED 
 SP.mV                                  :SPONTANEOUS POTENTIAL 
 TENS.lbf                               :LINE TENSION 
 VSH.v/v                                :VOLUME DE FOLHELHO 
~ASCII LOG DATA                                                                
# ...
   1543.2015    13.9358   895.5183     0.0042     4.0000   108.8594     1.1161    44.8669    45.3953     1.8727     1.1319   -25.4648  1922.5000     1.0000 
   1543.3539    13.2842   898.6497     0.0313     4.0000   107.2500     1.1152    44.7132    45.2851     1.9753     1.1511   -25.0859  1916.2500     0.9598 
   1543.5063    12.3242   893.8884     0.0070     4.0000   109.2656     1.1192    42.0197    45.8412     1.8992     1.1704   -24.8750  1917.5000     0.9380 
   1543.6587    12.0767   887.6943    -0.0074     4.0000   114.0469     1.1289    41.9113    43.2465     1.8825     1.2010   -25.0078  1920.0000     0.9337 
   1543.8111    11.8926   874.2139     0.0050     4.0000   116.7031     1.1487    44.5984    44.0125     1.8516     1.2352   -25.7617  1917.5000     0.9451 
   1543.9635    12.4297   846.9924    -0.0382     4.0000   116.5312     1.1799    47.1130    49.1089     1.5823     1.2744   -26.5898  1917.5000     0.9583 
   1544.1159    12.7692   823.3176    -0.0493     4.0000   116.0469     1.2141    47.4823    46.8872     1.5796     1.2956   -26.7617  1925.0000     0.9552 
   1544.2683    13.1934   802.0845    -0.0040     4.0000   116.6875     1.2474    44.8761    44.5274     1.8855     1.3028   -26.3477  1933.7500     0.9395 
   1544.4207    12.6709   780.2393     0.0038     4.0000   118.3750     1.2797    41.5131    44.1503     2.0884     1.3172   -25.8320  1937.5000     0.9203 
   1544.5731    12.4711   764.1221     0.0019     4.0000   118.5938     1.3070    42.4744    43.9390     1.9617     1.3283   -25.3633  1938.7500     0.9370 
   1544.7255    13.2021   752.5139    -0.0196     4.0000   117.0938     1.3276    48.2971    47.9553     1.7568     1.3462   -24.9844  1936.2500     0.9757 
   1544.8779    14.4756   744.1143    -0.0101     4.0000   114.2969     1.3421    49.0646    59.7900     1.8689     1.3670   -25.1992  1926.2500     0.9982 
   1545.0303    14.4590   739.7573    -0.0031     4.0000   110.3594     1.3511    48.2079    58.6609     1.9179     1.3844   -25.7383  1918.7500     0.9957 
   1545.1827    13.8608   737.0146    -0.0275     4.0000   107.3281     1.3554    47.1474    53.2959     1.7964     1.3809   -26.0469  1916.2500     0.9742 
   1545.3351    13.7676   737.4727     0.0007     4.0000   106.7969     1.3530    50.2350    52.3746     1.8171     1.3457   -26.2812  1918.7500     0.9903 
   1545.4875    13.3579   744.4351     0.0120     4.0000   108.0625     1.3426    50.1114    56.3232     1.7795     1.2990   -26.2031  1925.0000     0.9900 
   1545.6399    13.8721   753.0334     0.0190     4.0000   107.7656     1.3267    47.0459    54.3884     1.7887     1.2756   -25.7891  1930.0000     0.9823 
   1545.7923    13.3906   764.7761     0.0843     4.0000   104.5625     1.3064    47.4442    48.6023     1.9436     1.2864   -25.3008  1936.2500     0.9991 
   1545.9447    13.4199   779.6182     0.0400     4.0000   101.2188     1.2866    48.9197    51.4465     1.8677     1.3100   -25.0430  1936.2500     1.0000 
   1546.0971    13.1597   785.2961    -0.0314     4.0000   101.5156     1.2762    49.3853    54.4373     1.7002     1.3301   -24.9922  1925.0000     1.0000 
   1546.2495    13.3176   784.1550     0.0119     4.0000   104.7812     1.2781    46.7499    51.9928     1.9421     1.3371   -24.8320  1912.5000     1.0000 
   1546.4019    13.2683   776.1895    -0.0149     4.0000   108.7812     1.2844    43.1885    46.3074     2.0167     1.3527   -24.8242  1912.5000     1.0000 
   1546.5543    10.6016   777.7554    -0.0054     4.0000   112.4531     1.2839    44.1757    43.7073     2.0322     1.3796   -24.8438  1923.7500     0.9727 
   1546.7067     9.8828   783.8589    -0.0138     4.0000   116.0781     1.2857    48.1781    47.0093     1.9149     1.3936   -24.8672  1926.2500     0.9833 
   1546.8591     9.7648   765.9526    -0.0166     4.0000   120.8438     1.3145    49.2638    51.0834     1.9250     1.3821   -25.1172  1920.0000     0.9802 
   1547.0115    10.1655   729.3406    -0.0153     4.0000   125.2969     1.3771    42.3645    45.9473     2.0969     1.3577   -25.4531  1921.2500     0.9312 
   1547.1639     9.5957   684.6475    -0.0086     4.0000   128.5625     1.4707    39.9582    41.4642     2.2005     1.3569   -26.0703  1927.5000     0.9038 
   1547.3163     8.8608   628.6970    -0.0092     3.4198   129.8125     1.5946    41.5192    41.4253     2.2229     1.3895   -26.9453  1930.0000     0.8855 
   1547.4687     8.7202   575.8599     0.0023     3.0000   126.3594     1.7333    38.6078    35.0647     2.2913     1.4678   -28.1016  1927.5000     0.8503 
   1547.6211     8.8146   534.9453    -0.0346     3.0000   118.7031     1.8756    33.1726    29.3884     2.2612     1.6471   -30.3672  1921.2500     0.7873 
   1547.7735     8.4634   493.2537    -0.0305     3.0000   111.4844     2.0299    31.7181    29.8477     2.2811     2.1129   -33.9805  1917.5000     0.7004 
   1547.9259     8.3828   455.4492    -0.0305     3.6281   108.8594     2.1986    32.3586    33.4167     2.2538     2.9469   -38.0078  1917.5000     0.6767 
   1548.0783     8.3893   420.8977    -0.0325     3.6098   109.7188     2.3775    31.8214    33.0200     2.2647     3.6284   -40.7188  1918.7500     0.6291 
   1548.2307     8.3711   390.2026    -0.0301     2.6957   107.9531     2.5571    32.0427    30.5176     2.2469     3.6648   -42.1875  1922.5000     0.5516 
   1548.3831     8.3803   366.6970    -0.0417     1.1718   103.7656     2.7158    31.7650    30.7686     2.1858     3.3724   -44.9922  1927.5000     0.4985 
   1548.5355     8.3960   351.3315    -0.0350     1.0000   102.6875     2.8495    33.9569    31.7162     2.2266     3.1988   -48.5781  1933.7500     0.4280 
   1548.6879     8.3587   335.7456    -0.0262     1.0000   103.3594     2.9689    35.3271    35.8612     2.2307     3.1745   -52.3281  1936.2500     0.3425 
   1548.8403     8.3516   325.4578    -0.0392     1.0000   101.0000     3.0953    31.0730    30.9265     2.2058     3.4415   -57.8594  1931.2500     0.2467 
   1548.9927     8.3516   306.9822    -0.0490     1.0000    96.1562     3.2768    30.6984    27.0782     2.2110     4.2101   -62.7500  1923.7500     0.1480 
   1549.1451     8.3516   284.1150    -0.0464     1.0000    93.3750     3.5110    32.8857    32.4402     2.2255     5.0531   -64.8984  1920.0000     0.1061 
   1549.2975     8.3313   266.8730    -0.0526     1.0000    91.7344     3.7569    31.0181    31.6086     2.1526     5.5051   -66.3125  1922.5000     0.0736 
   1549.4499     8.3621   249.1538    -0.0391     1.0000    86.6250     4.0119    27.2217    26.6663     2.1724     5.9930   -67.7812  1922.5000     0.0500 
   1549.6023     8.3672   234.0115    -0.0411     1.0000    81.1719     4.2464    26.6080    24.6948     2.1757     6.8854   -68.1250  1918.7500     0.0379 
   1549.7547     8.3672   225.9758    -0.0275     1.0000    82.0000     4.4586    28.2700    27.8290     2.1978     7.3142   -66.9375  1921.2500     0.0601 
   1549.9071     8.3534   212.2909    -0.0407     1.0000    88.6250     4.7449    30.3284    32.3212     2.2211     6.5554   -66.0000  1928.7500     0.0637 
   1550.0595     8.3169   194.8063    -0.0470     1.0000    94.0625     5.0758    30.1044    30.1544     2.2055     5.5768   -67.5625  1931.2500     0.0430 
   1550.2119     8.3125   187.7489    -0.0380     1.0000    92.7969     5.2493    27.1118    24.2432     2.2156     5.6417   -70.2500  1926.2500     0.0000 
   1550.3643     8.3125   191.8930    -0.0256     1.0000    86.1562     5.1975    24.8672    22.0093     2.2596     7.0983   -71.8750  1918.7500     0.0000 
   1550.5167     8.3195   198.3649    -0.0342     1.0000    79.6250     5.0902    24.5985    23.3459     2.2468     9.3093   -72.5000  1912.5000     0.0000 
   1550.6691     8.3699   197.3443    -0.0304     1.0000    75.5625     5.1484    25.8072    25.2106     2.1978    10.4615   -72.7500  1910.0000     0.0000 
   1550.8215     8.3821   184.5821    -0.0144     1.0000    72.6562     5.5045    25.8641    26.3420     2.3226     9.4190   -72.7344  1911.2500     0.0000 
