~VERSION INFORMATION                                                           
 VERS.           2.0: CWLS Log ASCII Standard - Version 2.0                    
 WRAP.            NO: One Line per Depth Step                                  
~WELL INFORMATION                                                              
#MNEM.UNIT              DATA            DESCRIPTION OF MNEMONIC                
#-----------            ----            -----------------------                
 STRT.M             898.09              :Start Depth                           
 STOP.M            1708.40              :Stop  Depth                           
 STEP.M             0.1524              :Step                                  
 NULL.              -99999.0            :Null Value                            
 COMP.     PETROLEO BRASILEIRO S/A      :Company                               
 ORIG.     SIGEO EXPORTACAO PERFIL      :Origem dos dados                      
 WELL.     7-LP-84-ES                   :Well                                  
 FLD.      LAGOA PARDA                  :Field                                 
 STAT.     ESPIRITO SANTO               :State                                 
 API.      342700024200                 :API Code                              
 X.                411577.00            :Surface X                             
 Y.               7831472.80            :Surface Y                             
 HZCS.           UTM                    :Horizontal Coordinate System          
 MC.               39 W                 :Meridiano Central
 LATI.           -19:36:35.478          :Latitude                              
 LONG.           -39:50:35.593          :Longitude                             
 GDAT.           SIRGAS2000             :Geodetic Datum                        
 LMF.            MR                     :Log Measure From                      
 EDF.M               9.00               :Elevation Derrick Floor               
 EGL.M               4.40               :GROUND ELEVATION                      
~CURVE INFORMATION                                                             
 DEPT.M                                 :Measured Depth                        
 CALI.in                                :CALIPER 
 CILD.mS/m                              :CALIBRATED DEEP INDUCTION CONDUCTIVITY 
 DRHO.g/cm3                             :BULK DENSITIY CORRECTION 
 EFAC.Adim                              :ELETROFACIES 
 GR.gAPI                                :GAMMA RAY 
 ILD.ohm.m                              :INDUCTION DEEP RESISTIVITY 
 NPHI.%                                 :THERMAL NEUTRON POROSITY (ORIGINAL RATIO METHOD) IN SELECTED LITHOLOGY 
 NPOR.%                                 :NEUTRON POROSITY (ENVIRONMENTALLY CORRECTED AND ALPHA PROCESSED) 
 RHOB.g/cm3                             :BULK DENSITY 
 SFLU.ohm.m                             :SFL RESISTIVITY UNAVERAGED 
 SP.mV                                  :SPONTANEOUS POTENTIAL 
 TENS.lbf                               :LINE TENSION 
 VSH.v/v                                :VOLUME DE FOLHELHO 
~ASCII LOG DATA                                                                
# ...
   1481.0223     9.0112  1148.3215     0.0024   -99999.0   106.0000     0.8719    40.3112    46.9910     2.1366     1.1058   -12.9297  1870.0000     0.7852 
   1481.1747     9.4194  1141.7766     0.0294   -99999.0   108.3750     0.8729    41.8884    39.3250     2.0968     1.0995   -13.1191  1890.0000     0.8947 
   1481.3271     9.7195  1150.4160     0.0673   -99999.0   108.0000     0.8690    42.0120    42.6941     2.2197     1.0883   -13.4141  1895.0000     0.8792 
   1481.4795     9.0708  1160.5044    -0.0268   -99999.0   104.6719     0.8636    42.0146    44.8853     2.0376     1.0811   -13.4277  1883.7500     0.8218 
   1481.6319     9.3596  1160.5723     0.0484   -99999.0   102.6719     0.8612    38.9618    41.8884     2.1788     1.0830   -13.6426  1866.2500     0.7696 
   1481.7843     9.1155  1162.9470     0.0085   -99999.0   103.3125     0.8603    42.8986    41.1209     2.0541     1.0702   -14.0059  1856.2500     0.7960 
   1481.9367     9.9248  1162.8789     0.0398   -99999.0   103.4531     0.8621    46.1487    45.2332     2.0758     1.0524   -14.0234  1857.5000     0.8693 
   1482.0891     9.6863  1151.0923     0.0016   -99999.0   102.8750     0.8700    43.2190    49.6582     2.0349     1.0665   -14.0078  1863.7500     0.8503 
   1482.2415     9.2832  1132.8936     0.0518   -99999.0   103.1562     0.8806    36.1145    43.8538     2.1481     1.0710   -13.9609  1873.7500     0.8023 
   1482.3939     9.5935  1125.7117     0.0085   -99999.0   104.9844     0.8873    36.8332    33.6731     2.0661     1.0723   -13.4121  1885.0000     0.8645 
   1482.5463     9.1597  1123.6345     0.0589   -99999.0   105.2500     0.8894    39.4211    36.8652     2.1506     1.0981   -13.3672  1885.0000     0.8072 
   1482.6987     9.3162  1124.4385     0.0484   -99999.0   103.7969     0.8881    38.0783    41.1163     2.1096     1.1661   -14.3379  1873.7500     0.8018 
   1482.8511     9.0916  1131.3484     0.0167   -99999.0   103.9688     0.8847    43.2373    42.7170     1.9574     1.2088   -15.6660  1868.7500     0.8238 
   1483.0035     9.4517  1134.2378     0.0081   -99999.0   104.2656     0.8829    45.9320    46.2769     1.8634     1.1614   -16.6426  1873.7500     0.8387 
   1483.1559    10.1851  1130.5425     0.0077   -99999.0   102.9844     0.8854    44.4748    47.6189     1.8909     1.0767   -16.8867  1875.0000     0.8960 
   1483.3083    11.0645  1122.2615    -0.0115   -99999.0   101.4062     0.8888    39.8621    44.5618     1.8727     1.0367   -16.9219  1867.5000     0.9104 
   1483.4607    10.2402  1125.6448     0.0712   -99999.0   102.5625     0.8871    43.1793    41.7389     2.0013     1.0480   -16.6250  1861.2500     0.9160 
   1483.6131     9.7153  1135.4648     0.0682   -99999.0   106.5000     0.8815    44.9966    45.5322     2.1117     1.0549   -16.0508  1860.0000     0.9376 
   1483.7655    11.1436  1141.1704     0.0832   -99999.0   109.8438     0.8773    40.1947    42.9596     2.1699     1.0835   -15.8867  1861.2500     0.9884 
   1483.9179    11.1721  1141.8525     0.1105   -99999.0   111.7344     0.8777    39.4630    40.6281     2.2062     1.1238   -15.8984  1866.2500     1.0000 
   1484.0703    10.7300  1132.2971     0.1186   -99999.0   112.8906     0.8866    43.4143    39.9357     2.2069     1.1322   -15.8613  1877.5000     1.0000 
   1484.2227    10.8865  1105.8433     0.1389   -99999.0   113.2812     0.9047    43.6419    45.6421     2.2391     1.1122   -15.6621  1888.7500     1.0000 
   1484.3751    10.4253  1078.7581    -0.0133   -99999.0   112.1719     0.9274    42.7750    50.8240     1.8037     1.0802   -15.6816  1886.2500     1.0000 
   1484.5275    11.0161  1050.9983     0.0088   -99999.0   109.7969     0.9488    38.6139    43.0969     1.7695     1.0703   -16.3262  1871.2500     1.0000 
   1484.6799     9.4922  1035.8601    -0.0328   -99999.0   110.5000     0.9676    39.6095    38.1683     1.8754     1.1058   -16.9766  1860.0000     1.0000 
   1484.8323    10.0781  1012.0359    -0.0381   -99999.0   115.7031     0.9899    43.0481    41.0431     1.7974     1.1823   -17.2656  1861.2500     1.0000 
   1484.9847    11.4053   982.2151     0.0097   -99999.0   120.3594     1.0212    47.4884    51.8433     1.8274     1.2555   -17.5625  1870.0000     1.0000 
   1485.1371    11.4451   942.9412    -0.0024   -99999.0   119.5625     1.0647    47.9359    52.4826     1.5842     1.2762   -18.2383  1875.0000     1.0000 
   1485.2895    11.4225   893.2629    -0.0346   -99999.0   115.0625     1.1211    38.3728    40.1367     1.6225     1.2749   -18.8789  1871.2500     1.0000 
   1485.4419    11.0562   843.9360    -0.0142   -99999.0   113.8125     1.1759    32.9407    30.0781     2.0449     1.3041   -19.0039  1870.0000     1.0000 
   1485.5943     9.7891   823.4304    -0.0247   -99999.0   119.3438     1.2066    32.7029    30.9433     2.2678     1.3842   -18.5977  1877.5000     1.0000 
   1485.7467     8.9277   824.7244    -0.0612   -99999.0   127.6406     1.2074    35.7025    39.6362     2.2505     1.5091   -18.1992  1882.5000     1.0000 
   1485.8991     9.4780   840.2551    -0.0516   -99999.0   131.3438     1.1873    38.1683    42.8406     1.9099     1.6281   -18.6055  1880.0000     1.0000 
   1486.0515    11.1523   864.8315     0.0295   -99999.0   127.5625     1.1588    41.1743    42.3313     2.1497     1.6601   -19.5352  1876.2500     0.9988 
   1486.2039    11.1572   882.9829     0.1027   -99999.0   119.5312     1.1306    40.9693    48.1323     2.1520     1.5325   -20.2578  1872.5000     0.9952 
   1486.3563    10.8665   908.2517     0.0161   -99999.0   113.6719     1.0970    41.1430    44.1132     2.0001     1.3262   -20.4258  1866.2500     0.9940 
   1486.5087    11.5376   949.1436     0.0281   -99999.0   113.0156     1.0529    42.1570    43.2098     2.0338     1.1759   -20.0508  1860.0000     0.9971 
   1486.6611    11.3641   996.7336     0.0135   -99999.0   115.6562     1.0042    42.8215    44.1353     2.0111     1.1185   -19.4570  1862.5000     1.0000 
   1486.8135    11.4738  1045.2368     0.0419   -99999.0   118.6562     0.9604    43.4277    41.8091     2.1515     1.1150   -19.0586  1876.2500     1.0000 
   1486.9659    11.3394  1081.1340     0.0227   -99999.0   120.1406     0.9300    43.9438    45.4041     2.1424     1.1003   -18.7812  1886.2500     1.0000 
   1487.1183    11.4808  1094.9678     0.0652   -99999.0   118.6875     0.9152    45.2171    45.6983     2.2033     1.0832   -18.2148  1882.5000     1.0000 
   1487.2707    10.7451  1099.6487     0.0301   -99999.0   114.8594     0.9091    47.0718    45.1443     2.2202     1.0821   -17.8008  1873.7500     1.0000 
   1487.4231    11.2368  1105.9348     0.0172   -99999.0   112.5156     0.9058    44.3237    48.2483     2.1406     1.0945   -17.7617  1868.7500     1.0000 
   1487.5755    10.9832  1104.4204     0.1528   -99999.0   113.5469     0.9045    39.1296    45.2087     2.3599     1.1229   -17.5977  1865.0000     1.0000 
   1487.7279    10.7249  1107.4001     0.0205   -99999.0   115.6406     0.9029    41.6656    39.4287     2.2045     1.1533   -17.4648  1863.7500     1.0000 
   1487.8803    11.1606  1111.0085     0.0118   -99999.0   115.8438     0.9015    46.2677    45.3308     2.0850     1.1775   -17.6758  1870.0000     1.0000 
   1488.0327    11.4309  1107.5417     0.0809   -99999.0   116.0000     0.9031    44.1956    52.9480     2.0688     1.1776   -18.0820  1875.0000     1.0000 
   1488.1851    11.2546  1102.9812     0.0872   -99999.0   119.0000     0.9067    44.6411    47.8699     2.0958     1.1512   -18.2109  1870.0000     1.0000 
   1488.3375    11.5625  1098.1538     0.0739   -99999.0   121.7969     0.9108    44.2650    45.1294     2.0661     1.1141   -17.7695  1867.5000     1.0000 
   1488.4899    11.2732  1092.5305     0.0646   -99999.0   121.6406     0.9104    39.7095    44.5652     2.1293     1.0923   -17.1680  1876.2500     1.0000 
   1488.6423    10.8462  1110.8669     0.1468   -99999.0   118.7656     0.9007    43.0481    42.3935     2.2999     1.1109   -16.7812  1883.7500     1.0000 
