~VERSION INFORMATION                                                           
 VERS.           2.0: CWLS Log ASCII Standard - Version 2.0                    
 WRAP.            NO: One Line per Depth Step                                  
~WELL INFORMATION                                                              
#MNEM.UNIT              DATA            DESCRIPTION OF MNEMONIC                
#-----------            ----            -----------------------                
 STRT.M             789.58              :Start Depth                           
 STOP.M            1481.02              :Stop  Depth                           
 STEP.M             0.1524              :Step                                  
 NULL.              -99999.0            :Null Value                            
 COMP.     PETROLEO BRASILEIRO S/A      :Company                               
 ORIG.     SIGEO EXPORTACAO PERFIL      :Origem dos dados                      
 WELL.     7-LP-88-ES                   :Well                                  
 FLD.      LAGOA PARDA                  :Field                                 
 STAT.     ESPIRITO SANTO               :State                                 
 API.      342700034000                 :API Code                              
 X.                410166.50            :Surface X                             
 Y.               7830454.00            :Surface Y                             
 HZCS.           UTM                    :Horizontal Coordinate System          
 MC.               39 W                 :Meridiano Central
 LATI.           -19:37:08.391          :Latitude                              
 LONG.           -39:51:24.187          :Longitude                             
 GDAT.           SIRGAS2000             :Geodetic Datum                        
 LMF.            MR                     :Log Measure From                      
 EDF.M              10.00               :Elevation Derrick Floor               
 EGL.M               4.80               :GROUND ELEVATION                      
~CURVE INFORMATION                                                             
 DEPT.M                                 :Measured Depth                        
 CALI.in                                :CALIPER 
 CALI.in                                :CALIPER 
 CILD.mS/m                              :CALIBRATED DEEP INDUCTION CONDUCTIVITY 
 DRHO.g/cm3                             :BULK DENSITIY CORRECTION 
 DRHO.g/cm3                             :BULK DENSITIY CORRECTION 
 GR.gAPI                                :GAMMA RAY 
 ILD.ohm.m                              :INDUCTION DEEP RESISTIVITY 
 NPHI.%                                 :THERMAL NEUTRON POROSITY (ORIGINAL RATIO METHOD) IN SELECTED LITHOLOGY 
 NPHI.%                                 :THERMAL NEUTRON POROSITY (ORIGINAL RATIO METHOD) IN SELECTED LITHOLOGY 
 NPOR.%                                 :NEUTRON POROSITY (ENVIRONMENTALLY CORRECTED AND ALPHA PROCESSED) 
 NPOR.%                                 :NEUTRON POROSITY (ENVIRONMENTALLY CORRECTED AND ALPHA PROCESSED) 
 PEF.Adim                               :PHOTOELETRIC FACTOR 
 PEF.Adim                               :PHOTOELETRIC FACTOR 
 RHOB.g/cm3                             :BULK DENSITY 
 RHOB.g/cm3                             :BULK DENSITY 
 RSFL.uohm                              :Raw SFL Conductivity 
 SFLU.ohm.m                             :SFL RESISTIVITY UNAVERAGED 
 SP.mV                                  :SPONTANEOUS POTENTIAL 
 TENS.lbf                               :LINE TENSION 
~ASCII LOG DATA                                                                
# ...
   1436.9793   -99999.0     9.6094   947.7590   -99999.0     0.1266   130.1250     1.0551   -99999.0    42.6703   -99999.0    45.9391   -99999.0     3.3672   -99999.0     2.2958   880.4702     1.1310  -103.5323  2355.0000 
   1437.1317   -99999.0     9.7969   946.6631   -99999.0     0.1090   132.2500     1.0563   -99999.0    42.6865   -99999.0    45.5664   -99999.0     3.4219   -99999.0     2.2931   851.6199     1.1694  -103.0429  2325.0000 
   1437.2841   -99999.0     9.8672   939.2629   -99999.0     0.1037   134.5000     1.0647   -99999.0    42.4688   -99999.0    41.2200   -99999.0     3.4805   -99999.0     2.3116   841.1110     1.1839  -102.7715  2295.0000 
   1437.4365   -99999.0     9.7422   927.5095   -99999.0     0.0791   134.1250     1.0782   -99999.0    41.8963   -99999.0    44.7016   -99999.0     3.5000   -99999.0     2.2947   837.0948     1.1896  -102.2933  2315.0000 
   1437.5889   -99999.0     9.6172   922.3655   -99999.0     0.0681   134.0000     1.0842   -99999.0    41.4228   -99999.0    43.3965   -99999.0     3.6074   -99999.0     2.3026   841.5172     1.1833  -101.4505  2365.0000 
   1437.7413   -99999.0     9.7109   917.8830   -99999.0     0.0545   135.0000     1.0895   -99999.0    40.6733   -99999.0    41.8295   -99999.0     3.5703   -99999.0     2.2800   787.7732     1.2645  -101.3750  2335.0000 
   1437.8937   -99999.0     9.5625   903.9938   -99999.0     0.0621   133.7500     1.1062   -99999.0    40.0091   -99999.0    43.5722   -99999.0     3.5137   -99999.0     2.2087   744.3049     1.3381  -101.9465  2305.0000 
   1438.0461   -99999.0     9.4531   885.7968   -99999.0     0.0968   131.0000     1.1290   -99999.0    39.3227   -99999.0    45.5444   -99999.0     3.4219   -99999.0     2.1860   758.6691     1.3126  -103.4854  2345.0000 
   1438.1985   -99999.0     9.9609   864.9100   -99999.0     0.1084   124.2500     1.1562   -99999.0    39.1990   -99999.0    39.3494   -99999.0     3.3379   -99999.0     2.1445   832.4691     1.1971  -104.8812  2360.0000 
   1438.3509   -99999.0    10.3047   852.4244   -99999.0     0.1184   118.7500     1.1731   -99999.0    38.8606   -99999.0    41.5320   -99999.0     3.3887   -99999.0     2.2003   898.5282     1.1087  -104.3145  2360.0000 
   1438.5033   -99999.0    10.4922   854.4943   -99999.0     0.0857   115.0000     1.1703   -99999.0    39.0514   -99999.0    36.2863   -99999.0     3.3730   -99999.0     2.1948   822.6359     1.2115  -103.6786  2405.0000 
   1438.6557   -99999.0    10.1406   863.1444   -99999.0     0.0854   122.0625     1.1586   -99999.0    38.7534   -99999.0    40.5685   -99999.0     3.4648   -99999.0     2.2063   730.4603     1.3647  -102.1398  2400.0000 
   1438.8081   -99999.0    10.5078   859.9653   -99999.0     0.1059   121.3125     1.1628   -99999.0    39.0779   -99999.0    40.1047   -99999.0     3.4902   -99999.0     2.2209   712.0598     1.3984  -102.0000  2335.0000 
   1438.9605   -99999.0    10.8047   849.2748   -99999.0     0.1309   127.1875     1.1775   -99999.0    39.0961   -99999.0    46.5696   -99999.0     3.4609   -99999.0     2.2543   805.7158     1.2377  -102.3427  2370.0000 
   1439.1129   -99999.0    10.4375   845.9307   -99999.0     0.1332   130.8750     1.1821   -99999.0    39.2109   -99999.0    41.5641   -99999.0     3.3789   -99999.0     2.3020   948.3412     1.0523  -101.2323  2355.0000 
   1439.2653   -99999.0     9.6016   847.5417   -99999.0     0.1173   140.7500     1.1799   -99999.0    38.8589   -99999.0    40.0677   -99999.0     3.2793   -99999.0     2.3049   911.1225     1.0932  -101.1250  2355.0000 
   1439.4177   -99999.0     9.5547   854.1768   -99999.0     0.0868   138.1250     1.1707   -99999.0    39.1093   -99999.0    41.6809   -99999.0     3.3457   -99999.0     2.2808   873.4814     1.1402  -101.2392  2360.0000 
   1439.5701   -99999.0     9.4766   858.1846   -99999.0     0.0927   134.8750     1.1653   -99999.0    39.2617   -99999.0    38.8746   -99999.0     3.4082   -99999.0     2.2926   835.9308     1.1914  -100.3363  2360.0000 
   1439.7225   -99999.0     9.4062   860.3217   -99999.0     0.0393   135.0000     1.1624   -99999.0    39.4368   -99999.0    38.9515   -99999.0     3.4023   -99999.0     2.2156   839.2073     1.1866  -100.4785  2385.0000 
   1439.8749   -99999.0     9.9453   859.9334   -99999.0     0.0692   140.6250     1.1629   -99999.0    39.7136   -99999.0    39.6028   -99999.0     3.4238   -99999.0     2.2287   796.7130     1.2502   -99.4713  2370.0000 
   1440.0273   -99999.0     9.7031   855.3068   -99999.0     0.0824   138.3750     1.1692   -99999.0    40.3366   -99999.0    42.3240   -99999.0     3.4062   -99999.0     2.2212   710.5767     1.4029   -98.0039  2335.0000 
   1440.1797   -99999.0     9.6406   848.0422   -99999.0     0.1170   135.2500     1.1792   -99999.0    40.8764   -99999.0    41.5386   -99999.0     3.4492   -99999.0     2.2761   700.5730     1.4213   -97.8750  2340.0000 
   1440.3321   -99999.0     9.6719   848.4756   -99999.0     0.1205   129.8750     1.1786   -99999.0    40.7233   -99999.0    41.0489   -99999.0     3.4844   -99999.0     2.3016   735.6083     1.3539   -99.0174  2345.0000 
   1440.4845   -99999.0    10.2578   857.1821   -99999.0     0.0937   130.1250     1.1666   -99999.0    40.9394   -99999.0    45.7448   -99999.0     3.4766   -99999.0     2.3028   825.9493     1.2070   -99.6964  2335.0000 
   1440.6369   -99999.0     9.8125   870.2331   -99999.0     0.0727   133.3750     1.1491   -99999.0    40.5247   -99999.0    43.2112   -99999.0     3.2852   -99999.0     2.2726   772.0905     1.2904   -99.4073  2315.0000 
   1440.7893   -99999.0     9.9609   883.2705   -99999.0     0.0833   135.6250     1.1322   -99999.0    40.4233   -99999.0    37.6318   -99999.0     3.1465   -99999.0     2.2751   768.6968     1.2954   -98.9183  2370.0000 
   1440.9417   -99999.0     9.8047   900.9333   -99999.0     0.0862   142.2500     1.1100   -99999.0    39.5776   -99999.0    45.2277   -99999.0     3.2246   -99999.0     2.2476   787.2043     1.2650   -99.3319  2345.0000 
   1441.0941   -99999.0     9.9922   908.5526   -99999.0     0.1167   138.8750     1.1007   -99999.0    39.7200   -99999.0    41.9120   -99999.0     3.3965   -99999.0     2.2841   877.2432     1.1363   -99.4893  2320.0000 
   1441.2465   -99999.0    10.0469   920.8977   -99999.0     0.0977   140.6250     1.0859   -99999.0    39.2887   -99999.0    39.8454   -99999.0     3.3340   -99999.0     2.2667   875.7449     1.1371  -100.1853  2450.0000 
   1441.3989   -99999.0     9.8125   945.0031   -99999.0     0.0964   135.0000     1.0583   -99999.0    39.4072   -99999.0    41.6032   -99999.0     3.1836   -99999.0     2.2724   871.3962     1.1427  -100.2500  2455.0000 
   1441.5513   -99999.0     9.9219   954.2828   -99999.0     0.0979   137.7500     1.0479   -99999.0    38.6102   -99999.0    42.8792   -99999.0     3.3398   -99999.0     2.2671   833.2193     1.1953   -99.9074  2350.0000 
   1441.7037   -99999.0    10.1328   957.2425   -99999.0     0.0992   136.5000     1.0447   -99999.0    39.1256   -99999.0    37.5596   -99999.0     3.4316   -99999.0     2.2886   832.9071     1.1955  -100.1035  2375.0000 
   1441.8561   -99999.0    10.1719   963.5787   -99999.0     0.1037   133.3750     1.0378   -99999.0    38.9159   -99999.0    39.6807   -99999.0     3.3359   -99999.0     2.2984   848.5631     1.1735  -100.1250  2340.0000 
   1442.0085   -99999.0     9.5391   965.8945   -99999.0     0.1488   131.8750     1.0353   -99999.0    39.2172   -99999.0    37.8274   -99999.0     3.2207   -99999.0     2.3090   821.7626     1.2119   -99.4395  2345.0000 
   1442.1609   -99999.0    10.1328   974.7799   -99999.0     0.2122   129.3750     1.0259   -99999.0    38.6841   -99999.0    43.1266   -99999.0     3.2578   -99999.0     2.3533   824.8170     1.2073   -98.8040  2365.0000 
   1442.3133   -99999.0    10.4844  1005.7325   -99999.0     0.2007   132.7500     0.9944   -99999.0    38.9749   -99999.0    42.2760   -99999.0     3.4961   -99999.0     2.3425   762.1994     1.3072   -98.1788  2380.0000 
