~VERSION INFORMATION                                                           
 VERS.           2.0: CWLS Log ASCII Standard - Version 2.0                    
 WRAP.            NO: One Line per Depth Step                                  
~WELL INFORMATION                                                              
#MNEM.UNIT              DATA            DESCRIPTION OF MNEMONIC                
#-----------            ----            -----------------------                
 STRT.M             898.09              :Start Depth                           
 STOP.M            1708.40              :Stop  Depth                           
 STEP.M             0.1524              :Step                                  
 NULL.              -99999.0            :Null Value                            
 COMP.     PETROLEO BRASILEIRO S/A      :Company                               
 ORIG.     SIGEO EXPORTACAO PERFIL      :Origem dos dados                      
 WELL.     7-LP-84-ES                   :Well                                  
 FLD.      LAGOA PARDA                  :Field                                 
 STAT.     ESPIRITO SANTO               :State                                 
 API.      342700024200                 :API Code                              
 X.                411577.00            :Surface X                             
 Y.               7831472.80            :Surface Y                             
 HZCS.           UTM                    :Horizontal Coordinate System          
 MC.               39 W                 :Meridiano Central
 LATI.           -19:36:35.478          :Latitude                              
 LONG.           -39:50:35.593          :Longitude                             
 GDAT.           SIRGAS2000             :Geodetic Datum                        
 LMF.            MR                     :Log Measure From                      
 EDF.M               9.00               :Elevation Derrick Floor               
 EGL.M               4.40               :GROUND ELEVATION                      
~CURVE INFORMATION                                                             
 DEPT.M                                 :Measured Depth                        
 CALI.in                                :CALIPER 
 CILD.mS/m                              :CALIBRATED DEEP INDUCTION CONDUCTIVITY 
 DRHO.g/cm3                             :BULK DENSITIY CORRECTION 
 EFAC.Adim                              :ELETROFACIES 
 GR.gAPI                                :GAMMA RAY 
 ILD.ohm.m                              :INDUCTION DEEP RESISTIVITY 
 NPHI.%                                 :THERMAL NEUTRON POROSITY (ORIGINAL RATIO METHOD) IN SELECTED LITHOLOGY 
 NPOR.%                                 :NEUTRON POROSITY (ENVIRONMENTALLY CORRECTED AND ALPHA PROCESSED) 
 RHOB.g/cm3                             :BULK DENSITY 
 SFLU.ohm.m                             :SFL RESISTIVITY UNAVERAGED 
 SP.mV                                  :SPONTANEOUS POTENTIAL 
 TENS.lbf                               :LINE TENSION 
 VSH.v/v                                :VOLUME DE FOLHELHO 
~ASCII LOG DATA                                                                
# ...
   1465.4775   -99999.0   967.7715   -99999.0   -99999.0   111.3281     1.0308   -99999.0   -99999.0   -99999.0     1.3805   -11.2656  1855.0000     1.0000 
   1465.6299   -99999.0   958.5369   -99999.0   -99999.0   113.2812     1.0387   -99999.0   -99999.0   -99999.0     1.3060   -12.1465  1858.7500     1.0000 
   1465.7823   -99999.0   966.3120   -99999.0   -99999.0   112.9844     1.0325   -99999.0   -99999.0   -99999.0     1.2984   -12.6113  1863.7500     1.0000 
   1465.9347   -99999.0   983.3796   -99999.0   -99999.0   111.8281     1.0175   -99999.0   -99999.0   -99999.0     1.3245   -12.6719  1861.2500     1.0000 
   1466.0871   -99999.0   998.7219   -99999.0   -99999.0   111.2031     1.0018   -99999.0   -99999.0   -99999.0     1.3096   -12.8262  1855.0000     1.0000 
   1466.2395   -99999.0  1012.2615   -99999.0   -99999.0   110.2656     0.9887   -99999.0   -99999.0   -99999.0     1.2425   -13.1660  1855.0000     1.0000 
   1466.3919   -99999.0  1022.9521   -99999.0   -99999.0   109.0312     0.9784   -99999.0   -99999.0   -99999.0     1.2047   -13.3203  1853.7500     1.0000 
   1466.5443   -99999.0  1030.4856   -99999.0   -99999.0   109.9531     0.9706   -99999.0   -99999.0   -99999.0     1.2126   -13.1309  1850.0000     1.0000 
   1466.6967   -99999.0  1037.3311   -99999.0   -99999.0   112.3906     0.9654   -99999.0   -99999.0   -99999.0     1.2285   -12.9688  1860.0000     1.0000 
   1466.8491   -99999.0  1038.3071   -99999.0   -99999.0   113.9219     0.9634   -99999.0   -99999.0   -99999.0     1.2201   -12.9004  1876.2500     1.0000 
   1467.0015   -99999.0  1037.8435   -99999.0   -99999.0   114.0000     0.9616   -99999.0   -99999.0   -99999.0     1.1973   -12.3652  1882.5000     1.0000 
   1467.1539   -99999.0  1045.7339   -99999.0   -99999.0   113.3281     0.9550   -99999.0   -99999.0   -99999.0     1.1945   -11.5781  1877.5000     1.0000 
   1467.3063   -99999.0  1059.2935   -99999.0   -99999.0   113.7656     0.9439   -99999.0   -99999.0   -99999.0     1.2099   -11.4141  1863.7500     1.0000 
   1467.4587   -99999.0  1073.6985   -99999.0   -99999.0   114.7969     0.9324   -99999.0   -99999.0   -99999.0     1.2111   -11.8438  1846.2500     1.0000 
   1467.6111   -99999.0  1083.3887   -99999.0   -99999.0   115.2500     0.9256   -99999.0   -99999.0   -99999.0     1.1797   -12.3652  1838.7500     1.0000 
   1467.7635   -99999.0  1081.1343   -99999.0   -99999.0   115.2500     0.9319   -99999.0   -99999.0   -99999.0     1.1210   -12.7363  1846.2500     1.0000 
   1467.9159   -99999.0  1047.5610   -99999.0   -99999.0   114.7656     0.9582   -99999.0   -99999.0   -99999.0     1.0624   -13.1797  1855.0000     1.0000 
   1468.0683   -99999.0  1001.2258   -99999.0   -99999.0   114.7812     1.0012   -99999.0   -99999.0   -99999.0     1.0309   -13.8672  1858.7500     1.0000 
   1468.2207   -99999.0   949.8057   -99999.0   -99999.0   115.6719     1.0491   -99999.0   -99999.0   -99999.0     1.0460   -14.2949  1858.7500     1.0000 
   1468.3731   -99999.0   915.9016   -99999.0   -99999.0   118.5938     1.0877   -99999.0   -99999.0   -99999.0     1.2172   -14.4473  1855.0000     1.0000 
   1468.5255   -99999.0   897.5591   -99999.0   -99999.0   123.7188     1.1096   -99999.0   -99999.0   -99999.0     1.5929   -14.7637  1850.0000     1.0000 
   1468.6779   -99999.0   894.3284   -99999.0   -99999.0   127.0000     1.1211   -99999.0   -99999.0   -99999.0     1.9499   -15.1426  1848.7500     1.0000 
   1468.8303   -99999.0   881.9988   -99999.0   -99999.0   125.5312     1.1329   -99999.0   -99999.0   -99999.0     1.9992   -15.5645  1853.7500     1.0000 
   1468.9827   -99999.0   872.6504   -99999.0   -99999.0   119.6719     1.1427   -99999.0   -99999.0   -99999.0     1.7404   -15.5840  1857.5000     1.0000 
   1469.1351   -99999.0   873.2175   -99999.0   -99999.0   113.2969     1.1340   -99999.0   -99999.0   -99999.0     1.4471   -14.6816  1853.7500     1.0000 
   1469.2875   -99999.0   909.4941   -99999.0   -99999.0   109.0625     1.0971   -99999.0   -99999.0   -99999.0     1.2827   -13.7793  1846.2500     1.0000 
   1469.4399   -99999.0   957.7302   -99999.0   -99999.0   106.5000     1.0452   -99999.0   -99999.0   -99999.0     1.1969   -13.3848  1843.7500     1.0000 
   1469.5923   -99999.0  1007.0117   -99999.0   -99999.0   106.6875     0.9962   -99999.0   -99999.0   -99999.0     1.1525   -13.1719  1850.0000     1.0000 
   1469.7447   -99999.0  1047.6509   -99999.0   -99999.0   109.0156     0.9585   -99999.0   -99999.0   -99999.0     1.1260   -13.4512  1862.5000     1.0000 
   1469.8971   -99999.0  1073.1553   -99999.0   -99999.0   112.6875     0.9360   -99999.0   -99999.0   -99999.0     1.0937   -14.2910  1872.5000     1.0000 
   1470.0495   -99999.0  1080.0120   -99999.0   -99999.0   115.6094     0.9277   -99999.0   -99999.0   -99999.0     1.0881   -14.8496  1868.7500     1.0000 
   1470.2019   -99999.0  1078.6589   -99999.0   -99999.0   115.5469     0.9277   -99999.0   -99999.0   -99999.0     1.1253   -14.8770  1856.2500     1.0000 
   1470.3543   -99999.0  1074.2749   -99999.0   -99999.0   114.2344     0.9297   -99999.0   -99999.0   -99999.0     1.1851   -14.9980  1845.0000     1.0000 
   1470.5067   -99999.0  1075.2798   -99999.0   -99999.0   112.6562     0.9314   -99999.0   -99999.0   -99999.0     1.2338   -15.1172  1842.5000     1.0000 
   1470.6591   -99999.0  1069.7742   -99999.0   -99999.0   111.0156     0.9328   -99999.0   -99999.0   -99999.0     1.2418   -14.9531  1852.5000     1.0000 
   1470.8115   -99999.0  1073.4600   -99999.0   -99999.0   110.0312     0.9315   -99999.0   -99999.0   -99999.0     1.2190   -14.6016  1862.5000     1.0000 
   1470.9639   -99999.0  1077.4224   -99999.0   -99999.0   110.5469     0.9277   -99999.0   -99999.0   -99999.0     1.1902   -14.2500  1858.7500     1.0000 
   1471.1163   -99999.0  1083.6199   -99999.0   -99999.0   111.4062     0.9218   -99999.0   -99999.0   -99999.0     1.1635   -14.0312  1855.0000     1.0000 
   1471.2687   -99999.0  1094.7688   -99999.0   -99999.0   110.9688     0.9147   -99999.0   -99999.0   -99999.0     1.1413   -13.8516  1863.7500     1.0000 
   1471.4211   -99999.0  1100.0974   -99999.0   -99999.0   109.5938     0.9123   -99999.0   -99999.0   -99999.0     1.1364   -13.8828  1865.0000     1.0000 
   1471.5735   -99999.0  1089.6648   -99999.0   -99999.0   109.2500     0.9194   -99999.0   -99999.0   -99999.0     1.1335   -14.1250  1858.7500     1.0000 
   1471.7259   -99999.0  1071.6411   -99999.0   -99999.0   111.4844     0.9343   -99999.0   -99999.0   -99999.0     1.1235   -14.2422  1858.7500     1.0000 
   1471.8783   -99999.0  1049.0872   -99999.0   -99999.0   114.8750     0.9576   -99999.0   -99999.0   -99999.0     1.1093   -14.1797  1856.2500     1.0000 
   1472.0307   -99999.0  1009.2007   -99999.0   -99999.0   118.1094     0.9846   -99999.0   -99999.0   -99999.0     1.1239   -14.3125  1846.2500     1.0000 
   1472.1831   -99999.0   996.4128   -99999.0   -99999.0   119.2188     0.9994   -99999.0   -99999.0   -99999.0     1.1880   -14.9688  1840.0000     1.0000 
   1472.3355   -99999.0  1000.5193   -99999.0   -99999.0   116.8438     1.0013   -99999.0   -99999.0   -99999.0     1.3280   -16.1172  1845.0000     1.0000 
   1472.4879   -99999.0   997.4390   -99999.0   -99999.0   112.4844     1.0025   -99999.0   -99999.0   -99999.0     1.4821   -17.3262  1856.2500     1.0000 
   1472.6403   -99999.0   994.6182   -99999.0   -99999.0   108.3750     1.0059   -99999.0   -99999.0   -99999.0     1.4569   -17.8867  1868.7500     1.0000 
   1472.7927   -99999.0   989.9443   -99999.0   -99999.0   106.5000     1.0124   -99999.0   -99999.0   -99999.0     1.3134   -17.5820  1876.2500     1.0000 
   1472.9451   -99999.0   976.5750   -99999.0   -99999.0   106.6094     1.0152   -99999.0   -99999.0   -99999.0     1.2033   -17.0469  1873.7500     1.0000 
   1473.0975   -99999.0   997.5032   -99999.0   -99999.0   107.9531     0.9999   -99999.0   -99999.0   -99999.0     1.1657   -16.8203  1861.2500     1.0000 
