~VERSION INFORMATION                                                           
 VERS.           2.0: CWLS Log ASCII Standard - Version 2.0                    
 WRAP.            NO: One Line per Depth Step                                  
~WELL INFORMATION                                                              
#MNEM.UNIT              DATA            DESCRIPTION OF MNEMONIC                
#-----------            ----            -----------------------                
 STRT.M             789.58              :Start Depth                           
 STOP.M            1481.02              :Stop  Depth                           
 STEP.M             0.1524              :Step                                  
 NULL.              -99999.0            :Null Value                            
 COMP.     PETROLEO BRASILEIRO S/A      :Company                               
 ORIG.     SIGEO EXPORTACAO PERFIL      :Origem dos dados                      
 WELL.     7-LP-88-ES                   :Well                                  
 FLD.      LAGOA PARDA                  :Field                                 
 STAT.     ESPIRITO SANTO               :State                                 
 API.      342700034000                 :API Code                              
 X.                410166.50            :Surface X                             
 Y.               7830454.00            :Surface Y                             
 HZCS.           UTM                    :Horizontal Coordinate System          
 MC.               39 W                 :Meridiano Central
 LATI.           -19:37:08.391          :Latitude                              
 LONG.           -39:51:24.187          :Longitude                             
 GDAT.           SIRGAS2000             :Geodetic Datum                        
 LMF.            MR                     :Log Measure From                      
 EDF.M              10.00               :Elevation Derrick Floor               
 EGL.M               4.80               :GROUND ELEVATION                      
~CURVE INFORMATION                                                             
 DEPT.M                                 :Measured Depth                        
 CALI.in                                :CALIPER 
 CALI.in                                :CALIPER 
 CILD.mS/m                              :CALIBRATED DEEP INDUCTION CONDUCTIVITY 
 DRHO.g/cm3                             :BULK DENSITIY CORRECTION 
 DRHO.g/cm3                             :BULK DENSITIY CORRECTION 
 GR.gAPI                                :GAMMA RAY 
 ILD.ohm.m                              :INDUCTION DEEP RESISTIVITY 
 NPHI.%                                 :THERMAL NEUTRON POROSITY (ORIGINAL RATIO METHOD) IN SELECTED LITHOLOGY 
 NPHI.%                                 :THERMAL NEUTRON POROSITY (ORIGINAL RATIO METHOD) IN SELECTED LITHOLOGY 
 NPOR.%                                 :NEUTRON POROSITY (ENVIRONMENTALLY CORRECTED AND ALPHA PROCESSED) 
 NPOR.%                                 :NEUTRON POROSITY (ENVIRONMENTALLY CORRECTED AND ALPHA PROCESSED) 
 PEF.Adim                               :PHOTOELETRIC FACTOR 
 PEF.Adim                               :PHOTOELETRIC FACTOR 
 RHOB.g/cm3                             :BULK DENSITY 
 RHOB.g/cm3                             :BULK DENSITY 
 RSFL.uohm                              :Raw SFL Conductivity 
 SFLU.ohm.m                             :SFL RESISTIVITY UNAVERAGED 
 SP.mV                                  :SPONTANEOUS POTENTIAL 
 TENS.lbf                               :LINE TENSION 
~ASCII LOG DATA                                                                
# ...
    838.9620   -99999.0   -99999.0   -99999.0   -99999.0   -99999.0    85.3125   -99999.0   -99999.0   -99999.0   -99999.0   -99999.0   -99999.0   -99999.0   -99999.0   -99999.0   -99999.0   -99999.0   -99999.0  1705.0000 
    839.1144     9.3014   -99999.0   -99999.0    -0.0365   -99999.0   101.8750   -99999.0    49.8928   -99999.0    85.3743   -99999.0    26.1174   -99999.0     2.4721   -99999.0   -99999.0   -99999.0   -99999.0  1685.0000 
    839.2668     9.9979   -99999.0   -99999.0     0.0115   -99999.0   108.0625   -99999.0    38.9080   -99999.0    47.3759   -99999.0     3.4583   -99999.0     2.0464   -99999.0   -99999.0   -99999.0   -99999.0  1700.0000 
    839.4192    10.5758   -99999.0   -99999.0     0.0274   -99999.0   109.0625   -99999.0    42.8743   -99999.0    42.8793   -99999.0     3.1767   -99999.0     2.0979   -99999.0   -99999.0   -99999.0   -99999.0  1655.0000 
    839.5716    10.9241   -99999.0   -99999.0     0.0037   -99999.0   105.9375   -99999.0    41.7057   -99999.0    60.3809   -99999.0     3.2546   -99999.0     2.1131   -99999.0   -99999.0   -99999.0   -99999.0  1705.0000 
    839.7240    11.2947   -99999.0  1188.3444     0.0081   -99999.0    98.7500     0.8420    43.3934   -99999.0    42.7638   -99999.0     3.0974   -99999.0     2.1052   -99999.0   984.0607     1.0120  -138.2475  1680.0000 
    839.8764    11.3516   -99999.0  1088.1454     0.0665   -99999.0    92.4375     0.9195    42.5365   -99999.0    37.2633   -99999.0     3.1844   -99999.0     2.1181   -99999.0   844.3715     1.1818  -141.7053  1695.0000 
    840.0288    11.5685   -99999.0  1051.3540     0.0895   -99999.0    87.6250     0.9512    42.7957   -99999.0    42.6355   -99999.0     3.0973   -99999.0     2.0744   -99999.0   808.8915     1.2311  -140.7408  1670.0000 
    840.1812    11.6949   -99999.0   823.2073     0.1158   -99999.0    87.5000     1.2215    43.6324   -99999.0    50.9413   -99999.0     2.6581   -99999.0     2.0686   -99999.0   702.7849     1.4193  -137.3055  1690.0000 
    840.3336    11.7656   -99999.0   986.0275     0.0881   -99999.0    91.5000     1.0181    43.7736   -99999.0    45.6635   -99999.0     2.9238   -99999.0     2.0642   -99999.0   608.5121     1.6389  -135.8554  1710.0000 
    840.4860    11.4844   -99999.0  1118.7476     0.0486   -99999.0    94.1875     0.8948    44.7877   -99999.0    47.8791   -99999.0     3.0220   -99999.0     2.0341   -99999.0   617.5559     1.6124  -135.0632  1700.0000 
    840.6384    11.4844   -99999.0  1083.3330     0.1509   -99999.0   100.2500     0.9232    46.2814   -99999.0    46.4543   -99999.0     3.0156   -99999.0     2.1783   -99999.0   700.5656     1.4233  -135.0000  1715.0000 
    840.7908    11.4844   -99999.0  1070.9755     0.0741   -99999.0   100.2500     0.9337    47.5268   -99999.0    52.0285   -99999.0     3.0810   -99999.0     2.0557   -99999.0   760.2150     1.3104  -135.5725  1705.0000 
    840.9432    11.4771   -99999.0  1058.3619     0.1107   -99999.0   104.0000     0.9449    48.7105   -99999.0    58.5063   -99999.0     3.0086   -99999.0     2.1211   -99999.0   815.0511     1.2222  -135.0525  1705.0000 
    841.0956    11.4547   -99999.0  1059.6796     0.0164   -99999.0   100.5000     0.9437    49.1226   -99999.0    66.4505   -99999.0     2.9764   -99999.0     2.0458   -99999.0   883.7584     1.1273  -135.1145  1685.0000 
    841.2480    11.4297   -99999.0  1057.2363     0.0062   -99999.0    99.1250     0.9459    47.5574   -99999.0    45.7413   -99999.0     3.2207   -99999.0     2.0388   -99999.0   919.7368     1.0828  -134.6671  1685.0000 
    841.4004    11.5800   -99999.0  1027.3246     0.0379   -99999.0    93.0000     0.9735    47.8132   -99999.0    62.3419   -99999.0     3.0752   -99999.0     2.0237   -99999.0   847.4308     1.1758  -135.9988  1690.0000 
    841.5528    11.6310   -99999.0  1054.1512     0.1035   -99999.0    93.0625     0.9487    48.6307   -99999.0    50.4050   -99999.0     3.0856   -99999.0     2.0559   -99999.0   818.2937     1.2170  -136.0105  1705.0000 
    841.7052    11.4844   -99999.0  1054.1198     0.1310   -99999.0    99.6250     0.9487    47.5094   -99999.0    47.8289   -99999.0     2.8707   -99999.0     2.0861   -99999.0   852.7188     1.1680  -135.8855  1690.0000 
    841.8576    11.6637   -99999.0  1038.6969     0.0777   -99999.0   105.1875     0.9628    47.5971   -99999.0    64.5025   -99999.0     2.9026   -99999.0     2.0623   -99999.0   956.8070     1.0419  -136.2184  1720.0000 
    842.0100    11.8132   -99999.0  1032.9833     0.0647   -99999.0   106.4375     0.9681    46.4869   -99999.0    50.1400   -99999.0     3.2456   -99999.0     2.0233   -99999.0   975.2288     1.0211  -136.2500  1675.0000 
    842.1624    11.4453   -99999.0  1042.7178     0.0716   -99999.0    99.0625     0.9590    45.2503   -99999.0    47.1225   -99999.0     2.9506   -99999.0     2.0958   -99999.0   868.3112     1.1483  -137.6236  1685.0000 
    842.3148    11.5532   -99999.0  1034.7113     0.0914   -99999.0    97.3750     0.9665    44.3526   -99999.0    48.7041   -99999.0     3.2761   -99999.0     2.1531   -99999.0   808.5207     1.2320  -137.0632  1685.0000 
    842.4672    11.5547   -99999.0  1045.3855     0.0412   -99999.0    97.1875     0.9566    45.7544   -99999.0    48.5743   -99999.0     3.2499   -99999.0     2.0662   -99999.0   803.2744     1.2396  -136.1988  1680.0000 
    842.6196    11.5859   -99999.0  1065.0548     0.0871   -99999.0    99.9375     0.9389    45.9401   -99999.0    42.6410   -99999.0     2.9299   -99999.0     2.0767   -99999.0   794.8722     1.2527  -137.2700  1680.0000 
    842.7720    11.4009   -99999.0  1073.6088     0.0950   -99999.0    99.7500     0.9314    46.7812   -99999.0    53.8262   -99999.0     2.8636   -99999.0     2.0839   -99999.0   807.0289     1.2339  -137.7185  1690.0000 
    842.9244    11.3984   -99999.0  1086.9408     0.0958   -99999.0   101.3750     0.9200    46.8825   -99999.0    54.2239   -99999.0     3.0842   -99999.0     2.1351   -99999.0   922.2181     1.0815  -137.8645  1675.0000 
    843.0768    11.2769   -99999.0  1095.5835     0.0684   -99999.0   100.1250     0.9128    45.8901   -99999.0    55.1939   -99999.0     3.1793   -99999.0     2.1169   -99999.0  1100.8159     0.9069  -139.5924  1690.0000 
    843.2292    11.4616   -99999.0  1093.7173     0.0960   -99999.0    99.0000     0.9143    43.7437   -99999.0    39.6208   -99999.0     3.1685   -99999.0     2.1489   -99999.0   947.3003     1.0538  -143.6425  1700.0000 
    843.3816    11.5850   -99999.0  1093.7729     0.1107   -99999.0    99.7500     0.9143    42.2278   -99999.0    47.7920   -99999.0     2.9765   -99999.0     2.1481   -99999.0   810.7610     1.2304  -144.6869  1710.0000 
    843.5340    11.4688   -99999.0  1091.7128     0.0701   -99999.0   102.2500     0.9160    42.0051   -99999.0    48.2930   -99999.0     2.7315   -99999.0     2.0729   -99999.0   820.2488     1.2140  -141.7736  1710.0000 
    843.6864    11.5068   -99999.0  1078.1124     0.0286   -99999.0   104.4375     0.9276    40.0559   -99999.0    35.7278   -99999.0     2.8259   -99999.0     2.0261   -99999.0   958.5311     1.0411  -140.8132  1720.0000 
    843.8388    11.5078   -99999.0  1059.2968     0.0672   -99999.0   100.0000     0.9440    39.6517   -99999.0    41.0624   -99999.0     3.0482   -99999.0     2.1010   -99999.0   892.5770     1.1164  -141.8947  1690.0000 
    843.9912    11.4385   -99999.0  1045.4523     0.0996   -99999.0    95.1250     0.9565    40.5178   -99999.0    41.0405   -99999.0     3.1392   -99999.0     2.1511   -99999.0   684.0592     1.4648  -143.4881  1700.0000 
    844.1436    11.3501   -99999.0  1030.1150     0.0851   -99999.0    90.8750     0.9708    40.9245   -99999.0    40.0012   -99999.0     2.9699   -99999.0     2.1492   -99999.0   633.3226     1.5725  -141.3357  1690.0000 
    844.2960    11.3505   -99999.0  1014.5377     0.0711   -99999.0    92.8125     0.9857    41.8846   -99999.0    44.2826   -99999.0     2.8923   -99999.0     2.0916   -99999.0   744.1617     1.3414  -138.8358  1705.0000 
