~VERSION INFORMATION                                                           
 VERS.           2.0: CWLS Log ASCII Standard - Version 2.0                    
 WRAP.            NO: One Line per Depth Step                                  
~WELL INFORMATION                                                              
#MNEM.UNIT              DATA            DESCRIPTION OF MNEMONIC                
#-----------            ----            -----------------------                
 STRT.M             789.58              :Start Depth                           
 STOP.M            1481.02              :Stop  Depth                           
 STEP.M             0.1524              :Step                                  
 NULL.              -99999.0            :Null Value                            
 COMP.     PETROLEO BRASILEIRO S/A      :Company                               
 ORIG.     SIGEO EXPORTACAO PERFIL      :Origem dos dados                      
 WELL.     7-LP-88-ES                   :Well                                  
 FLD.      LAGOA PARDA                  :Field                                 
 STAT.     ESPIRITO SANTO               :State                                 
 API.      342700034000                 :API Code                              
 X.                410166.50            :Surface X                             
 Y.               7830454.00            :Surface Y                             
 HZCS.           UTM                    :Horizontal Coordinate System          
 MC.               39 W                 :Meridiano Central
 LATI.           -19:37:08.391          :Latitude                              
 LONG.           -39:51:24.187          :Longitude                             
 GDAT.           SIRGAS2000             :Geodetic Datum                        
 LMF.            MR                     :Log Measure From                      
 EDF.M              10.00               :Elevation Derrick Floor               
 EGL.M               4.80               :GROUND ELEVATION                      
~CURVE INFORMATION                                                             
 DEPT.M                                 :Measured Depth                        
 CALI.in                                :CALIPER 
 CALI.in                                :CALIPER 
 CILD.mS/m                              :CALIBRATED DEEP INDUCTION CONDUCTIVITY 
 DRHO.g/cm3                             :BULK DENSITIY CORRECTION 
 DRHO.g/cm3                             :BULK DENSITIY CORRECTION 
 GR.gAPI                                :GAMMA RAY 
 ILD.ohm.m                              :INDUCTION DEEP RESISTIVITY 
 NPHI.%                                 :THERMAL NEUTRON POROSITY (ORIGINAL RATIO METHOD) IN SELECTED LITHOLOGY 
 NPHI.%                                 :THERMAL NEUTRON POROSITY (ORIGINAL RATIO METHOD) IN SELECTED LITHOLOGY 
 NPOR.%                                 :NEUTRON POROSITY (ENVIRONMENTALLY CORRECTED AND ALPHA PROCESSED) 
 NPOR.%                                 :NEUTRON POROSITY (ENVIRONMENTALLY CORRECTED AND ALPHA PROCESSED) 
 PEF.Adim                               :PHOTOELETRIC FACTOR 
 PEF.Adim                               :PHOTOELETRIC FACTOR 
 RHOB.g/cm3                             :BULK DENSITY 
 RHOB.g/cm3                             :BULK DENSITY 
 RSFL.uohm                              :Raw SFL Conductivity 
 SFLU.ohm.m                             :SFL RESISTIVITY UNAVERAGED 
 SP.mV                                  :SPONTANEOUS POTENTIAL 
 TENS.lbf                               :LINE TENSION 
~ASCII LOG DATA                                                                
# ...
   1316.2786   -99999.0     8.9922   989.1351   -99999.0     0.1296   110.0000     1.0111   -99999.0    36.3411   -99999.0    36.5365   -99999.0     3.2734   -99999.0     2.3268   741.9248     1.3432   -92.5839  2275.0000 
   1316.4310   -99999.0     8.7500   938.8773   -99999.0     0.0952   113.5000     1.0653   -99999.0    36.8748   -99999.0    35.7514   -99999.0     3.3203   -99999.0     2.3058   829.8101     1.2012   -92.2198  2185.0000 
   1316.5834   -99999.0     8.7734   899.8650   -99999.0     0.0832   115.8125     1.1114   -99999.0    35.7645   -99999.0    39.9519   -99999.0     3.1230   -99999.0     2.3125   897.0845     1.1105   -92.3018  2235.0000 
   1316.7358   -99999.0     8.7344   875.8239   -99999.0     0.0869   119.4375     1.1418   -99999.0    34.0188   -99999.0    40.6923   -99999.0     3.5586   -99999.0     2.3549   883.7343     1.1268   -91.3980  2280.0000 
   1316.8882   -99999.0     8.7500   888.8388   -99999.0     0.0735   118.3750     1.1251   -99999.0    32.5418   -99999.0    32.4951   -99999.0     3.5156   -99999.0     2.4246   754.6321     1.3226   -90.6269  2295.0000 
   1317.0406   -99999.0     8.5391   915.0716   -99999.0     0.0296   116.3750     1.0929   -99999.0    31.9168   -99999.0    19.6162   -99999.0     3.6992   -99999.0     2.4251   460.9863     2.2093   -90.5625  2210.0000 
   1317.1930   -99999.0     8.5078   940.5329   -99999.0     0.0121   112.1875     1.0633   -99999.0    31.9819   -99999.0    23.9946   -99999.0     3.5176   -99999.0     2.3926   358.5753     2.7861   -90.1054  2245.0000 
   1317.3454   -99999.0     8.5234   956.0299   -99999.0     0.0125   114.3125     1.0460   -99999.0    33.7374   -99999.0    37.4494   -99999.0     3.6152   -99999.0     2.3269   538.2305     1.8808   -90.8626  2195.0000 
   1317.4978   -99999.0     8.5156   966.5151   -99999.0     0.0161   119.8125     1.0347   -99999.0    36.1001   -99999.0    44.0794   -99999.0     3.4629   -99999.0     2.2851   844.1978     1.1984   -91.5092  2205.0000 
   1317.6502   -99999.0     8.4766   997.1308   -99999.0     0.0096   122.6875     1.0030   -99999.0    38.1573   -99999.0    41.0470   -99999.0     3.2969   -99999.0     2.2524  1001.0496     0.9965   -90.1909  2200.0000 
   1317.8026   -99999.0     8.4609  1077.0000   -99999.0     0.0163   121.9375     0.9290   -99999.0    38.5846   -99999.0    41.2982   -99999.0     3.1719   -99999.0     2.2451   992.1597     1.0037   -89.7198  2230.0000 
   1317.9550   -99999.0     8.4297  1148.9552   -99999.0     0.0261   116.3750     0.8706   -99999.0    38.5958   -99999.0    39.0185   -99999.0     3.1641   -99999.0     2.2494   960.1376     1.0372   -89.9161  2200.0000 
   1318.1074   -99999.0     8.5078  1204.7058   -99999.0     0.0528   111.6250     0.8302   -99999.0    38.5271   -99999.0    36.5864   -99999.0     3.2246   -99999.0     2.2907   943.1114     1.0559   -90.3948  2215.0000 
   1318.2598   -99999.0     8.6406  1233.8710   -99999.0     0.0384   110.1875     0.8105   -99999.0    38.6360   -99999.0    40.6689   -99999.0     3.3105   -99999.0     2.2916   919.5814     1.0829   -89.5232  2245.0000 
   1318.4122   -99999.0     8.6328  1239.0834   -99999.0     0.0314   114.8125     0.8070   -99999.0    38.7331   -99999.0    38.5740   -99999.0     3.3828   -99999.0     2.2953   843.7382     1.1810   -89.8373  2245.0000 
   1318.5646   -99999.0     8.6406  1223.1882   -99999.0     0.0151   116.8125     0.8175   -99999.0    39.1116   -99999.0    38.5638   -99999.0     3.4707   -99999.0     2.2780   815.2375     1.2215   -90.3321  2250.0000 
   1318.7170   -99999.0     8.6406  1205.2032   -99999.0     0.0094   110.3750     0.8297   -99999.0    39.2709   -99999.0    40.0450   -99999.0     3.5234   -99999.0     2.2811   898.1347     1.1097   -90.3750  2235.0000 
   1318.8694   -99999.0     8.6094  1200.0869   -99999.0     0.0085   101.0625     0.8333   -99999.0    38.8351   -99999.0    38.2346   -99999.0     3.4219   -99999.0     2.2791   916.0291     1.0871   -90.0322  2260.0000 
   1319.0218   -99999.0     8.5703  1200.8157   -99999.0     0.0313   102.8125     0.8328   -99999.0    38.5613   -99999.0    40.2777   -99999.0     3.2246   -99999.0     2.2890   880.8754     1.1306   -90.6859  2235.0000 
   1319.1742   -99999.0     8.5938  1204.2914   -99999.0     0.0369   108.8125     0.8304   -99999.0    38.5758   -99999.0    40.7897   -99999.0     3.1387   -99999.0     2.2659   852.0356     1.1688   -91.2071  2230.0000 
   1319.3266   -99999.0     8.6641  1210.8628   -99999.0     0.0390   110.8125     0.8259   -99999.0    39.3450   -99999.0    39.1774   -99999.0     3.1309   -99999.0     2.2559   931.6122     1.0697   -90.7928  2255.0000 
   1319.4790   -99999.0     8.6641  1220.3154   -99999.0     0.0365   106.3750     0.8195   -99999.0    39.8551   -99999.0    38.9437   -99999.0     3.0840   -99999.0     2.2493   986.0042     1.0102   -90.1783  2240.0000 
   1319.6314   -99999.0     8.6406  1232.8822   -99999.0     0.0315   107.5625     0.8111   -99999.0    40.5372   -99999.0    41.6011   -99999.0     3.0957   -99999.0     2.2441   978.6003     1.0176   -90.4679  2235.0000 
   1319.7838   -99999.0     8.7656  1244.7911   -99999.0     0.0390   106.3750     0.8034   -99999.0    41.2290   -99999.0    44.2519   -99999.0     3.1836   -99999.0     2.2571  1017.6494     0.9787   -90.8427  2255.0000 
   1319.9362   -99999.0     8.6484  1245.1392   -99999.0     0.0187   112.6250     0.8031   -99999.0    41.5595   -99999.0    41.3559   -99999.0     3.2949   -99999.0     2.2303  1053.2646     0.9455   -90.7607  2215.0000 
   1320.0886   -99999.0     8.7109  1241.1830   -99999.0     0.0507   111.1875     0.8057   -99999.0    41.4493   -99999.0    40.3019   -99999.0     3.2207   -99999.0     2.2493  1086.7922     0.9164   -90.4070  2205.0000 
   1320.2410   -99999.0     8.6328  1231.5372   -99999.0     0.0996   117.5000     0.8120   -99999.0    41.1299   -99999.0    43.1771   -99999.0     3.1797   -99999.0     2.2818  1038.0513     0.9595   -89.2322  2215.0000 
   1320.3934   -99999.0     8.7422  1218.8160   -99999.0     0.0975   113.8125     0.8205   -99999.0    41.3165   -99999.0    45.6192   -99999.0     3.3340   -99999.0     2.2897  1033.3773     0.9636   -88.6677  2210.0000 
   1320.5458   -99999.0     8.7422  1203.4509   -99999.0     0.0700   116.7500     0.8310   -99999.0    41.0613   -99999.0    39.8235   -99999.0     3.4023   -99999.0     2.2884   976.9072     1.0196   -89.7678  2205.0000 
   1320.6982   -99999.0     8.6484  1181.3602   -99999.0     0.0049   116.1250     0.8465   -99999.0    40.9551   -99999.0    37.9941   -99999.0     3.3750   -99999.0     2.2409   959.6857     1.0376   -91.0181  2230.0000 
   1320.8506   -99999.0     8.5625  1154.8123   -99999.0    -0.0028   115.5000     0.8660   -99999.0    39.9625   -99999.0    41.6559   -99999.0     3.1719   -99999.0     2.2371   929.0247     1.0720   -92.4962  2185.0000 
   1321.0030   -99999.0     8.5625  1129.8594   -99999.0    -0.0096   112.4375     0.8851   -99999.0    39.3158   -99999.0    42.0198   -99999.0     3.1152   -99999.0     2.2268   946.9882     1.0516   -93.8824  2230.0000 
   1321.1554   -99999.0     8.5938  1113.2026   -99999.0    -0.0095   110.5625     0.8983   -99999.0    38.3989   -99999.0    41.5473   -99999.0     3.1172   -99999.0     2.2213   963.6191     1.0334   -94.3428  2275.0000 
   1321.3078   -99999.0     8.6016  1105.6107   -99999.0    -0.0126   107.3750     0.9045   -99999.0    38.0154   -99999.0    37.4310   -99999.0     3.2012   -99999.0     2.2183   905.7280     1.0998   -93.9178  2225.0000 
   1321.4602   -99999.0     8.6406  1104.1558   -99999.0    -0.0072   109.6250     0.9057   -99999.0    37.6094   -99999.0    36.2002   -99999.0     3.4355   -99999.0     2.2177   898.0548     1.1088   -93.8750  2210.0000 
   1321.6126   -99999.0     8.5781  1105.1786   -99999.0    -0.0057   111.0000     0.9048   -99999.0    37.1838   -99999.0    38.0438   -99999.0     3.4805   -99999.0     2.2198   909.4501     1.0949   -93.6464  2235.0000 
