~VERSION INFORMATION                                                           
 VERS.           2.0: CWLS Log ASCII Standard - Version 2.0                    
 WRAP.            NO: One Line per Depth Step                                  
~WELL INFORMATION                                                              
#MNEM.UNIT              DATA            DESCRIPTION OF MNEMONIC                
#-----------            ----            -----------------------                
 STRT.M             952.00              :Start Depth                           
 STOP.M            1604.00              :Stop  Depth                           
 STEP.M             0.2000              :Step                                  
 NULL.              -99999.0            :Null Value                            
 COMP.     PETROLEO BRASILEIRO S/A      :Company                               
 ORIG.     SIGEO EXPORTACAO PERFIL      :Origem dos dados                      
 WELL.     7-LP-85-ES                   :Well                                  
 FLD.      LAGOA PARDA                  :Field                                 
 STAT.     ESPIRITO SANTO               :State                                 
 API.      342700026300                 :API Code                              
 X.                412944.10            :Surface X                             
 Y.               7831795.90            :Surface Y                             
 HZCS.           UTM                    :Horizontal Coordinate System          
 MC.               39 W                 :Meridiano Central
 LATI.           -19:36:25.186          :Latitude                              
 LONG.           -39:49:48.609          :Longitude                             
 GDAT.           SIRGAS2000             :Geodetic Datum                        
 LMF.            MR                     :Log Measure From                      
 EDF.M               8.00               :Elevation Derrick Floor               
 EGL.M               3.00               :GROUND ELEVATION                      
~CURVE INFORMATION                                                             
 DEPT.M                                 :Measured Depth                        
 CALI.in                                :CALIPER 
 DRHO.g/cm3                             :BULK DENSITIY CORRECTION 
 EFAC.Adim                              :ELETROFACIES 
 GR.gAPI                                :GAMMA RAY 
 ILD.ohm.m                              :INDUCTION DEEP RESISTIVITY 
 NPHI.%                                 :THERMAL NEUTRON POROSITY (ORIGINAL RATIO METHOD) IN SELECTED LITHOLOGY 
 RHOB.g/cm3                             :BULK DENSITY 
 SN.ohm.m                               :SHORT NORMAL RESISTIVITY 
 SP.mV                                  :SPONTANEOUS POTENTIAL 
 TENS.lbf                               :LINE TENSION 
 VSH.v/v                                :VOLUME DE FOLHELHO 
~ASCII LOG DATA                                                                
# ...
   1000.0000     9.8609     0.0967   -99999.0   101.6362     1.0292    46.5601     2.1669     1.4904    36.6787  1464.0000   -99999.0 
   1000.2000     9.9619     0.1049   -99999.0   104.2110     1.0522    45.0958     2.1569     1.5067    37.8046  1463.4121   -99999.0 
   1000.4000    10.0960     0.0925   -99999.0   105.1106     1.0796    47.0894     2.1460     1.5204    38.5572  1400.0000   -99999.0 
   1000.6000     9.8956     0.0805   -99999.0   102.4716     1.0978    46.8126     2.1472     1.5276    38.4661  1455.7795   -99999.0 
   1000.8000     9.8132     0.0856   -99999.0    99.5022     1.1088    44.7009     2.1594     1.5276    36.9646  1488.0000   -99999.0 
   1001.0000     9.6357     0.0973   -99999.0   103.3702     1.1150    45.7246     2.1708     1.5276    36.7517  1356.0000   -99999.0 
   1001.2000     9.4629     0.1004   -99999.0   108.7272     1.1183    49.5669     2.1696     1.5216    36.4433  1492.4370   -99999.0 
   1001.4000     9.4765     0.0965   -99999.0   108.2985     1.1172    50.6910     2.1555     1.5078    36.2766  1595.0000   -99999.0 
   1001.6000     9.4500     0.0926   -99999.0   104.3112     1.1138    46.6893     2.1418     1.5066    35.7587  1400.0000   -99999.0 
   1001.8000     9.4500     0.0890   -99999.0   102.4016     1.1117    43.2037     2.1365     1.5066    36.4571  1405.0786   -99999.0 
   1002.0000     9.4746     0.0845   -99999.0   105.1247     1.1075    42.9019     2.1393     1.5009    38.0483  1410.0000   -99999.0 
   1002.2000     9.4487     0.0843   -99999.0   109.3663     1.1005    44.0311     2.1479     1.5006    39.1795  1405.0000   -99999.0 
   1002.4000     9.4444     0.0860   -99999.0   108.7323     1.0906    44.0686     2.1544     1.5035    39.6110  1424.5747   -99999.0 
   1002.6000     9.4197     0.0822   -99999.0   106.4156     1.0808    42.9698     2.1497     1.4997    40.6358  1449.0000   -99999.0 
   1002.8000     9.4017     0.0739   -99999.0   107.8252     1.0738    41.3588     2.1343     1.4886    41.7722  1439.0000   -99999.0 
   1003.0000     9.2900     0.0739   -99999.0   109.1945     1.0706    40.6966     2.1250     1.4791    41.1709  1448.5471   -99999.0 
   1003.2000     9.2900     0.0819   -99999.0   106.6173     1.0673    42.3454     2.1326     1.4791    40.5223  1464.0000   -99999.0 
   1003.4000     9.2300     0.0890   -99999.0   103.1974     1.0641    45.4994     2.1501     1.4997    38.9941  1439.0000   -99999.0 
   1003.6000     9.2683     0.0950   -99999.0   102.7362     1.0617    46.6557     2.1665     1.5099    38.0681  1442.1890   -99999.0 
   1003.8000     9.3563     0.0970   -99999.0   101.3375     1.0648    44.5108     2.1772     1.5170    37.9369  1449.0000   -99999.0 
   1004.0000     9.2656     0.0942   -99999.0    97.9580     1.0736    41.0712     2.1752     1.5170    38.0887  1449.0000   -99999.0 
   1004.2000     9.1777     0.0923   -99999.0    98.2957     1.0771    39.7198     2.1519     1.5048    37.9000  1449.0000   -99999.0 
   1004.4000     9.2511     0.0970   -99999.0   103.9117     1.0789    41.8415     2.1221     1.4938    37.9000  1432.5210   -99999.0 
   1004.6000     9.2988     0.1053   -99999.0   110.1626     1.0811    45.2443     2.1007     1.4803    36.8433  1420.0000   -99999.0 
   1004.8000     9.2900     0.0993   -99999.0   113.5701     1.0844    46.4179     2.0979     1.4689    36.0929  1429.0000   -99999.0 
   1005.0000     9.3052     0.0809   -99999.0   115.3063     1.0877    46.4678     2.1151     1.4638    37.1021  1448.7046   -99999.0 
   1005.2000     9.3200     0.0724   -99999.0   116.7176     1.0889    48.1281     2.1314     1.4671    37.5453  1468.0000   -99999.0 
   1005.4000     9.3722     0.0852   -99999.0   115.7362     1.0918    50.0818     2.1180     1.4689    36.9650  1400.0000   -99999.0 
   1005.6000     9.3067     0.1035   -99999.0   111.7079     1.0962    49.2126     2.0909     1.4689    38.2845  1443.3411   -99999.0 
   1005.8000     9.2900     0.1050   -99999.0   108.4926     1.1009    47.2362     2.0835     1.4689    40.6073  1498.0000   -99999.0 
   1006.0000     9.2880     0.0935   -99999.0   109.6874     1.1015    46.2593     2.1001     1.4689    41.4000  1449.0000   -99999.0 
   1006.2000     9.2600     0.0855   -99999.0   113.1344     1.1015    46.1593     2.1180     1.4728    41.5517  1430.4160   -99999.0 
   1006.4000     9.2393     0.0789   -99999.0   114.2925     1.1015    46.4198     2.1258     1.4791    41.3159  1400.0000   -99999.0 
   1006.6000     9.2901     0.0710   -99999.0   112.1898     1.1041    45.4782     2.1330     1.4893    40.3980  1410.0000   -99999.0 
   1006.8000     9.3295     0.0771   -99999.0   109.2837     1.1033    41.6113     2.1413     1.4791    39.9000  1420.7532   -99999.0 
   1007.0000     9.3500     0.0961   -99999.0   109.7944     1.0999    39.5643     2.1332     1.4791    39.8371  1444.0000   -99999.0 
   1007.2000     9.3500     0.1048   -99999.0   113.9815     1.0990    41.6730     2.1082     1.4791    39.8941  1480.6968   -99999.0 
   1007.4000     9.3652     0.0897   -99999.0   117.2467     1.0984    44.5870     2.0923     1.4791    39.9747  1474.3884   -99999.0 
   1007.6000     9.4100     0.0783   -99999.0   113.7285     1.0936    44.3316     2.0998     1.4791    40.0697  1449.0000   -99999.0 
   1007.8000     9.3837     0.0840   -99999.0   107.7370     1.0892    42.2085     2.1147     1.4791    40.4634  1431.4409   -99999.0 
   1008.0000     9.4100     0.0961   -99999.0   106.9474     1.0864    41.0694     2.1206     1.4894    40.0097  1429.0000   -99999.0 
   1008.2000     9.3949     0.1015   -99999.0   107.7989     1.0852    42.4653     2.1170     1.4894    38.5466  1439.0525   -99999.0 
   1008.4000     9.4044     0.1004   -99999.0   105.7256     1.0860    45.8089     2.1126     1.4894    37.2480  1449.0000   -99999.0 
   1008.6000     9.4615     0.1005   -99999.0   103.5873     1.0952    49.2148     2.1107     1.4894    36.2854  1420.0000   -99999.0 
   1008.8000     9.6191     0.1202   -99999.0   103.9396     1.1086    51.8345     2.1028     1.4969    35.7638  1447.6968   -99999.0 
   1009.0000     9.5546     0.1418   -99999.0   105.3271     1.1201    53.2510     2.0845     1.5145    35.5736  1483.0000   -99999.0 
   1009.2000     9.3294     0.1376   -99999.0   106.1450     1.1249    51.5134     2.0970     1.5388    35.1643  1488.0000   -99999.0 
   1009.4000     9.3200     0.1091   -99999.0   107.2520     1.1308    48.5401     2.1573     1.5488    36.4390  1454.8555   -99999.0 
   1009.6000     9.3200     0.0870   -99999.0   108.2756     1.1324    47.3062     2.1922     1.5415    37.8268  1400.0000   -99999.0 
   1009.8000     9.3200     0.0780   -99999.0   107.6992     1.1246    46.2676     2.1690     1.5276    39.0009  1420.0000   -99999.0 
   1010.0000     9.3200     0.0829   -99999.0   107.1941     1.1111    43.9501     2.1357     1.5116    40.2018  1425.9592   -99999.0 
   1010.2000     9.3200     0.0908   -99999.0   108.2764     1.0977    43.1629     2.1202     1.4868    41.3626  1439.0000   -99999.0 
   1010.4000     9.2918     0.0930   -99999.0   108.8938     1.0892    45.6001     2.1199     1.4791    42.1507  1439.0000   -99999.0 
   1010.6000     9.4327     0.0842   -99999.0   105.5731     1.0759    48.8531     2.1288     1.4817    41.0245  1436.4934   -99999.0 
   1010.8000     9.9221     0.0813   -99999.0   102.8933     1.0597    48.8425     2.1391     1.4894    40.7252  1429.0000   -99999.0 
   1011.0000    10.0312     0.0944   -99999.0   103.6379     1.0438    47.1496     2.1474     1.4894    41.6878  1437.7532   -99999.0 
   1011.2000     9.2900     0.1078   -99999.0   104.7501     1.0314    48.7075     2.1426     1.4651    43.5252  1450.0720   -99999.0 
   1011.4000     9.2750     0.1015   -99999.0   106.3000     1.0198    54.6900     2.1240     1.4438    45.2000  1498.0000   -99999.0 
   1011.6000     9.2600     0.0863   -99999.0   108.8247     1.0026    60.0551     2.1063     1.4308    45.4126  1426.5144   -99999.0 
   1011.8000     9.2600     0.0795   -99999.0   110.0751     0.9903    57.8115     2.0984     1.4191    45.3501  1410.0000   -99999.0 
