~VERSION INFORMATION                                                           
 VERS.           2.0: CWLS Log ASCII Standard - Version 2.0                    
 WRAP.            NO: One Line per Depth Step                                  
~WELL INFORMATION                                                              
#MNEM.UNIT              DATA            DESCRIPTION OF MNEMONIC                
#-----------            ----            -----------------------                
 STRT.M             789.58              :Start Depth                           
 STOP.M            1481.02              :Stop  Depth                           
 STEP.M             0.1524              :Step                                  
 NULL.              -99999.0            :Null Value                            
 COMP.     PETROLEO BRASILEIRO S/A      :Company                               
 ORIG.     SIGEO EXPORTACAO PERFIL      :Origem dos dados                      
 WELL.     7-LP-88-ES                   :Well                                  
 FLD.      LAGOA PARDA                  :Field                                 
 STAT.     ESPIRITO SANTO               :State                                 
 API.      342700034000                 :API Code                              
 X.                410166.50            :Surface X                             
 Y.               7830454.00            :Surface Y                             
 HZCS.           UTM                    :Horizontal Coordinate System          
 MC.               39 W                 :Meridiano Central
 LATI.           -19:37:08.391          :Latitude                              
 LONG.           -39:51:24.187          :Longitude                             
 GDAT.           SIRGAS2000             :Geodetic Datum                        
 LMF.            MR                     :Log Measure From                      
 EDF.M              10.00               :Elevation Derrick Floor               
 EGL.M               4.80               :GROUND ELEVATION                      
~CURVE INFORMATION                                                             
 DEPT.M                                 :Measured Depth                        
 CALI.in                                :CALIPER 
 CALI.in                                :CALIPER 
 CILD.mS/m                              :CALIBRATED DEEP INDUCTION CONDUCTIVITY 
 DRHO.g/cm3                             :BULK DENSITIY CORRECTION 
 DRHO.g/cm3                             :BULK DENSITIY CORRECTION 
 GR.gAPI                                :GAMMA RAY 
 ILD.ohm.m                              :INDUCTION DEEP RESISTIVITY 
 NPHI.%                                 :THERMAL NEUTRON POROSITY (ORIGINAL RATIO METHOD) IN SELECTED LITHOLOGY 
 NPHI.%                                 :THERMAL NEUTRON POROSITY (ORIGINAL RATIO METHOD) IN SELECTED LITHOLOGY 
 NPOR.%                                 :NEUTRON POROSITY (ENVIRONMENTALLY CORRECTED AND ALPHA PROCESSED) 
 NPOR.%                                 :NEUTRON POROSITY (ENVIRONMENTALLY CORRECTED AND ALPHA PROCESSED) 
 PEF.Adim                               :PHOTOELETRIC FACTOR 
 PEF.Adim                               :PHOTOELETRIC FACTOR 
 RHOB.g/cm3                             :BULK DENSITY 
 RHOB.g/cm3                             :BULK DENSITY 
 RSFL.uohm                              :Raw SFL Conductivity 
 SFLU.ohm.m                             :SFL RESISTIVITY UNAVERAGED 
 SP.mV                                  :SPONTANEOUS POTENTIAL 
 TENS.lbf                               :LINE TENSION 
~ASCII LOG DATA                                                                
# ...
    959.6627     9.4405   -99999.0  1138.4215     0.0066   -99999.0   118.6250     0.8784    46.0010   -99999.0    54.1132   -99999.0     3.5212   -99999.0     2.1785   -99999.0   963.2744     1.0338  -125.7394  1770.0000 
    959.8151     9.5517   -99999.0  1119.5471     0.0099   -99999.0   117.8750     0.8932    46.7333   -99999.0    45.2241   -99999.0     2.9662   -99999.0     2.1682   -99999.0   948.8271     1.0495  -126.2078  1765.0000 
    959.9675     9.4570   -99999.0  1110.9014     0.0184   -99999.0   120.1250     0.9002    45.4851   -99999.0    44.6599   -99999.0     3.1753   -99999.0     2.1848   -99999.0   940.6336     1.0586  -126.0211  1810.0000 
    960.1199     9.4288   -99999.0  1111.8185     0.0100   -99999.0   122.1250     0.8994    46.9029   -99999.0    45.3017   -99999.0     3.1867   -99999.0     2.1863   -99999.0   954.2224     1.0436  -125.7711  1805.0000 
    960.2723     9.2237   -99999.0  1117.8020     0.0037   -99999.0   118.5625     0.8946    47.2192   -99999.0    49.7878   -99999.0     3.2888   -99999.0     2.1934   -99999.0   969.7576     1.0269  -125.8644  1790.0000 
    960.4247     9.4659   -99999.0  1122.0260    -0.0022   -99999.0   116.3125     0.8912    47.0115   -99999.0    50.2303   -99999.0     3.3148   -99999.0     2.1352   -99999.0   987.4178     1.0085  -126.5616  1780.0000 
    960.5771     9.6150   -99999.0  1127.9901     0.0239   -99999.0   115.8125     0.8865    45.8885   -99999.0    49.1909   -99999.0     3.1082   -99999.0     2.1505   -99999.0   993.8322     1.0020  -127.1971  1830.0000 
    960.7295     8.9525   -99999.0  1139.2622     0.0258   -99999.0   118.2500     0.8778    45.9036   -99999.0    48.3266   -99999.0     2.9953   -99999.0     2.1219   -99999.0  1018.8038     0.9775  -126.7923  1800.0000 
    960.8819     9.1802   -99999.0  1148.2153     0.0089   -99999.0   117.1250     0.8709    43.6705   -99999.0    51.6072   -99999.0     2.9912   -99999.0     2.0730   -99999.0  1033.0031     0.9640  -126.8644  1805.0000 
    961.0343     9.1484   -99999.0  1161.4958     0.0079   -99999.0   111.6250     0.8610    43.6617   -99999.0    44.4987   -99999.0     3.1884   -99999.0     2.1357   -99999.0  1032.9629     0.9640  -125.6165  1780.0000 
    961.1867     9.1274   -99999.0  1175.5610     0.0068   -99999.0   108.7500     0.8507    45.0609   -99999.0    48.3242   -99999.0     3.4093   -99999.0     2.1505   -99999.0  1002.4454     0.9935  -125.1566  1785.0000 
    961.3391     8.9170   -99999.0  1184.7485    -0.0072   -99999.0   106.2500     0.8441    46.3202   -99999.0    41.9265   -99999.0     3.7736   -99999.0     2.1411   -99999.0  1007.3273     0.9886  -125.3539  1780.0000 
    961.4915     9.1539   -99999.0  1188.8949     0.0038   -99999.0   105.3750     0.8411    46.7910   -99999.0    49.7004   -99999.0     3.0942   -99999.0     2.1410   -99999.0  1048.0924     0.9502  -125.4894  1775.0000 
    961.6439     9.1328   -99999.0  1185.0830     0.0115   -99999.0   107.3750     0.8438    47.8782   -99999.0    50.9457   -99999.0     3.2164   -99999.0     2.1384   -99999.0  1072.7124     0.9283  -124.8133  1780.0000 
    961.7963     8.6848   -99999.0  1175.0391     0.0008   -99999.0   108.0625     0.8510    48.3235   -99999.0    55.7491   -99999.0     3.4815   -99999.0     2.1010   -99999.0  1095.0785     0.9094  -125.7800  1800.0000 
    961.9487     8.9738   -99999.0  1169.6256     0.0445   -99999.0   106.3750     0.8550    48.0511   -99999.0    45.4184   -99999.0     3.2301   -99999.0     2.1174   -99999.0  1088.2996     0.9150  -127.1338  1780.0000 
    962.1011     9.0907   -99999.0  1158.2917     0.0054   -99999.0   106.1875     0.8633    48.9548   -99999.0    49.6650   -99999.0     3.4345   -99999.0     2.0811   -99999.0  1077.0375     0.9246  -128.2799  1805.0000 
    962.2535     9.3668   -99999.0  1146.5878     0.0132   -99999.0   110.2500     0.8722    48.5068   -99999.0    40.8023   -99999.0     3.0943   -99999.0     2.0908   -99999.0  1055.8011     0.9432  -129.7481  1790.0000 
    962.4059     9.4551   -99999.0  1137.7667     0.0444   -99999.0   111.5625     0.8789    48.9391   -99999.0    49.5625   -99999.0     3.3884   -99999.0     2.1413   -99999.0  1047.3898     0.9508  -130.1039  1770.0000 
    962.5583     9.4897   -99999.0  1128.9978     0.0337   -99999.0   111.2500     0.8857    48.6675   -99999.0    53.2335   -99999.0     3.2404   -99999.0     2.1175   -99999.0  1026.0264     0.9706  -130.3538  1765.0000 
    962.7107     9.4429   -99999.0  1127.6674     0.0031   -99999.0   111.1875     0.8868    48.3222   -99999.0    51.3020   -99999.0     3.2440   -99999.0     2.0548   -99999.0  1021.3283     0.9750  -129.8029  1785.0000 
    962.8631     9.3706   -99999.0  1135.7737     0.0395   -99999.0   112.6875     0.8805    47.2793   -99999.0    54.3673   -99999.0     3.1408   -99999.0     2.1215   -99999.0  1021.0713     0.9753  -129.7500  1755.0000 
    963.0155     9.3257   -99999.0  1153.0991     0.0008   -99999.0   115.2500     0.8672    46.6953   -99999.0    50.3835   -99999.0     3.3320   -99999.0     2.0665   -99999.0  1024.3400     0.9721  -128.9491  1790.0000 
    963.1679     9.3281   -99999.0  1166.9678     0.0124   -99999.0   114.0625     0.8569    47.6155   -99999.0    48.5716   -99999.0     3.3672   -99999.0     2.0960   -99999.0  1013.6881     0.9824  -128.7605  1780.0000 
    963.3203     9.3657   -99999.0  1179.2413    -0.0024   -99999.0   112.8750     0.8480    47.4593   -99999.0    49.0432   -99999.0     3.1442   -99999.0     2.0705   -99999.0  1054.5345     0.9445  -128.1777  1825.0000 
    963.4727     9.3196   -99999.0  1187.2578    -0.0017   -99999.0   111.0625     0.8423    47.1978   -99999.0    49.1932   -99999.0     3.2709   -99999.0     2.0849   -99999.0  1114.7985     0.8935  -126.7516  1830.0000 
    963.6251     9.2734   -99999.0  1187.1846     0.0054   -99999.0   112.9375     0.8423    47.1572   -99999.0    53.9482   -99999.0     3.3209   -99999.0     2.0947   -99999.0  1156.2944     0.8613  -126.0528  1810.0000 
    963.7775     9.2301   -99999.0  1184.0105    -0.0062   -99999.0   116.8125     0.8446    48.1592   -99999.0    46.6376   -99999.0     3.3893   -99999.0     2.1110   -99999.0  1148.5258     0.8671  -126.2289  1825.0000 
    963.9299     9.5025   -99999.0  1172.2194    -0.0013   -99999.0   119.2500     0.8531    46.2457   -99999.0    46.6511   -99999.0     3.2620   -99999.0     2.1303   -99999.0  1136.3833     0.8763  -127.1655  1785.0000 
    964.0823     9.1708   -99999.0  1150.4750    -0.0060   -99999.0   113.8125     0.8692    46.7945   -99999.0    52.8851   -99999.0     3.4399   -99999.0     2.1196   -99999.0  1150.3964     0.8656  -127.9366  1820.0000 
    964.2347     9.0859   -99999.0  1120.1383     0.0098   -99999.0   111.5625     0.8928    46.1295   -99999.0    53.6036   -99999.0     3.3514   -99999.0     2.1337   -99999.0  1102.9088     0.9031  -128.2289  1780.0000 
    964.3871     9.1484   -99999.0  1086.8949     0.0171   -99999.0   114.1875     0.9201    45.9343   -99999.0    47.2657   -99999.0     3.2828   -99999.0     2.1660   -99999.0  1002.7678     0.9938  -128.0211  1765.0000 
    964.5395     9.3949   -99999.0  1057.1666     0.0038   -99999.0   119.2500     0.9460    46.3611   -99999.0    45.3441   -99999.0     3.4218   -99999.0     2.1304   -99999.0   864.3082     1.1542  -128.3433  1775.0000 
    964.6919     9.1115   -99999.0  1028.7318     0.0344   -99999.0   121.2500     0.9721    48.3179   -99999.0    42.1093   -99999.0     3.4151   -99999.0     2.1551   -99999.0   800.9980     1.2436  -128.1462  1745.0000 
    964.8443     9.1349   -99999.0  1009.4000     0.0356   -99999.0   118.8125     0.9907    47.7408   -99999.0    47.3236   -99999.0     3.0926   -99999.0     2.1180   -99999.0   768.1375     1.2965  -128.0106  1805.0000 
    964.9967     9.1531   -99999.0  1000.4183     0.0901   -99999.0   115.5000     0.9996    48.4121   -99999.0    50.0281   -99999.0     3.2014   -99999.0     2.2079   -99999.0   763.0840     1.3049  -127.6568  1800.0000 
