~VERSION INFORMATION                                                           
 VERS.           2.0: CWLS Log ASCII Standard - Version 2.0                    
 WRAP.            NO: One Line per Depth Step                                  
~WELL INFORMATION                                                              
#MNEM.UNIT              DATA            DESCRIPTION OF MNEMONIC                
#-----------            ----            -----------------------                
 STRT.M             898.09              :Start Depth                           
 STOP.M            1708.40              :Stop  Depth                           
 STEP.M             0.1524              :Step                                  
 NULL.              -99999.0            :Null Value                            
 COMP.     PETROLEO BRASILEIRO S/A      :Company                               
 ORIG.     SIGEO EXPORTACAO PERFIL      :Origem dos dados                      
 WELL.     7-LP-84-ES                   :Well                                  
 FLD.      LAGOA PARDA                  :Field                                 
 STAT.     ESPIRITO SANTO               :State                                 
 API.      342700024200                 :API Code                              
 X.                411577.00            :Surface X                             
 Y.               7831472.80            :Surface Y                             
 HZCS.           UTM                    :Horizontal Coordinate System          
 MC.               39 W                 :Meridiano Central
 LATI.           -19:36:35.478          :Latitude                              
 LONG.           -39:50:35.593          :Longitude                             
 GDAT.           SIRGAS2000             :Geodetic Datum                        
 LMF.            MR                     :Log Measure From                      
 EDF.M               9.00               :Elevation Derrick Floor               
 EGL.M               4.40               :GROUND ELEVATION                      
~CURVE INFORMATION                                                             
 DEPT.M                                 :Measured Depth                        
 CALI.in                                :CALIPER 
 CILD.mS/m                              :CALIBRATED DEEP INDUCTION CONDUCTIVITY 
 DRHO.g/cm3                             :BULK DENSITIY CORRECTION 
 EFAC.Adim                              :ELETROFACIES 
 GR.gAPI                                :GAMMA RAY 
 ILD.ohm.m                              :INDUCTION DEEP RESISTIVITY 
 NPHI.%                                 :THERMAL NEUTRON POROSITY (ORIGINAL RATIO METHOD) IN SELECTED LITHOLOGY 
 NPOR.%                                 :NEUTRON POROSITY (ENVIRONMENTALLY CORRECTED AND ALPHA PROCESSED) 
 RHOB.g/cm3                             :BULK DENSITY 
 SFLU.ohm.m                             :SFL RESISTIVITY UNAVERAGED 
 SP.mV                                  :SPONTANEOUS POTENTIAL 
 TENS.lbf                               :LINE TENSION 
 VSH.v/v                                :VOLUME DE FOLHELHO 
~ASCII LOG DATA                                                                
# ...
   1512.1119     8.8120  1083.0500    -0.0283   -99999.0   116.3750     0.9233    38.9114    40.8630     2.2470     1.1636   -14.7578  1873.7500     0.8979 
   1512.2643     8.7979  1088.0759    -0.0338   -99999.0   116.1406     0.9187    40.0372    39.2487     2.2420     1.1280   -14.2578  1876.2500     0.8939 
   1512.4167     9.0073  1094.9678    -0.0093   -99999.0   114.3906     0.9138    40.2870    38.9130     2.2473     1.1089   -13.8848  1878.7500     0.8883 
   1512.5691     8.6949  1099.4160    -0.0126   -99999.0   112.4688     0.9089    39.0198    42.0395     2.2041     1.1076   -13.6074  1886.2500     0.8215 
   1512.7215     8.7656  1107.1338    -0.0010   -99999.0   110.7812     0.9039    36.9389    39.5020     2.2899     1.1210   -13.5059  1893.7500     0.7915 
   1512.8739     8.9429  1111.8674    -0.0062   -99999.0   110.5156     0.9019    37.7144    36.8759     2.2844     1.1386   -13.6191  1890.0000     0.7959 
   1513.0263     8.9592  1104.1375     0.0056   -99999.0   112.0469     0.9074    38.4911    38.6642     2.2827     1.1457   -13.8984  1883.7500     0.8261 
   1513.1787     8.7561  1088.3408     0.0047   -99999.0   114.6094     0.9215    38.0295    38.7604     2.2452     1.1322   -14.1074  1885.0000     0.8518 
   1513.3311     8.7419  1060.9326     0.0373   -99999.0   117.8750     0.9425    39.1075    36.5380     2.2995     1.1265   -14.0645  1887.5000     0.8958 
   1513.4835     8.7094  1035.0151     0.0075   -99999.0   121.1875     0.9646    39.6902    37.5031     2.2959     1.1555   -14.0078  1886.2500     0.9516 
   1513.6359     8.7783  1016.7461     0.0068   -99999.0   122.9688     0.9824    38.9923    41.4494     2.2777     1.2269   -14.5234  1888.7500     1.0000 
   1513.7883     9.0264  1003.6675    -0.0029   -99999.0   123.8438     0.9945    37.1277    40.3992     2.1852     1.3227   -15.3828  1895.0000     1.0000 
   1513.9407     8.7706   998.3850    -0.0004   -99999.0   123.7500     0.9997    38.8458    34.6222     2.2095     1.4071   -15.7656  1890.0000     1.0000 
   1514.0931     8.7606  1000.7119    -0.0013   -99999.0   120.4844     1.0000    41.6870    39.3433     2.3280     1.4171   -15.3613  1883.7500     0.9598 
   1514.2455     8.8208  1000.1101    -0.0313   -99999.0   114.5781     0.9995    43.0817    44.8349     2.1767     1.3369   -14.7812  1895.0000     0.8941 
   1514.3979     9.0521  1000.9688     0.0293   -99999.0   108.9531     0.9986    42.7948    44.4046     2.2007     1.2365   -14.9824  1905.0000     0.8296 
   1514.5503     9.0186  1003.4744     0.0264   -99999.0   106.8594     0.9969    39.9948    42.3889     2.1602     1.1478   -15.5078  1901.2500     0.7710 
   1514.7027     8.7427  1004.6958     0.0935   -99999.0   106.9062     0.9949    38.0959    38.4201     2.3548     1.0953   -15.6504  1892.5000     0.7287 
   1514.8551     8.8859  1007.5188     0.0108   -99999.0   107.6094     0.9903    37.1185    36.5616     2.3510     1.0851   -15.7637  1883.7500     0.7158 
   1515.0075     8.7695  1019.5891    -0.0192   -99999.0   109.6562     0.9838    34.8000    37.8372     2.2830     1.1213   -15.9453  1881.2500     0.7481 
   1515.1599     9.1294  1019.2900    -0.0140   -99999.0   112.7500     0.9823    36.0229    38.0432     2.1292     1.1939   -16.2578  1885.0000     0.9268 
   1515.3123     9.8337  1013.8418     0.0538   -99999.0   116.1250     0.9878    41.2804    41.8060     2.1112     1.2411   -16.9062  1890.0000     0.9886 
   1515.4647     9.9629  1002.6792     0.0994   -99999.0   120.4219     0.9996    41.9739    44.7845     2.1062     1.2346   -17.1992  1895.0000     1.0000 
   1515.6171     8.8984   983.0444     0.0210   -99999.0   125.9844     1.0150    38.8489    40.1123     1.9878     1.2375   -16.8633  1897.5000     1.0000 
   1515.7695     9.1580   972.7737     0.0751   -99999.0   128.4531     1.0237    36.4441    35.5469     2.2041     1.2830   -16.6289  1895.0000     1.0000 
   1515.9219     9.0273   978.9951    -0.0070   -99999.0   124.8281     1.0218    38.7726    37.5626     2.1469     1.3103   -16.4082  1887.5000     1.0000 
   1516.0743     9.3264   984.0020     0.0206   -99999.0   118.0469     1.0155    39.5233    39.9292     2.0195     1.2769   -16.8438  1876.2500     1.0000 
   1516.2267     9.4714   992.0085     0.0939   -99999.0   111.8438     1.0085    40.9042    42.7437     2.0247     1.2200   -18.5254  1872.5000     0.9961 
   1516.3791     9.7327   998.3291     0.0977   -99999.0   108.3125     1.0023    40.6448    43.5760     2.0734     1.1896   -19.8086  1882.5000     0.9738 
   1516.5315     9.9180  1002.4060     0.0599   -99999.0   107.4531     0.9989    41.7603    42.7612     2.1323     1.1642   -20.2227  1891.2500     0.9656 
   1516.6839     9.6714  1001.4424     0.0554   -99999.0   108.5781     0.9988    40.2969    45.3552     2.0818     1.1215   -20.4180  1891.2500     0.9762 
   1516.8363    10.1277   999.6606     0.0515   -99999.0   110.9688     1.0019    39.6797    40.4500     2.0598     1.0852   -20.1758  1890.0000     0.9957 
   1516.9887    10.4552   991.6724     0.0855   -99999.0   113.7500     1.0086    40.2832    40.3421     2.1487     1.0943   -19.4688  1895.0000     0.9997 
   1517.1411    10.5684   983.1003     0.0741   -99999.0   116.4844     1.0172    43.4143    40.7394     2.0328     1.1611   -18.6289  1903.7500     1.0000 
   1517.2935    10.2627   974.4829     0.0464   -99999.0   117.0156     1.0261    39.9422    42.2241     1.9849     1.2446   -17.7773  1903.7500     1.0000 
   1517.4459     9.4897   966.2803     0.0479   -99999.0   115.7031     1.0363    38.9084    40.4245     2.1157     1.2892   -16.9688  1896.2500     1.0000 
   1517.5983     9.7255   953.2441     0.1117   -99999.0   114.3750     1.0475    39.7644    40.6971     2.2448     1.2957   -16.2949  1890.0000     1.0000 
   1517.7507     9.6753   945.9382     0.0538   -99999.0   113.3594     1.0560    41.8304    41.2323     2.1770     1.2947   -15.8691  1885.0000     0.9939 
   1517.9031     9.0491   942.7756     0.0058   -99999.0   112.6719     1.0597    44.5221    40.8325     2.1448     1.3193   -16.3770  1881.2500     0.9742 
   1518.0555     9.3325   943.3262     0.0094   -99999.0   111.9688     1.0637    42.9749    45.6329     2.0923     1.3557   -17.4941  1881.2500     0.9571 
   1518.2079     9.7312   931.2976     0.0787   -99999.0   111.6406     1.0790    38.8416    46.0388     2.2936     1.3407   -17.6289  1883.7500     0.9552 
   1518.3603     9.5994   902.3733     0.0450   -99999.0   111.9375     1.1092    39.4440    39.1640     2.2723     1.2795   -16.9883  1888.7500     0.9415 
   1518.5127     9.4854   872.0835     0.0653   -99999.0   112.9219     1.1510    42.9291    40.3564     2.2922     1.2057   -16.8008  1898.7500     0.9728 
   1518.6651     9.5645   831.5728     0.0024   -99999.0   114.6250     1.2076    45.9961    55.0720     2.0804     1.1755   -17.3750  1902.5000     1.0000 
   1518.8175     9.8184   782.1116     0.0540   -99999.0   114.9688     1.2696    41.6748    47.0459     2.1145     1.2321   -18.3281  1891.2500     0.9811 
   1518.9699     8.8867   758.4177     0.1271   -99999.0   112.8750     1.3115    31.3721    28.3691     2.3762     1.4842   -18.8438  1882.5000     0.8140 
   1519.1223     8.6813   751.6799    -0.0535   -99999.0   111.3281     1.3303    25.0183    19.2871     2.3802     2.1163   -18.8906  1891.2500     0.8115 
   1519.2747     9.5430   745.1355    -0.0521   -99999.0   113.0469     1.3431    28.1158    22.5861     2.1921     2.7492   -19.0859  1900.0000     0.8940 
   1519.4271     9.7812   736.4766    -0.0011   -99999.0   118.3281     1.3576    31.8451    39.7568     2.2124     2.6633   -19.3711  1896.2500     1.0000 
   1519.5795     9.6904   728.5359     0.0003   -99999.0   124.7188     1.3700    35.1181    40.1245     2.0980     2.0467   -19.3477  1893.7500     1.0000 
   1519.7319     8.7480   726.1675     0.0167   -99999.0   128.7031     1.3650    37.6221    40.2893     2.1319     1.5826   -19.2578  1897.5000     1.0000 
