~VERSION INFORMATION                                                           
 VERS.           2.0: CWLS Log ASCII Standard - Version 2.0                    
 WRAP.            NO: One Line per Depth Step                                  
~WELL INFORMATION                                                              
#MNEM.UNIT              DATA            DESCRIPTION OF MNEMONIC                
#-----------            ----            -----------------------                
 STRT.M             898.09              :Start Depth                           
 STOP.M            1708.40              :Stop  Depth                           
 STEP.M             0.1524              :Step                                  
 NULL.              -99999.0            :Null Value                            
 COMP.     PETROLEO BRASILEIRO S/A      :Company                               
 ORIG.     SIGEO EXPORTACAO PERFIL      :Origem dos dados                      
 WELL.     7-LP-84-ES                   :Well                                  
 FLD.      LAGOA PARDA                  :Field                                 
 STAT.     ESPIRITO SANTO               :State                                 
 API.      342700024200                 :API Code                              
 X.                411577.00            :Surface X                             
 Y.               7831472.80            :Surface Y                             
 HZCS.           UTM                    :Horizontal Coordinate System          
 MC.               39 W                 :Meridiano Central
 LATI.           -19:36:35.478          :Latitude                              
 LONG.           -39:50:35.593          :Longitude                             
 GDAT.           SIRGAS2000             :Geodetic Datum                        
 LMF.            MR                     :Log Measure From                      
 EDF.M               9.00               :Elevation Derrick Floor               
 EGL.M               4.40               :GROUND ELEVATION                      
~CURVE INFORMATION                                                             
 DEPT.M                                 :Measured Depth                        
 CALI.in                                :CALIPER 
 CILD.mS/m                              :CALIBRATED DEEP INDUCTION CONDUCTIVITY 
 DRHO.g/cm3                             :BULK DENSITIY CORRECTION 
 EFAC.Adim                              :ELETROFACIES 
 GR.gAPI                                :GAMMA RAY 
 ILD.ohm.m                              :INDUCTION DEEP RESISTIVITY 
 NPHI.%                                 :THERMAL NEUTRON POROSITY (ORIGINAL RATIO METHOD) IN SELECTED LITHOLOGY 
 NPOR.%                                 :NEUTRON POROSITY (ENVIRONMENTALLY CORRECTED AND ALPHA PROCESSED) 
 RHOB.g/cm3                             :BULK DENSITY 
 SFLU.ohm.m                             :SFL RESISTIVITY UNAVERAGED 
 SP.mV                                  :SPONTANEOUS POTENTIAL 
 TENS.lbf                               :LINE TENSION 
 VSH.v/v                                :VOLUME DE FOLHELHO 
~ASCII LOG DATA                                                                
# ...
   1620.9254     9.2499   989.1370     0.0117   -99999.0   138.0000     1.0138    41.0309    38.3438     2.2602     1.2917   -20.6367  1975.0000     0.9866 
   1621.0778     9.1415   991.7285     0.0212   -99999.0   137.7812     1.0100    42.8375    41.6779     2.2765     1.3457   -20.5898  1966.2500     0.9849 
   1621.2302     8.9470   987.7944     0.0088   -99999.0   137.2500     1.0145    44.6091    43.7500     2.2775     1.3696   -21.0742  1963.7500     0.9816 
   1621.3826     8.8911   975.5806     0.0039   -99999.0   137.0000     1.0266    44.1620    45.8527     2.2401     1.3437   -21.8008  1975.0000     0.9873 
   1621.5350     9.0145   958.0227     0.0108   -99999.0   138.3750     1.0417    43.7515    49.1608     2.2089     1.2888   -21.9961  1996.2500     0.9871 
   1621.6874     8.9614   948.7258     0.0696   -99999.0   138.4688     1.0516    42.4225    44.9646     2.2606     1.2555   -21.6250  2007.5000     0.9807 
   1621.8398     9.0461   948.2532     0.0410   -99999.0   135.9062     1.0524    38.9313    40.3809     2.2660     1.2778   -21.2461  2000.0000     0.9729 
   1621.9922     8.9230   955.7234     0.0229   -99999.0   133.3750     1.0466    39.6423    38.1424     2.2723     1.3352   -21.3633  1986.2500     0.9725 
   1622.1446     8.9683   962.2554     0.0332   -99999.0   133.3750     1.0409    40.0261    40.0574     2.2596     1.3768   -21.6680  1980.0000     0.9686 
   1622.2970     9.1545   962.5723     0.0415   -99999.0   136.8750     1.0408    40.0278    41.1652     2.2502     1.3710   -21.9414  1983.7500     0.9630 
   1622.4494     9.3112   955.7075     0.0677   -99999.0   140.0312     1.0448    40.3208    40.4106     2.2720     1.3344   -22.2148  1991.2500     0.9620 
   1622.6018     9.0569   954.6650     0.0260   -99999.0   140.2188     1.0458    40.6090    41.6595     2.2350     1.2964   -22.1094  2001.2500     0.9724 
   1622.7542     9.1321   959.9050     0.0259   -99999.0   139.2188     1.0406    40.3423    41.7660     2.2361     1.2750   -21.6914  2010.0000     0.9722 
   1622.9066     9.1018   969.6760     0.0701   -99999.0   137.7188     1.0322    41.4856    42.3950     2.2935     1.2746   -21.4648  2010.0000     0.9748 
   1623.0590     9.1016   976.2251     0.0478   -99999.0   135.1250     1.0255    42.1333    43.4090     2.2277     1.2871   -21.5859  2002.5000     0.9783 
   1623.2114     9.1325   978.3743     0.0714   -99999.0   132.6250     1.0220    42.2708    42.3836     2.2362     1.3006   -21.8672  1993.7500     0.9810 
   1623.3638     9.2180   981.0271     0.0236   -99999.0   131.6875     1.0211    39.2303    41.9098     2.1929     1.3173   -22.1094  1990.0000     0.9788 
   1623.5162     8.9556   976.9092     0.0655   -99999.0   131.8438     1.0236    42.5903    39.6790     2.2913     1.3304   -21.9766  1990.0000     0.9776 
   1623.6686     9.2244   972.8372     0.0279   -99999.0   133.6562     1.0277    43.5951    42.9962     2.2249     1.3231   -21.7344  1987.5000     0.9777 
   1623.8210     8.9475   969.7156     0.0349   -99999.0   137.0625     1.0305    45.8817    43.1571     2.3053     1.3079   -21.7812  1978.7500     0.9790 
   1623.9734     8.9686   969.3269    -0.0036   -99999.0   141.7500     1.0320    42.7063    44.9066     2.2512     1.3020   -21.7891  1968.7500     0.9810 
   1624.1258     8.8835   967.7397     0.0038   -99999.0   145.5938     1.0335    44.6579    43.9079     2.2184     1.3068   -21.5430  1967.5000     0.9867 
   1624.2782     8.9448   965.7173     0.0249   -99999.0   145.8750     1.0362    42.5858    46.9940     2.2658     1.3095   -21.2695  1978.7500     0.9862 
   1624.4306     9.0538   961.0837     0.0173   -99999.0   143.6250     1.0406    40.9622    42.3401     2.2536     1.3121   -20.8906  1997.5000     0.9819 
   1624.5830     9.1477   955.9602     0.0097   -99999.0   140.1562     1.0453    41.8343    41.4963     2.2335     1.3243   -20.5000  2007.5000     0.9883 
   1624.7354     8.9470   953.7097     0.0284   -99999.0   137.3125     1.0523    43.1747    42.8299     2.2866     1.3372   -20.9648  1998.7500     0.9846 
   1624.8878     8.8833   937.9055    -0.0024   -99999.0   136.5000     1.0688    42.4934    45.4407     2.2184     1.3476   -21.7852  1981.2500     0.9855 
   1625.0402     8.8518   913.8860     0.0155   -99999.0   136.4062     1.0947    39.2273    42.5568     2.1898     1.3580   -21.9453  1972.5000     0.9840 
   1625.1926     8.8903   889.6750     0.0444   -99999.0   135.7812     1.1278    35.6445    35.9741     2.3081     1.3706   -21.8555  1978.7500     0.9637 
   1625.3450     8.7278   855.4441    -0.0266   -99999.0   133.9062     1.1694    40.3442    38.1683     2.2463     1.3811   -22.0742  1992.5000     0.9714 
   1625.4974     8.8351   822.7461     0.0008   -99999.0   130.4688     1.2055    43.8416    43.7744     2.2169     1.4161   -22.3750  2007.5000     0.9652 
   1625.6498     8.8049   818.2690     0.0533   -99999.0   127.4688     1.2232    39.3341    39.4104     2.3789     1.5074   -22.1797  2015.0000     0.9573 
   1625.8022     8.7349   810.9609    -0.0292   -99999.0   126.4375     1.2354    34.9030    31.2561     2.4205     1.6892   -21.8047  2010.0000     0.9638 
   1625.9546     8.7266   797.8137    -0.0090   -99999.0   126.4375     1.2546    39.6851    37.4634     2.2450     1.8147   -21.8047  1996.2500     0.9635 
   1626.1070     8.8429   782.3186     0.0574   -99999.0   125.3281     1.2726    39.5296    47.1802     2.2995     1.7003   -21.8789  1986.2500     0.9644 
   1626.2594     8.8980   780.8533    -0.0090   -99999.0   123.5781     1.2765    35.1410    39.1479     2.2560     1.5422   -21.6523  1991.2500     0.9653 
   1626.4118     8.7977   789.5979     0.0002   -99999.0   122.8281     1.2592    36.7874    33.6975     2.3701     1.5477   -21.7305  1996.2500     0.9643 
   1626.5642     8.7814   817.4883     0.0219   -99999.0   124.3281     1.2244    42.7185    41.2048     2.3163     1.6148   -23.0234  1990.0000     0.9476 
   1626.7166     8.9673   844.1636     0.0438   -99999.0   127.1562     1.1879    40.0574    44.9554     2.1807     1.5744   -24.4727  1980.0000     0.9447 
   1626.8690     9.1470   862.6553     0.0232   -99999.0   129.8125     1.1624    41.0622    40.6158     2.2496     1.4646   -24.4727  1971.2500     0.9470 
   1627.0214     8.8462   872.1599     0.0194   -99999.0   132.5312     1.1425    40.8558    43.9270     2.2302     1.4021   -23.7188  1971.2500     0.9530 
   1627.1738     8.9988   894.7844     0.0332   -99999.0   134.2188     1.1200    40.4385    42.1356     2.1512     1.4006   -23.5078  1987.5000     0.9744 
   1627.3262     9.2791   910.5737     0.0764   -99999.0   134.9688     1.1016    39.0549    39.9811     2.2576     1.4016   -23.5234  2006.2500     0.9736 
   1627.4786     9.3045   915.3801    -0.0338   -99999.0   136.3750     1.0936    39.5111    41.9571     2.1014     1.3806   -23.1250  2010.0000     0.9798 
   1627.6310     9.2504   916.3066     0.0970   -99999.0   138.7188     1.0913    41.9861    39.9673     2.1890     1.3757   -22.5000  2001.2500     0.9900 
   1627.7834     9.1027   917.3892     0.1065   -99999.0   141.5000     1.0935    40.7410    39.8595     2.2592     1.3808   -21.9648  1987.5000     0.9721 
   1627.9358     9.0473   906.9321     0.0099   -99999.0   142.5938     1.1047    38.3453    40.2546     2.1232     1.3750   -21.9883  1980.0000     0.9721 
   1628.0882     9.1011   890.1763     0.1368   -99999.0   140.7188     1.1221    37.1048    39.1251     2.3162     1.3531   -22.7969  1986.2500     0.9629 
   1628.2406     8.9233   877.8887     0.0134   -99999.0   136.0156     1.1394    36.4250    36.4502     2.1686     1.3445   -23.8281  2001.2500     0.9449 
   1628.3930     8.8754   865.1218     0.0982   -99999.0   129.6719     1.1528    38.9771    37.3169     2.2609     1.3848   -24.4219  2013.7500     0.9261 
   1628.5454     9.0532   861.7395     0.0673   -99999.0   126.6562     1.1586    39.0301    40.6952     2.2285     1.4373   -24.5117  2013.7500     0.9362 
