~VERSION INFORMATION                                                           
 VERS.           2.0: CWLS Log ASCII Standard - Version 2.0                    
 WRAP.            NO: One Line per Depth Step                                  
~WELL INFORMATION                                                              
#MNEM.UNIT              DATA            DESCRIPTION OF MNEMONIC                
#-----------            ----            -----------------------                
 STRT.M             898.09              :Start Depth                           
 STOP.M            1708.40              :Stop  Depth                           
 STEP.M             0.1524              :Step                                  
 NULL.              -99999.0            :Null Value                            
 COMP.     PETROLEO BRASILEIRO S/A      :Company                               
 ORIG.     SIGEO EXPORTACAO PERFIL      :Origem dos dados                      
 WELL.     7-LP-84-ES                   :Well                                  
 FLD.      LAGOA PARDA                  :Field                                 
 STAT.     ESPIRITO SANTO               :State                                 
 API.      342700024200                 :API Code                              
 X.                411577.00            :Surface X                             
 Y.               7831472.80            :Surface Y                             
 HZCS.           UTM                    :Horizontal Coordinate System          
 MC.               39 W                 :Meridiano Central
 LATI.           -19:36:35.478          :Latitude                              
 LONG.           -39:50:35.593          :Longitude                             
 GDAT.           SIRGAS2000             :Geodetic Datum                        
 LMF.            MR                     :Log Measure From                      
 EDF.M               9.00               :Elevation Derrick Floor               
 EGL.M               4.40               :GROUND ELEVATION                      
~CURVE INFORMATION                                                             
 DEPT.M                                 :Measured Depth                        
 CALI.in                                :CALIPER 
 CILD.mS/m                              :CALIBRATED DEEP INDUCTION CONDUCTIVITY 
 DRHO.g/cm3                             :BULK DENSITIY CORRECTION 
 EFAC.Adim                              :ELETROFACIES 
 GR.gAPI                                :GAMMA RAY 
 ILD.ohm.m                              :INDUCTION DEEP RESISTIVITY 
 NPHI.%                                 :THERMAL NEUTRON POROSITY (ORIGINAL RATIO METHOD) IN SELECTED LITHOLOGY 
 NPOR.%                                 :NEUTRON POROSITY (ENVIRONMENTALLY CORRECTED AND ALPHA PROCESSED) 
 RHOB.g/cm3                             :BULK DENSITY 
 SFLU.ohm.m                             :SFL RESISTIVITY UNAVERAGED 
 SP.mV                                  :SPONTANEOUS POTENTIAL 
 TENS.lbf                               :LINE TENSION 
 VSH.v/v                                :VOLUME DE FOLHELHO 
~ASCII LOG DATA                                                                
# ...
   1589.8359     8.7450   832.2065     0.0299     4.0000   142.1250     1.2037    45.3918    46.5889     2.2504     1.5459   -17.8828  1941.2500     1.0000 
   1589.9883     8.7339   822.6108     0.0230     4.0000   140.3125     1.2169    46.0083    46.1487     2.2543     1.5126   -18.3516  1942.5000     1.0000 
   1590.1407     8.7238   809.9358     0.0185     4.0000   135.7812     1.2285    42.1082    43.1793     2.2537     1.4909   -18.5938  1952.5000     1.0000 
   1590.2931     8.7236   813.5669     0.0455     4.0000   131.0000     1.2281    37.2131    39.8529     2.3626     1.5342   -18.2070  1960.0000     1.0000 
   1590.4455     8.6399   820.1685     0.0112     4.0000   128.9375     1.2209    36.5555    38.7695     2.3519     1.6491   -17.5820  1960.0000     1.0000 
   1590.5979     8.6676   822.4380     0.0601     4.0000   130.4375     1.2170    37.7411    40.2657     2.3287     1.7257   -17.5039  1952.5000     1.0000 
   1590.7503     8.7083   821.7463     0.0696     4.0000   134.7188     1.2188    39.4211    40.0467     2.2475     1.6493   -17.9336  1945.0000     1.0000 
   1590.9027     8.7422   815.9805     0.0643     4.0000   138.1562     1.2273    40.7898    41.4703     2.2927     1.5270   -18.1953  1946.2500     1.0000 
   1591.0551     8.7815   805.5403     0.0174     4.0000   138.5938     1.2352    42.1497    41.7023     2.2408     1.4567   -18.2812  1961.2500     1.0000 
   1591.2075     8.8612   811.3728     0.0248     4.0000   137.5938     1.2324    41.5527    40.2695     2.2785     1.4658   -18.4297  1975.0000     1.0000 
   1591.3599     8.7299   817.5559     0.0087     4.0000   137.0938     1.2242    39.7621    41.7404     2.2722     1.5289   -18.6289  1975.0000     1.0000 
   1591.5123     8.7090   821.0701     0.0047     4.0000   136.5938     1.2167    39.8499    40.6403     2.2986     1.6011   -18.7070  1976.2500     1.0000 
   1591.6647     8.5312   827.8411    -0.0188     4.0000   135.1562     1.2124    37.9364    38.9191     2.2932     1.6749   -18.6328  1977.5000     1.0000 
   1591.8171     7.6348   822.6184    -0.0185     4.0000   134.9688     1.2160    39.9048    37.3764     2.2649     1.7115   -18.5469  1968.7500     1.0000 
   1591.9695     8.3535   816.4307    -0.0013     4.0000   135.5000     1.2261    40.9550    39.7766     2.2296     1.6853   -18.7070  1960.0000     1.0000 
   1592.1219     8.7131   806.9299     0.0176     4.0000   135.6250     1.2399    41.0004    42.2705     2.2260     1.6109   -19.1602  1956.2500     1.0000 
   1592.2743     8.7872   796.1387     0.0227     4.0000   136.7188     1.2565    43.5471    42.6041     2.1988     1.5234   -19.4688  1952.5000     1.0000 
   1592.4267     8.9193   784.4514     0.0327     4.0000   138.1562     1.2657    43.4509    44.0582     2.2415     1.4765   -19.7109  1947.5000     0.9997 
   1592.5791     8.8965   795.5435     0.0410     4.0000   136.5312     1.2557    37.8357    39.9292     2.3492     1.5172   -20.0547  1945.0000     0.9978 
   1592.7315     8.4961   810.3250    -0.0286     4.0000   130.6719     1.2385    36.2976    34.1797     2.2539     1.6909   -20.5469  1948.7500     0.9895 
   1592.8839     8.6367   813.7170     0.0321     4.0000   127.1562     1.2308    40.4694    41.1621     2.0635     1.8310   -20.9688  1962.5000     0.9854 
   1593.0363     9.0491   812.2637     0.0618     4.0000   129.9531     1.2321    43.0214    50.0488     2.0949     1.7336   -20.6484  1978.7500     0.9881 
   1593.1887     8.9812   808.3127     0.0113     4.0000   133.7188     1.2394    42.1665    43.5547     2.1398     1.5606   -19.8750  1977.5000     0.9992 
   1593.3411     8.9304   798.6179    -0.0037     4.0000   134.5938     1.2423    42.1730    39.2487     2.0974     1.4826   -19.3203  1960.0000     1.0000 
   1593.4935     8.8118   814.3914     0.0823     4.0000   134.5312     1.2265    41.4726    41.8137     2.1980     1.5188   -19.2578  1957.5000     1.0000 
   1593.6459     8.9707   834.5996     0.0824     4.0000   136.3125     1.2015    40.6631    43.2541     2.2232     1.5918   -19.5078  1976.2500     1.0000 
   1593.7983     8.7661   846.1353     0.0182     4.0000   138.3438     1.1862    41.6592    41.5508     2.1672     1.5943   -19.5938  1982.5000     1.0000 
   1593.9507     8.7971   845.4753     0.0140     4.0000   137.4688     1.1875    42.1051    41.1316     2.1802     1.5513   -19.3359  1973.7500     1.0000 
   1594.1031     8.8895   831.6333     0.0472     4.0000   135.9062     1.2085    43.4006    43.9667     2.1890     1.5469   -18.8125  1971.2500     1.0000 
   1594.2555     8.8982   802.4500     0.0413     4.0000   137.2188     1.2497    42.0288    43.3342     2.2199     1.5626   -18.5039  1971.2500     1.0000 
   1594.4079     8.7406   766.8870     0.0009     4.0000   139.3125     1.3097    42.3016    43.6588     2.1934     1.5411   -18.8086  1966.2500     1.0000 
   1594.5603     8.7195   722.2681     0.0104     4.0000   135.2188     1.3751    38.5986    43.0023     2.2609     1.5319   -19.2422  1958.7500     1.0000 
   1594.7127     8.7041   700.6831     0.0316     4.0000   122.9375     1.4150    32.0190    32.7026     2.3832     1.6924   -19.2422  1957.5000     0.9245 
   1594.8651     8.6742   703.7522    -0.0145     4.0000   113.7031     1.4212    29.2908    24.1943     2.4681     2.1104   -19.0312  1958.7500     0.8545 
   1595.0175     8.5852   706.3293    -0.0549     4.0000   117.6250     1.4144    34.4604    31.5857     2.3544     2.4868   -19.1133  1957.5000     0.8457 
   1595.1699     8.5926   711.7148     0.0753     4.0000   130.0781     1.4066    38.4766    39.2029     2.2045     2.4121   -19.5352  1956.2500     0.9744 
   1595.3223     8.7095   714.0410     0.0615     4.0000   139.9375     1.4003    39.5874    40.4778     2.2471     1.9810   -19.8203  1948.7500     1.0000 
   1595.4747     8.6608   716.8091     0.0460     4.0000   142.7812     1.3839    42.8589    43.0206     2.2417     1.6081   -19.9570  1941.2500     0.9989 
   1595.6271     8.7359   743.5017     0.0136     4.0000   142.4688     1.3394    41.9647    46.7346     2.2067     1.4530   -20.1914  1942.5000     0.9957 
   1595.7795     8.6914   785.7258     0.0147     4.0000   142.5312     1.2785    42.7353    42.7826     2.1956     1.4423   -20.5664  1952.5000     0.9881 
   1595.9319     8.7383   817.1882     0.0377     4.0000   142.9688     1.2275    42.5379    41.8083     2.1908     1.4923   -21.1523  1967.5000     0.9936 
   1596.0843     8.8872   840.2932     0.0424     4.0000   142.0625     1.1939    40.5838    45.0378     2.2386     1.5491   -21.4531  1972.5000     0.9982 
   1596.2367     8.9710   853.4048     0.0145     4.0000   139.1875     1.1760    42.1631    41.9983     2.1937     1.6129   -21.2305  1960.0000     0.9967 
   1596.3891     8.8314   854.4927     0.1008     4.0000   137.2812     1.1718    43.6386    43.8828     2.2694     1.6717   -20.9258  1948.7500     0.9829 
   1596.5415     9.4155   851.1694     0.0318     4.0000   138.6250     1.1741    42.9230    43.6230     2.2044     1.6618   -20.6406  1952.5000     0.9877 
   1596.6939     9.5118   850.0828     0.0296     4.0000   141.3125     1.1766    45.1538    44.4832     2.2206     1.5965   -20.2500  1960.0000     0.9948 
   1596.8463     8.7959   848.2751     0.0026     4.0000   142.7812     1.1781    43.0481    46.2723     2.2111     1.5381   -19.8281  1968.7500     1.0000 
   1596.9987     8.7349   848.7080    -0.0018     4.0000   144.0312     1.1798    41.2445    43.3655     2.2402     1.4972   -19.5117  1978.7500     1.0000 
   1597.1511     8.6544   844.6108     0.0431     4.0000   145.2500     1.1852    43.0634    42.6880     2.2896     1.4767   -19.1211  1981.2500     1.0000 
   1597.3035     8.7430   837.0403     0.0075     4.0000   142.8750     1.1946    42.4232    41.4154     2.2290     1.4723   -18.6328  1976.2500     1.0000 
   1597.4559     8.6117   829.8987     0.0135     4.0000   137.7812     1.2046    40.7272    42.1410     2.2784     1.4880   -18.3828  1967.5000     1.0000 
