~VERSION INFORMATION                                                           
 VERS.           2.0: CWLS Log ASCII Standard - Version 2.0                    
 WRAP.            NO: One Line per Depth Step                                  
~WELL INFORMATION                                                              
#MNEM.UNIT              DATA            DESCRIPTION OF MNEMONIC                
#-----------            ----            -----------------------                
 STRT.M             898.09              :Start Depth                           
 STOP.M            1708.40              :Stop  Depth                           
 STEP.M             0.1524              :Step                                  
 NULL.              -99999.0            :Null Value                            
 COMP.     PETROLEO BRASILEIRO S/A      :Company                               
 ORIG.     SIGEO EXPORTACAO PERFIL      :Origem dos dados                      
 WELL.     7-LP-84-ES                   :Well                                  
 FLD.      LAGOA PARDA                  :Field                                 
 STAT.     ESPIRITO SANTO               :State                                 
 API.      342700024200                 :API Code                              
 X.                411577.00            :Surface X                             
 Y.               7831472.80            :Surface Y                             
 HZCS.           UTM                    :Horizontal Coordinate System          
 MC.               39 W                 :Meridiano Central
 LATI.           -19:36:35.478          :Latitude                              
 LONG.           -39:50:35.593          :Longitude                             
 GDAT.           SIRGAS2000             :Geodetic Datum                        
 LMF.            MR                     :Log Measure From                      
 EDF.M               9.00               :Elevation Derrick Floor               
 EGL.M               4.40               :GROUND ELEVATION                      
~CURVE INFORMATION                                                             
 DEPT.M                                 :Measured Depth                        
 CALI.in                                :CALIPER 
 CILD.mS/m                              :CALIBRATED DEEP INDUCTION CONDUCTIVITY 
 DRHO.g/cm3                             :BULK DENSITIY CORRECTION 
 EFAC.Adim                              :ELETROFACIES 
 GR.gAPI                                :GAMMA RAY 
 ILD.ohm.m                              :INDUCTION DEEP RESISTIVITY 
 NPHI.%                                 :THERMAL NEUTRON POROSITY (ORIGINAL RATIO METHOD) IN SELECTED LITHOLOGY 
 NPOR.%                                 :NEUTRON POROSITY (ENVIRONMENTALLY CORRECTED AND ALPHA PROCESSED) 
 RHOB.g/cm3                             :BULK DENSITY 
 SFLU.ohm.m                             :SFL RESISTIVITY UNAVERAGED 
 SP.mV                                  :SPONTANEOUS POTENTIAL 
 TENS.lbf                               :LINE TENSION 
 VSH.v/v                                :VOLUME DE FOLHELHO 
~ASCII LOG DATA                                                                
# ...
   1636.4702     8.5815   791.7144    -0.0422   -99999.0   117.8906     1.2616    31.8970    28.2455     2.3513     1.8710   -20.1680  1991.2500     0.9312 
   1636.6226     8.9351   794.9780     0.0278   -99999.0   118.2031     1.2544    35.3638    32.3792     2.2426     1.9144   -20.1797  2005.0000     0.9332 
   1636.7750     9.3872   807.3484     0.0695   -99999.0   120.5625     1.2401    41.7480    38.4705     2.1806     1.7742   -20.2383  2012.5000     0.9864 
   1636.9274     9.3208   816.0408     0.0965   -99999.0   123.7188     1.2216    42.2878    46.8262     2.1012     1.5565   -20.2383  2011.2500     0.9935 
   1637.0798     9.0022   835.5212     0.1146   -99999.0   127.9219     1.1918    42.7174    47.7715     2.1831     1.4039   -20.5273  2010.0000     0.9897 
   1637.2322     9.4658   871.1262     0.0881   -99999.0   132.8125     1.1485    41.9373    43.8293     2.1924     1.3086   -20.7773  2010.0000     0.9853 
   1637.3846     9.5774   908.0654     0.0529   -99999.0   136.1562     1.1052    42.4095    42.1585     2.1817     1.2864   -20.7969  2010.0000     0.9845 
   1637.5370     9.1670   934.1726     0.0131   -99999.0   136.9688     1.0725    42.6773    43.5501     2.1718     1.3379   -20.6250  2010.0000     0.9876 
   1637.6894     9.2727   954.1755     0.0919   -99999.0   136.1250     1.0519    43.2678    42.5636     2.2471     1.4228   -20.4297  2008.7500     0.9905 
   1637.8418     9.4907   960.4983     0.0714   -99999.0   134.4688     1.0443    42.0105    44.1071     2.2626     1.4981   -20.3672  2003.7500     0.9918 
   1637.9942     9.7559   955.2493     0.0278   -99999.0   133.0000     1.0483    42.7238    43.2945     2.2067     1.5088   -20.4883  1995.0000     0.9900 
   1638.1466     9.5717   944.7341     0.0424   -99999.0   132.5938     1.0568    41.8732    43.4152     2.2543     1.4608   -20.9258  1987.5000     0.9886 
   1638.2990     9.6169   940.5439     0.0133   -99999.0   132.0625     1.0619    40.5960    41.7770     2.2007     1.4073   -21.2188  1987.5000     0.9940 
   1638.4514     9.1514   941.0310     0.0073   -99999.0   132.4688     1.0613    40.5215    41.5071     2.1806     1.3767   -21.1641  1993.7500     0.9947 
   1638.6038     8.9543   946.4500     0.0509   -99999.0   135.7812     1.0569    39.6164    40.4419     2.2491     1.3558   -21.0625  2003.7500     0.9796 
   1638.7562     8.9997   950.6096     0.0151   -99999.0   140.8438     1.0513    38.7321    39.1434     2.2136     1.3387   -21.0156  2016.2500     0.9865 
   1638.9086     9.1630   957.3826     0.0776   -99999.0   143.1250     1.0465    39.9231    40.9256     2.2404     1.3141   -21.0078  2018.7500     0.9840 
   1639.0610     9.2184   956.8767     0.0913   -99999.0   140.1250     1.0477    41.8152    41.7053     2.2823     1.2833   -20.9766  2005.0000     0.9806 
   1639.2134     9.1722   946.7568     0.0585   -99999.0   134.8125     1.0561    41.8405    44.5862     2.2382     1.2707   -20.9258  1991.2500     0.9818 
   1639.3658     9.3813   937.2937     0.0182   -99999.0   130.0938     1.0664    42.7567    43.7859     2.1743     1.2905   -20.6992  1992.5000     0.9865 
   1639.5182     9.0105   929.8887     0.0057   -99999.0   127.2656     1.0757    41.3101    41.7557     2.1772     1.3356   -20.3594  2002.5000     0.9911 
   1639.6706     9.0854   921.5754     0.0178   -99999.0   128.5000     1.0838    38.4644    36.2427     2.2116     1.3909   -20.2852  2010.0000     0.9937 
   1639.8230     8.8530   917.9109    -0.0170   -99999.0   133.6719     1.0899    37.5198    37.2086     2.1976     1.4405   -20.3086  2011.2500     0.9942 
   1639.9754     8.7507   912.5405    -0.0030   -99999.0   139.2500     1.0964    39.0091    39.4958     2.2352     1.4640   -20.1992  2008.7500     0.9959 
   1640.1278     9.0449   905.2488     0.0313   -99999.0   142.3438     1.1043    38.7789    38.0753     2.2972     1.4470   -20.1445  2006.2500     0.9959 
   1640.2802     8.8374   899.2686    -0.0083   -99999.0   141.8750     1.1112    40.3137    41.2689     2.2887     1.4150   -20.2891  2001.2500     0.9953 
   1640.4326     8.7041   896.1055    -0.0279   -99999.0   140.5625     1.1134    40.9775    40.0299     2.2120     1.4239   -20.2656  1997.5000     0.9955 
   1640.5850     8.8196   901.0723     0.0824   -99999.0   141.2812     1.1087    40.6265    40.9348     2.2861     1.4627   -19.8047  1996.2500     0.9996 
   1640.7374     9.0222   909.8281     0.1170   -99999.0   141.6875     1.1033    39.7316    42.7994     2.2741     1.4605   -19.2109  1993.7500     1.0000 
   1640.8898     8.9846   904.6750     0.0976   -99999.0   140.5312     1.1065    39.2685    41.9724     2.2999     1.4159   -18.6875  1991.2500     1.0000 
   1641.0422     9.1398   896.0901     0.0150   -99999.0   140.1562     1.1153    39.7758    40.1840     2.1792     1.4002   -18.4219  1986.2500     1.0000 
   1641.1946     8.8921   889.7830     0.1077   -99999.0   141.6562     1.1240    39.6166    38.5742     2.3337     1.4314   -18.5547  1985.0000     1.0000 
   1641.3470     8.9217   883.2830     0.0192   -99999.0   143.5625     1.1353    37.2635    40.5029     2.2409     1.4390   -18.9531  1993.7500     1.0000 
   1641.4994     9.2249   867.3079     0.0202   -99999.0   140.9375     1.1536    35.3546    38.1012     2.2329     1.4315   -19.3438  2006.2500     1.0000 
   1641.6518     9.0557   850.0752     0.0338   -99999.0   133.5938     1.1808    35.2784    32.9773     2.3145     1.4466   -19.4883  2016.2500     1.0000 
   1641.8042     8.5732   821.3706    -0.0059   -99999.0   127.0000     1.2221    40.1855    38.1714     2.2263     1.4988   -19.1133  2016.2500     1.0000 
   1641.9566     9.0596   783.0664     0.0817   -99999.0   123.6562     1.2784    43.3167    40.5487     2.1593     1.5436   -18.3672  2006.2500     1.0000 
   1642.1090     8.9615   745.1936     0.0270   -99999.0   121.9375     1.3292    43.3606    41.1503     2.1379     1.5324   -18.1484  1998.7500     1.0000 
   1642.2614     9.1550   737.4292     0.1512   -99999.0   119.4531     1.3484    33.5449    37.5610     2.4929     1.6179   -18.8047  2000.0000     0.9601 
   1642.4138     8.5586   746.5071    -0.0479   -99999.0   118.5000     1.3328    25.5005    23.4985     2.3412     1.9383   -20.0859  2005.0000     0.8768 
   1642.5662     8.5081   771.6741    -0.0200   -99999.0   123.2344     1.3023    32.9102    28.6865     2.3322     2.2889   -21.2188  2012.5000     0.9567 
   1642.7186     8.6942   782.6445     0.0389   -99999.0   131.0312     1.2850    40.9607    50.4395     2.0920     2.1864   -21.4766  2021.2500     0.9737 
   1642.8710     9.6895   776.0344     0.0229   -99999.0   135.7812     1.2899    42.1753    46.8414     1.8950     1.6970   -21.2266  2020.0000     0.9774 
   1643.0234     9.8972   766.3943    -0.0361   -99999.0   136.6250     1.2954    39.2334    37.2070     1.8877     1.3831   -20.6406  2012.5000     0.9870 
   1643.1758     8.8428   779.2485    -0.0116   -99999.0   134.8438     1.2763    39.0444    37.3028     2.1150     1.3686   -19.5977  2015.0000     0.9982 
   1643.3282     9.2087   810.4971     0.0474   -99999.0   131.5781     1.2331    37.5458    36.4830     2.2511     1.4408   -18.8945  2020.0000     1.0000 
   1643.4806     8.7446   846.4160     0.0415   -99999.0   127.6562     1.1885    35.3317    35.2081     2.3006     1.5260   -19.8984  2011.2500     0.9851 
   1643.6330     8.7500   863.9915    -0.0114   -99999.0   124.5312     1.1607    33.3542    31.8085     2.2702     1.7043   -22.4023  1997.5000     0.9557 
   1643.7854     8.5946   872.0684    -0.0001   -99999.0   124.2969     1.1486    38.7451    35.1898     2.2728     1.9388   -24.5391  1993.7500     0.9218 
   1643.9378     8.7568   874.2981     0.0674   -99999.0   127.7031     1.1530    46.1426    44.5435     2.2744     1.9653   -25.4336  1995.0000     0.9456 
   1644.0902     8.8821   849.1484     0.0423   -99999.0   132.7656     1.1806    47.1420    51.8921     2.1132     1.6764   -25.5742  1997.5000     0.9418 
