~VERSION INFORMATION                                                           
 VERS.           2.0: CWLS Log ASCII Standard - Version 2.0                    
 WRAP.            NO: One Line per Depth Step                                  
~WELL INFORMATION                                                              
#MNEM.UNIT              DATA            DESCRIPTION OF MNEMONIC                
#-----------            ----            -----------------------                
 STRT.M             898.09              :Start Depth                           
 STOP.M            1708.40              :Stop  Depth                           
 STEP.M             0.1524              :Step                                  
 NULL.              -99999.0            :Null Value                            
 COMP.     PETROLEO BRASILEIRO S/A      :Company                               
 ORIG.     SIGEO EXPORTACAO PERFIL      :Origem dos dados                      
 WELL.     7-LP-84-ES                   :Well                                  
 FLD.      LAGOA PARDA                  :Field                                 
 STAT.     ESPIRITO SANTO               :State                                 
 API.      342700024200                 :API Code                              
 X.                411577.00            :Surface X                             
 Y.               7831472.80            :Surface Y                             
 HZCS.           UTM                    :Horizontal Coordinate System          
 MC.               39 W                 :Meridiano Central
 LATI.           -19:36:35.478          :Latitude                              
 LONG.           -39:50:35.593          :Longitude                             
 GDAT.           SIRGAS2000             :Geodetic Datum                        
 LMF.            MR                     :Log Measure From                      
 EDF.M               9.00               :Elevation Derrick Floor               
 EGL.M               4.40               :GROUND ELEVATION                      
~CURVE INFORMATION                                                             
 DEPT.M                                 :Measured Depth                        
 CALI.in                                :CALIPER 
 CILD.mS/m                              :CALIBRATED DEEP INDUCTION CONDUCTIVITY 
 DRHO.g/cm3                             :BULK DENSITIY CORRECTION 
 EFAC.Adim                              :ELETROFACIES 
 GR.gAPI                                :GAMMA RAY 
 ILD.ohm.m                              :INDUCTION DEEP RESISTIVITY 
 NPHI.%                                 :THERMAL NEUTRON POROSITY (ORIGINAL RATIO METHOD) IN SELECTED LITHOLOGY 
 NPOR.%                                 :NEUTRON POROSITY (ENVIRONMENTALLY CORRECTED AND ALPHA PROCESSED) 
 RHOB.g/cm3                             :BULK DENSITY 
 SFLU.ohm.m                             :SFL RESISTIVITY UNAVERAGED 
 SP.mV                                  :SPONTANEOUS POTENTIAL 
 TENS.lbf                               :LINE TENSION 
 VSH.v/v                                :VOLUME DE FOLHELHO 
~ASCII LOG DATA                                                                
# ...
   1683.1046   -99999.0  2015.9016   -99999.0   -99999.0    99.3281     0.5053   -99999.0   -99999.0   -99999.0     1.1196   -73.0938  2049.5000     1.0000 
   1683.2570   -99999.0  2320.6440   -99999.0   -99999.0   100.7656     0.4388   -99999.0   -99999.0   -99999.0     1.1602   -73.3438  2042.2500     1.0000 
   1683.4094   -99999.0  2516.8076   -99999.0   -99999.0   101.7656     0.4044   -99999.0   -99999.0   -99999.0     1.2369   -73.3750  2028.7500     1.0000 
   1683.5618   -99999.0  2550.2739   -99999.0   -99999.0   101.3125     0.3964   -99999.0   -99999.0   -99999.0     1.3283   -73.4531  2026.2500     1.0000 
   1683.7142   -99999.0  2474.8433   -99999.0   -99999.0    99.4062     0.4078   -99999.0   -99999.0   -99999.0     1.3905   -73.5938  2037.5000     1.0000 
   1683.8666   -99999.0  2320.5854   -99999.0   -99999.0    97.6406     0.4347   -99999.0   -99999.0   -99999.0     1.4015   -73.7188  2037.5000     1.0000 
   1684.0190   -99999.0  2114.0664   -99999.0   -99999.0    97.3438     0.4764   -99999.0   -99999.0   -99999.0     1.4025   -73.9688  2023.7500     1.0000 
   1684.1714   -99999.0  1891.0217   -99999.0   -99999.0    97.8750     0.5305   -99999.0   -99999.0   -99999.0     1.4235   -74.0625  2025.0000     1.0000 
   1684.3238   -99999.0  1690.6394   -99999.0   -99999.0    98.4219     0.5889   -99999.0   -99999.0   -99999.0     1.4304   -73.8750  2037.5000     1.0000 
   1684.4762   -99999.0  1552.8245   -99999.0   -99999.0    98.6719     0.6397   -99999.0   -99999.0   -99999.0     1.3688   -73.6406  2042.5000     1.0000 
   1684.6286   -99999.0  1472.0967   -99999.0   -99999.0   100.4062     0.6746   -99999.0   -99999.0   -99999.0     1.2423   -73.3281  2041.2500     1.0000 
   1684.7810   -99999.0  1437.1470   -99999.0   -99999.0   103.8594     0.6917   -99999.0   -99999.0   -99999.0     1.1332   -72.7969  2038.7500     1.0000 
   1684.9334   -99999.0  1436.7771   -99999.0   -99999.0   105.3125     0.6905   -99999.0   -99999.0   -99999.0     1.0990   -72.1406  2036.2500     1.0000 
   1685.0858   -99999.0  1483.6274   -99999.0   -99999.0   104.3125     0.6685   -99999.0   -99999.0   -99999.0     1.1234   -71.6562  2036.2500     1.0000 
   1685.2382   -99999.0  1587.8650   -99999.0   -99999.0   104.8281     0.6282   -99999.0   -99999.0   -99999.0     1.1738   -71.4062  2041.2500     1.0000 
   1685.3906   -99999.0  1726.6265   -99999.0   -99999.0   108.2969     0.5797   -99999.0   -99999.0   -99999.0     1.2237   -71.1875  2048.5000     1.0000 
   1685.5430   -99999.0  1884.2654   -99999.0   -99999.0   111.3438     0.5334   -99999.0   -99999.0   -99999.0     1.2647   -71.0000  2050.7500     1.0000 
   1685.6954   -99999.0  2028.3003   -99999.0   -99999.0   112.8125     0.4962   -99999.0   -99999.0   -99999.0     1.2973   -70.9688  2047.2500     1.0000 
   1685.8478   -99999.0  2136.3501   -99999.0   -99999.0   114.4531     0.4714   -99999.0   -99999.0   -99999.0     1.3235   -70.8750  2045.0000     1.0000 
   1686.0002   -99999.0  2191.1777   -99999.0   -99999.0   115.8750     0.4569   -99999.0   -99999.0   -99999.0     1.3364   -70.3125  2043.7500     1.0000 
   1686.1526   -99999.0  2237.4917   -99999.0   -99999.0   115.4219     0.4472   -99999.0   -99999.0   -99999.0     1.3085   -68.9062  2040.0000     1.0000 
   1686.3050   -99999.0  2280.4360   -99999.0   -99999.0   112.4062     0.4383   -99999.0   -99999.0   -99999.0     1.2527   -67.4375  2032.5000     1.0000 
   1686.4574   -99999.0  2329.8682   -99999.0   -99999.0   109.7344     0.4296   -99999.0   -99999.0   -99999.0     1.2329   -67.6562  2023.7500     1.0000 
   1686.6098   -99999.0  2371.8511   -99999.0   -99999.0   110.5156     0.4223   -99999.0   -99999.0   -99999.0     1.2593   -69.1250  2020.0000     1.0000 
   1686.7622   -99999.0  2398.2935   -99999.0   -99999.0   115.1094     0.4175   -99999.0   -99999.0   -99999.0     1.2623   -70.0312  2017.5000     1.0000 
   1686.9146   -99999.0  2412.9033   -99999.0   -99999.0   120.2812     0.4146   -99999.0   -99999.0   -99999.0     1.2189   -70.0312  2016.2500     1.0000 
   1687.0670   -99999.0  2424.6191   -99999.0   -99999.0   122.1875     0.4128   -99999.0   -99999.0   -99999.0     1.1875   -69.7812  2027.5000     1.0000 
   1687.2194   -99999.0  2427.9189   -99999.0   -99999.0   120.5312     0.4125   -99999.0   -99999.0   -99999.0     1.2079   -69.5625  2043.7500     1.0000 
   1687.3718   -99999.0  2417.6694   -99999.0   -99999.0   117.3594     0.4134   -99999.0   -99999.0   -99999.0     1.2706   -69.0312  2047.5000     1.0000 
   1687.5242   -99999.0  2413.7471   -99999.0   -99999.0   114.5000     0.4145   -99999.0   -99999.0   -99999.0     1.3718   -68.0625  2042.5000     1.0000 
   1687.6766   -99999.0  2406.1021   -99999.0   -99999.0   110.4375     0.4166   -99999.0   -99999.0   -99999.0     1.4869   -67.0938  2041.2500     1.0000 
   1687.8290   -99999.0  2376.9385   -99999.0   -99999.0   103.6406     0.4223   -99999.0   -99999.0   -99999.0     1.5372   -66.7031  2042.5000     1.0000 
   1687.9814   -99999.0  2313.0190   -99999.0   -99999.0    96.3438     0.4344   -99999.0   -99999.0   -99999.0     1.4935   -67.0781  2043.7500     1.0000 
   1688.1338   -99999.0  2211.6392   -99999.0   -99999.0    91.8125     0.4563   -99999.0   -99999.0   -99999.0     1.4065   -67.8281  2046.2500     1.0000 
   1688.2862   -99999.0  2047.2747   -99999.0   -99999.0    90.1250     0.4968   -99999.0   -99999.0   -99999.0     1.3358   -68.6406  2050.0000     1.0000 
   1688.4386   -99999.0  1791.8528   -99999.0   -99999.0    87.9062     0.5681   -99999.0   -99999.0   -99999.0     1.3274   -69.3125  2052.5000     1.0000 
   1688.5910   -99999.0  1497.8323   -99999.0   -99999.0    84.9219     0.6800   -99999.0   -99999.0   -99999.0     1.4291   -69.5312  2050.0000     1.0000 
   1688.7434   -99999.0  1209.5923   -99999.0   -99999.0    81.8906     0.8374   -99999.0   -99999.0   -99999.0     1.7773   -69.5000  2049.7500     1.0000 
   1688.8958   -99999.0   972.1538   -99999.0   -99999.0    77.9844     1.0508   -99999.0   -99999.0   -99999.0     2.8554   -69.6250  2052.0000     1.0000 
   1689.0482   -99999.0   758.0657   -99999.0   -99999.0    75.4375     1.3143   -99999.0   -99999.0   -99999.0     6.4271   -69.7188  2049.7500     1.0000 
   1689.2006   -99999.0   628.8711   -99999.0   -99999.0    76.4844     1.5382   -99999.0   -99999.0   -99999.0    15.4843   -69.4844  2038.7500     1.0000 
   1689.3530   -99999.0   604.8796   -99999.0   -99999.0    79.7500     1.6052   -99999.0   -99999.0   -99999.0    22.7994   -69.2031  2025.0000     1.0000 
   1689.5054   -99999.0   656.0317   -99999.0   -99999.0    82.4219     1.4979   -99999.0   -99999.0   -99999.0    18.0172   -69.2188  2023.7500     1.0000 
   1689.6578   -99999.0   775.2812   -99999.0   -99999.0    85.1719     1.2827   -99999.0   -99999.0   -99999.0     8.5072   -69.4375  2027.5000     1.0000 
   1689.8102   -99999.0   974.0615   -99999.0   -99999.0    88.8750     1.0381   -99999.0   -99999.0   -99999.0     3.5321   -69.5938  2028.7500     1.0000 
   1689.9626   -99999.0  1235.6846   -99999.0   -99999.0    92.2188     0.8238   -99999.0   -99999.0   -99999.0     1.9014   -69.6094  2036.2500     1.0000 
   1690.1150   -99999.0  1538.8203   -99999.0   -99999.0    94.1406     0.6608   -99999.0   -99999.0   -99999.0     1.3509   -69.6406  2046.2500     1.0000 
   1690.2674   -99999.0  1872.0588   -99999.0   -99999.0    95.0781     0.5446   -99999.0   -99999.0   -99999.0     1.1701   -69.7812  2050.0000     1.0000 
   1690.4198   -99999.0  2173.5117   -99999.0   -99999.0    96.0625     0.4694   -99999.0   -99999.0   -99999.0     1.1956   -69.8750  2048.7500     1.0000 
   1690.5722   -99999.0  2363.2910   -99999.0   -99999.0    95.7500     0.4282   -99999.0   -99999.0   -99999.0     1.2538   -69.8438  2046.2500     1.0000 
   1690.7246   -99999.0  2459.8037   -99999.0   -99999.0    93.7656     0.4098   -99999.0   -99999.0   -99999.0     1.3193   -69.6875  2043.7500     1.0000 
