~VERSION INFORMATION                                                           
 VERS.           2.0: CWLS Log ASCII Standard - Version 2.0                    
 WRAP.            NO: One Line per Depth Step                                  
~WELL INFORMATION                                                              
#MNEM.UNIT              DATA            DESCRIPTION OF MNEMONIC                
#-----------            ----            -----------------------                
 STRT.M             789.58              :Start Depth                           
 STOP.M            1481.02              :Stop  Depth                           
 STEP.M             0.1524              :Step                                  
 NULL.              -99999.0            :Null Value                            
 COMP.     PETROLEO BRASILEIRO S/A      :Company                               
 ORIG.     SIGEO EXPORTACAO PERFIL      :Origem dos dados                      
 WELL.     7-LP-88-ES                   :Well                                  
 FLD.      LAGOA PARDA                  :Field                                 
 STAT.     ESPIRITO SANTO               :State                                 
 API.      342700034000                 :API Code                              
 X.                410166.50            :Surface X                             
 Y.               7830454.00            :Surface Y                             
 HZCS.           UTM                    :Horizontal Coordinate System          
 MC.               39 W                 :Meridiano Central
 LATI.           -19:37:08.391          :Latitude                              
 LONG.           -39:51:24.187          :Longitude                             
 GDAT.           SIRGAS2000             :Geodetic Datum                        
 LMF.            MR                     :Log Measure From                      
 EDF.M              10.00               :Elevation Derrick Floor               
 EGL.M               4.80               :GROUND ELEVATION                      
~CURVE INFORMATION                                                             
 DEPT.M                                 :Measured Depth                        
 CALI.in                                :CALIPER 
 CALI.in                                :CALIPER 
 CILD.mS/m                              :CALIBRATED DEEP INDUCTION CONDUCTIVITY 
 DRHO.g/cm3                             :BULK DENSITIY CORRECTION 
 DRHO.g/cm3                             :BULK DENSITIY CORRECTION 
 GR.gAPI                                :GAMMA RAY 
 ILD.ohm.m                              :INDUCTION DEEP RESISTIVITY 
 NPHI.%                                 :THERMAL NEUTRON POROSITY (ORIGINAL RATIO METHOD) IN SELECTED LITHOLOGY 
 NPHI.%                                 :THERMAL NEUTRON POROSITY (ORIGINAL RATIO METHOD) IN SELECTED LITHOLOGY 
 NPOR.%                                 :NEUTRON POROSITY (ENVIRONMENTALLY CORRECTED AND ALPHA PROCESSED) 
 NPOR.%                                 :NEUTRON POROSITY (ENVIRONMENTALLY CORRECTED AND ALPHA PROCESSED) 
 PEF.Adim                               :PHOTOELETRIC FACTOR 
 PEF.Adim                               :PHOTOELETRIC FACTOR 
 RHOB.g/cm3                             :BULK DENSITY 
 RHOB.g/cm3                             :BULK DENSITY 
 RSFL.uohm                              :Raw SFL Conductivity 
 SFLU.ohm.m                             :SFL RESISTIVITY UNAVERAGED 
 SP.mV                                  :SPONTANEOUS POTENTIAL 
 TENS.lbf                               :LINE TENSION 
~ASCII LOG DATA                                                                
# ...
   1338.2242   -99999.0     9.7500  1208.6033   -99999.0     0.0366   115.6250     0.8274   -99999.0    42.6164   -99999.0    43.9188   -99999.0     3.4023   -99999.0     2.2317   924.2982     1.0774   -94.8429  2235.0000 
   1338.3766   -99999.0     9.5547  1213.3632   -99999.0     0.0393   107.2500     0.8242   -99999.0    41.8838   -99999.0    48.9453   -99999.0     3.4707   -99999.0     2.2169   979.8913     1.0165   -95.4463  2265.0000 
   1338.5290   -99999.0     9.1797  1220.8715   -99999.0     0.0612   107.6875     0.8191   -99999.0    41.7417   -99999.0    41.2475   -99999.0     3.4590   -99999.0     2.2134   984.1833     1.0118   -94.6999  2255.0000 
   1338.6813   -99999.0     9.9297  1224.0746   -99999.0     0.0475   106.6875     0.8169   -99999.0    41.4055   -99999.0    42.9930   -99999.0     3.3203   -99999.0     2.1467   995.3690     1.0004   -94.3965  2280.0000 
   1338.8337   -99999.0     9.8906  1225.9082   -99999.0     0.0491   111.0000     0.8157   -99999.0    42.3243   -99999.0    47.1412   -99999.0     3.2988   -99999.0     2.1059   938.3033     1.0616   -94.9465  2280.0000 
   1338.9861   -99999.0     9.5156  1227.5469   -99999.0     0.0707   106.0000     0.8146   -99999.0    43.1554   -99999.0    43.6666   -99999.0     3.3125   -99999.0     2.1288   957.5013     1.0401   -95.7997  2255.0000 
   1339.1385   -99999.0     9.1875  1230.4115   -99999.0     0.0980   105.6875     0.8127   -99999.0    44.0736   -99999.0    45.8482   -99999.0     3.4199   -99999.0     2.1937   941.3727     1.0578   -95.0750  2255.0000 
   1339.2909   -99999.0     9.6641  1224.7954   -99999.0     0.1124   110.5000     0.8165   -99999.0    44.1175   -99999.0    46.7662   -99999.0     3.4688   -99999.0     2.2628   973.6147     1.0229   -94.7713  2295.0000 
   1339.4433   -99999.0     9.7266  1197.3571   -99999.0     0.0804   117.6250     0.8352   -99999.0    44.0128   -99999.0    44.1242   -99999.0     3.4629   -99999.0     2.2497   960.7858     1.0365   -94.9786  2245.0000 
   1339.5957   -99999.0     9.7266  1151.2551   -99999.0     0.0797   117.6250     0.8687   -99999.0    44.3260   -99999.0    44.4550   -99999.0     3.3008   -99999.0     2.2490   964.1811     1.0328   -94.7715  2295.0000 
   1339.7481   -99999.0     9.7031  1080.3247   -99999.0     0.1064   114.3750     0.9260   -99999.0    43.4181   -99999.0    45.4637   -99999.0     3.2773   -99999.0     2.2675   977.8650     1.0184   -95.4356  2310.0000 
   1339.9005   -99999.0     9.5234   998.9777   -99999.0     0.1155   107.3125     1.0015   -99999.0    40.8210   -99999.0    48.0653   -99999.0     3.3652   -99999.0     2.2883  1000.4999     0.9953   -96.7574  2220.0000 
   1340.0529   -99999.0     9.7031   929.6493   -99999.0     0.0754   106.9375     1.0761   -99999.0    37.6640   -99999.0    52.0797   -99999.0     3.8086   -99999.0     2.3019  1014.9061     0.9812   -96.9893  2170.0000 
   1340.2053   -99999.0     9.8125   914.0001   -99999.0     0.0069   101.1875     1.0941   -99999.0    35.1317   -99999.0    30.5343   -99999.0     3.5312   -99999.0     2.3053   780.2764     1.2848   -96.6571  2240.0000 
   1340.3577   -99999.0     9.0078   910.5870   -99999.0     0.0051   101.4375     1.0982   -99999.0    32.7139   -99999.0    18.8855   -99999.0     3.4531   -99999.0     2.2607   514.0253     1.9661   -97.5391  2210.0000 
   1340.5101   -99999.0     9.1250   909.8641   -99999.0     0.0549   102.0000     1.0991   -99999.0    32.0238   -99999.0    31.9121   -99999.0     3.2500   -99999.0     2.2452   421.1869     2.3690   -97.6250  2235.0000 
   1340.6625   -99999.0    10.5000   909.4930   -99999.0     0.1161   109.9375     1.0995   -99999.0    33.6610   -99999.0    46.8719   -99999.0     3.4238   -99999.0     2.2546   633.3529     1.5982   -96.2540  2265.0000 
   1340.8149   -99999.0    10.6016   904.0850   -99999.0     0.1311   114.0625     1.1061   -99999.0    36.4561   -99999.0    40.9640   -99999.0     3.5488   -99999.0     2.2978   821.2802     1.2183   -95.7821  2230.0000 
   1340.9673   -99999.0    10.6328   933.8582   -99999.0     0.0941   117.8750     1.0709   -99999.0    39.1957   -99999.0    40.3484   -99999.0     3.4766   -99999.0     2.2694   945.3323     1.0548   -95.2930  2225.0000 
   1341.1197   -99999.0    10.4766  1004.7700   -99999.0     0.0875   117.8125     0.9957   -99999.0    40.8392   -99999.0    42.6768   -99999.0     3.4668   -99999.0     2.2447   898.5583     1.1086   -95.1357  2250.0000 
   1341.2721   -99999.0    10.4844  1083.9070   -99999.0     0.0793   123.1250     0.9230   -99999.0    42.2622   -99999.0    41.9102   -99999.0     3.3887   -99999.0     2.2140   897.7872     1.1092   -95.3537  2230.0000 
   1341.4245   -99999.0    10.3672  1159.6282   -99999.0     0.0863   121.0000     0.8626   -99999.0    42.5321   -99999.0    47.3373   -99999.0     3.5156   -99999.0     2.2191   904.0915     1.1014   -94.9179  2245.0000 
   1341.5769   -99999.0    10.2422  1177.3788   -99999.0     0.0859   125.2500     0.8494   -99999.0    42.9156   -99999.0    44.1622   -99999.0     3.5703   -99999.0     2.2374   880.6549     1.1308   -94.9892  2240.0000 
   1341.7293   -99999.0    10.0391  1200.3802   -99999.0     0.0660   126.6250     0.8331   -99999.0    42.6079   -99999.0    45.1096   -99999.0     3.5605   -99999.0     2.2298   855.7029     1.1638   -94.0859  2255.0000 
   1341.8817   -99999.0    10.0469  1202.5015   -99999.0     0.0537   132.7500     0.8316   -99999.0    42.3518   -99999.0    43.0933   -99999.0     3.4180   -99999.0     2.2253   838.2209     1.1880   -93.4284  2245.0000 
   1342.0341   -99999.0    10.0625  1207.0115   -99999.0     0.0699   130.6250     0.8285   -99999.0    41.6608   -99999.0    45.6558   -99999.0     3.3066   -99999.0     2.2416   909.7524     1.0953   -93.1465  2275.0000 
   1342.1865   -99999.0    10.2812  1208.0355   -99999.0     0.0746   130.6250     0.8278   -99999.0    41.4035   -99999.0    47.0703   -99999.0     3.4062   -99999.0     2.2568   941.5905     1.0576   -93.5822  2280.0000 
   1342.3389   -99999.0    10.4062  1206.7097   -99999.0     0.0804   126.0625     0.8287   -99999.0    41.4324   -99999.0    42.1200   -99999.0     3.4961   -99999.0     2.2844   952.0897     1.0459   -93.7393  2275.0000 
   1342.4913   -99999.0    10.3906  1210.4895   -99999.0     0.0584   123.2500     0.8261   -99999.0    41.3521   -99999.0    41.7365   -99999.0     3.6367   -99999.0     2.2935   949.5914     1.0487   -93.1785  2265.0000 
   1342.6437   -99999.0     9.8594  1215.0702   -99999.0     0.0665   115.3750     0.8230   -99999.0    41.5720   -99999.0    41.7463   -99999.0     3.5000   -99999.0     2.3118   938.1870     1.0614   -92.4395  2240.0000 
   1342.7961   -99999.0    10.1172  1217.1777   -99999.0     0.0657   115.4375     0.8216   -99999.0    41.3575   -99999.0    42.3358   -99999.0     3.5547   -99999.0     2.2996   938.1223     1.0615   -92.9464  2235.0000 
   1342.9485   -99999.0    10.1328  1214.5435   -99999.0     0.0766   116.6250     0.8234   -99999.0    41.5296   -99999.0    48.7401   -99999.0     3.4570   -99999.0     2.2909   976.4036     1.0200   -93.0000  2245.0000 
   1343.1009   -99999.0    10.5078  1211.9318   -99999.0     0.0724   122.8750     0.8251   -99999.0    41.5810   -99999.0    46.3233   -99999.0     3.5371   -99999.0     2.2887   988.1626     1.0077   -92.4286  2210.0000 
   1343.2533   -99999.0    10.3438  1210.6276   -99999.0     0.0775   127.3125     0.8260   -99999.0    41.6392   -99999.0    37.6036   -99999.0     3.5039   -99999.0     2.3138   979.9457     1.0162   -91.4604  2220.0000 
   1343.4057   -99999.0    10.0625  1214.9226   -99999.0     0.0439   126.1250     0.8231   -99999.0    41.7641   -99999.0    40.0312   -99999.0     3.6582   -99999.0     2.2964   957.3937     1.0402   -90.3465  2335.0000 
   1343.5581   -99999.0    10.1953  1209.5581   -99999.0     0.0292   126.0000     0.8267   -99999.0    42.4289   -99999.0    45.3889   -99999.0     3.6113   -99999.0     2.2849   960.5787     1.0367   -89.9073  2205.0000 
