~VERSION INFORMATION                                                           
 VERS.           2.0: CWLS Log ASCII Standard - Version 2.0                    
 WRAP.            NO: One Line per Depth Step                                  
~WELL INFORMATION                                                              
#MNEM.UNIT              DATA            DESCRIPTION OF MNEMONIC                
#-----------            ----            -----------------------                
 STRT.M             789.58              :Start Depth                           
 STOP.M            1481.02              :Stop  Depth                           
 STEP.M             0.1524              :Step                                  
 NULL.              -99999.0            :Null Value                            
 COMP.     PETROLEO BRASILEIRO S/A      :Company                               
 ORIG.     SIGEO EXPORTACAO PERFIL      :Origem dos dados                      
 WELL.     7-LP-88-ES                   :Well                                  
 FLD.      LAGOA PARDA                  :Field                                 
 STAT.     ESPIRITO SANTO               :State                                 
 API.      342700034000                 :API Code                              
 X.                410166.50            :Surface X                             
 Y.               7830454.00            :Surface Y                             
 HZCS.           UTM                    :Horizontal Coordinate System          
 MC.               39 W                 :Meridiano Central
 LATI.           -19:37:08.391          :Latitude                              
 LONG.           -39:51:24.187          :Longitude                             
 GDAT.           SIRGAS2000             :Geodetic Datum                        
 LMF.            MR                     :Log Measure From                      
 EDF.M              10.00               :Elevation Derrick Floor               
 EGL.M               4.80               :GROUND ELEVATION                      
~CURVE INFORMATION                                                             
 DEPT.M                                 :Measured Depth                        
 CALI.in                                :CALIPER 
 CALI.in                                :CALIPER 
 CILD.mS/m                              :CALIBRATED DEEP INDUCTION CONDUCTIVITY 
 DRHO.g/cm3                             :BULK DENSITIY CORRECTION 
 DRHO.g/cm3                             :BULK DENSITIY CORRECTION 
 GR.gAPI                                :GAMMA RAY 
 ILD.ohm.m                              :INDUCTION DEEP RESISTIVITY 
 NPHI.%                                 :THERMAL NEUTRON POROSITY (ORIGINAL RATIO METHOD) IN SELECTED LITHOLOGY 
 NPHI.%                                 :THERMAL NEUTRON POROSITY (ORIGINAL RATIO METHOD) IN SELECTED LITHOLOGY 
 NPOR.%                                 :NEUTRON POROSITY (ENVIRONMENTALLY CORRECTED AND ALPHA PROCESSED) 
 NPOR.%                                 :NEUTRON POROSITY (ENVIRONMENTALLY CORRECTED AND ALPHA PROCESSED) 
 PEF.Adim                               :PHOTOELETRIC FACTOR 
 PEF.Adim                               :PHOTOELETRIC FACTOR 
 RHOB.g/cm3                             :BULK DENSITY 
 RHOB.g/cm3                             :BULK DENSITY 
 RSFL.uohm                              :Raw SFL Conductivity 
 SFLU.ohm.m                             :SFL RESISTIVITY UNAVERAGED 
 SP.mV                                  :SPONTANEOUS POTENTIAL 
 TENS.lbf                               :LINE TENSION 
~ASCII LOG DATA                                                                
# ...
   1398.5745   -99999.0     8.2891  1952.2202   -99999.0     0.0279    69.3125     0.5122   -99999.0    28.1749   -99999.0    27.9753   -99999.0     2.7070   -99999.0     2.2782   593.7878     1.6800  -156.2865  2350.0000 
   1398.7269   -99999.0     8.2188  1977.6224   -99999.0     0.0630    69.0625     0.5057   -99999.0    28.9599   -99999.0    28.5829   -99999.0     2.7383   -99999.0     2.2842   543.8909     1.8315  -155.4393  2280.0000 
   1398.8793   -99999.0     8.2578  2022.4243   -99999.0     0.0813    67.8125     0.4945   -99999.0    29.9709   -99999.0    29.9846   -99999.0     2.6699   -99999.0     2.2818   580.1762     1.7170  -155.3750  2280.0000 
   1399.0317   -99999.0     8.4219  2074.4016   -99999.0     0.0424    66.0625     0.4821   -99999.0    31.0410   -99999.0    30.5164   -99999.0     2.6953   -99999.0     2.2230   709.9601     1.4075  -154.9179  2315.0000 
   1399.1841   -99999.0     8.5859  2220.6257   -99999.0     0.0113    67.8750     0.4505   -99999.0    31.7724   -99999.0    31.3311   -99999.0     2.5859   -99999.0     2.1957   876.1503     1.1405  -153.9612  2270.0000 
   1399.3365   -99999.0     8.4375  2405.7405   -99999.0     0.0043    65.6875     0.4159   -99999.0    32.2425   -99999.0    32.8862   -99999.0     3.0039   -99999.0     2.2381  1030.1124     0.9686  -151.8183  2310.0000 
   1399.4889   -99999.0     8.7891  2483.2166   -99999.0     0.0033    65.4375     0.4027   -99999.0    31.9983   -99999.0    30.9484   -99999.0     3.0449   -99999.0     2.3224  1071.3010     0.9296  -150.8248  2315.0000 
   1399.6413   -99999.0     8.4219  2567.2722   -99999.0    -0.0018    61.3750     0.3896   -99999.0    31.6281   -99999.0    32.0598   -99999.0     3.0312   -99999.0     2.3641  1060.2170     0.9393  -149.6074  2295.0000 
   1399.7937   -99999.0     8.4766  2580.0452   -99999.0    -0.0124    63.6562     0.3876   -99999.0    30.2041   -99999.0    32.0647   -99999.0     2.8906   -99999.0     2.2864  1077.0383     0.9246  -150.8705  2280.0000 
   1399.9461   -99999.0     8.4766  2438.5688   -99999.0    -0.0038    63.6562     0.4102   -99999.0    27.6076   -99999.0    29.1180   -99999.0     2.8418   -99999.0     2.2101  1186.6295     0.8399  -152.0282  2300.0000 
   1400.0985   -99999.0     8.9141  2202.6274   -99999.0     0.0045    63.0625     0.4544   -99999.0    23.1366   -99999.0    32.1318   -99999.0     2.9707   -99999.0     2.1988  1193.6832     0.8342  -150.6392  2295.0000 
   1400.2509   -99999.0     8.7422  1930.3113   -99999.0     0.0589    59.1875     0.5188   -99999.0    17.8867   -99999.0    23.2398   -99999.0     3.0078   -99999.0     2.3443  1272.5485     0.7829  -150.3858  2285.0000 
   1400.4033   -99999.0     8.2891  1603.2952   -99999.0     0.0735    52.9375     0.6255   -99999.0    12.4935   -99999.0     8.3525   -99999.0     2.9512   -99999.0     2.4957   940.5247     1.0687  -150.4892  2300.0000 
   1400.5557   -99999.0     8.4297  1325.8242   -99999.0     0.0650    47.2188     0.7564   -99999.0     8.2759   -99999.0     3.2504   -99999.0     2.8301   -99999.0     2.6195   272.6269     4.3704  -151.4138  2255.0000 
   1400.7081   -99999.0     8.6094  1089.6735   -99999.0     0.0076    45.3750     0.9205   -99999.0     5.8612   -99999.0     3.4013   -99999.0     2.8027   -99999.0     2.5656    74.8955    15.0536  -152.0714  2235.0000 
   1400.8605   -99999.0     8.4531   859.3146   -99999.0     0.0070    51.5938     1.1691   -99999.0     5.5493   -99999.0     3.8526   -99999.0     2.8262   -99999.0     2.5537    29.1378    36.0699  -153.1539  2225.0000 
   1401.0129   -99999.0     8.4297   690.8834   -99999.0     0.0132    55.3125     1.4527   -99999.0     6.5882   -99999.0     5.5111   -99999.0     2.9570   -99999.0     2.5491    34.5605    28.8782  -153.9357  2205.0000 
   1401.1653   -99999.0     8.5000   635.7121   -99999.0     0.0095    57.4688     1.5736   -99999.0     8.5525   -99999.0     7.8996   -99999.0     2.8398   -99999.0     2.5521    79.0877    13.3301  -156.2844  2335.0000 
   1401.3177   -99999.0     8.5938   687.5489   -99999.0    -0.0019    55.7188     1.4554   -99999.0    11.1962   -99999.0     7.6028   -99999.0     2.7832   -99999.0     2.4880   201.7173     5.2997  -156.9570  2390.0000 
   1401.4701   -99999.0     8.6562   838.2064   -99999.0    -0.0060    55.0000     1.1970   -99999.0    14.1837   -99999.0    12.8640   -99999.0     2.6211   -99999.0     2.3789   338.9194     2.9956  -158.1431  2295.0000 
   1401.6225   -99999.0     8.4141  1094.2155   -99999.0     0.0068    57.2188     0.9192   -99999.0    17.1834   -99999.0    21.4661   -99999.0     2.6562   -99999.0     2.2929   520.1451     1.9416  -159.0498  2270.0000 
   1401.7749   -99999.0     8.2656  1293.9250   -99999.0     0.0309    57.0000     0.7744   -99999.0    20.2045   -99999.0    22.8140   -99999.0     2.5762   -99999.0     2.2560   780.7979     1.2920  -159.4676  2280.0000 
   1401.9273   -99999.0     8.2578  1498.8317   -99999.0     0.0750    56.5000     0.6683   -99999.0    22.8128   -99999.0    22.5988   -99999.0     2.6641   -99999.0     2.2805   925.3526     1.0781  -158.1291  2260.0000 
   1402.0797   -99999.0     8.2734  1824.7318   -99999.0     0.0655    55.7500     0.5498   -99999.0    24.4750   -99999.0    22.9154   -99999.0     2.6699   -99999.0     2.2672   975.3173     1.0212  -157.7714  2250.0000 
   1402.2321   -99999.0     8.2812  2106.0972   -99999.0     0.0513    57.4375     0.4755   -99999.0    25.0634   -99999.0    25.2463   -99999.0     2.7148   -99999.0     2.2643   978.9283     1.0172  -156.2648  2245.0000 
   1402.3845   -99999.0     8.3906  2265.2002   -99999.0     0.0001    62.1250     0.4416   -99999.0    24.5879   -99999.0    26.2691   -99999.0     2.6543   -99999.0     2.2210   976.9708     1.0193  -154.2980  2300.0000 
   1402.5369   -99999.0     8.9844  2345.5642   -99999.0    -0.0068    59.5625     0.4264   -99999.0    23.4604   -99999.0    23.7975   -99999.0     2.5410   -99999.0     2.2323  1028.5140     0.9684  -150.6982  2285.0000 
   1402.6893   -99999.0     9.8906  2313.1780   -99999.0    -0.0152    60.7188     0.4323   -99999.0    22.3276   -99999.0    20.9121   -99999.0     2.7227   -99999.0     2.2376  1099.9977     0.9056  -146.9468  2260.0000 
   1402.8417   -99999.0     8.9531  2155.1035   -99999.0    -0.0112    62.6562     0.4642   -99999.0    22.4100   -99999.0    19.6863   -99999.0     2.9023   -99999.0     2.2588  1058.3990     0.9410  -145.0245  2275.0000 
   1402.9941   -99999.0     8.9609  2015.9999   -99999.0    -0.0116    77.5000     0.4962   -99999.0    24.3671   -99999.0    18.9222   -99999.0     3.1621   -99999.0     2.2286   857.0507     1.1666  -141.5611  2270.0000 
   1403.1465   -99999.0     8.7266  1786.8844   -99999.0     0.0055    99.1250     0.5603   -99999.0    28.1047   -99999.0    25.6665   -99999.0     3.2383   -99999.0     2.2013   869.9001     1.1448  -132.2266  2280.0000 
   1403.2989   -99999.0     9.4375  1616.0581   -99999.0     0.0488   121.1875     0.6193   -99999.0    32.5628   -99999.0    37.8651   -99999.0     3.1250   -99999.0     2.2062   994.7859     1.0026  -118.9781  2260.0000 
   1403.4513   -99999.0     8.8672  1411.1493   -99999.0     0.0801   138.7500     0.7097   -99999.0    36.8107   -99999.0    44.9496   -99999.0     2.9824   -99999.0     2.2001  1134.1064     0.8792  -109.1254  2280.0000 
   1403.6037   -99999.0     9.2656  1217.8226   -99999.0     0.1007   141.1250     0.8226   -99999.0    39.4557   -99999.0    46.1509   -99999.0     2.8203   -99999.0     2.1836  1069.3551     0.9317  -105.2275  2335.0000 
   1403.7561   -99999.0     9.0547  1106.7330   -99999.0     0.0885   138.7500     0.9041   -99999.0    40.3118   -99999.0    44.0432   -99999.0     2.9316   -99999.0     2.1373   963.9272     1.0340  -102.5392  2290.0000 
   1403.9085   -99999.0     9.3203  1001.5708   -99999.0     0.1091   134.2500     0.9992   -99999.0    40.0535   -99999.0    38.3017   -99999.0     3.2539   -99999.0     2.1980   927.3879     1.0738  -100.7131  2265.0000 
