~VERSION INFORMATION                                                           
 VERS.           2.0: CWLS Log ASCII Standard - Version 2.0                    
 WRAP.            NO: One Line per Depth Step                                  
~WELL INFORMATION                                                              
#MNEM.UNIT              DATA            DESCRIPTION OF MNEMONIC                
#-----------            ----            -----------------------                
 STRT.M             789.58              :Start Depth                           
 STOP.M            1481.02              :Stop  Depth                           
 STEP.M             0.1524              :Step                                  
 NULL.              -99999.0            :Null Value                            
 COMP.     PETROLEO BRASILEIRO S/A      :Company                               
 ORIG.     SIGEO EXPORTACAO PERFIL      :Origem dos dados                      
 WELL.     7-LP-88-ES                   :Well                                  
 FLD.      LAGOA PARDA                  :Field                                 
 STAT.     ESPIRITO SANTO               :State                                 
 API.      342700034000                 :API Code                              
 X.                410166.50            :Surface X                             
 Y.               7830454.00            :Surface Y                             
 HZCS.           UTM                    :Horizontal Coordinate System          
 MC.               39 W                 :Meridiano Central
 LATI.           -19:37:08.391          :Latitude                              
 LONG.           -39:51:24.187          :Longitude                             
 GDAT.           SIRGAS2000             :Geodetic Datum                        
 LMF.            MR                     :Log Measure From                      
 EDF.M              10.00               :Elevation Derrick Floor               
 EGL.M               4.80               :GROUND ELEVATION                      
~CURVE INFORMATION                                                             
 DEPT.M                                 :Measured Depth                        
 CALI.in                                :CALIPER 
 CALI.in                                :CALIPER 
 CILD.mS/m                              :CALIBRATED DEEP INDUCTION CONDUCTIVITY 
 DRHO.g/cm3                             :BULK DENSITIY CORRECTION 
 DRHO.g/cm3                             :BULK DENSITIY CORRECTION 
 GR.gAPI                                :GAMMA RAY 
 ILD.ohm.m                              :INDUCTION DEEP RESISTIVITY 
 NPHI.%                                 :THERMAL NEUTRON POROSITY (ORIGINAL RATIO METHOD) IN SELECTED LITHOLOGY 
 NPHI.%                                 :THERMAL NEUTRON POROSITY (ORIGINAL RATIO METHOD) IN SELECTED LITHOLOGY 
 NPOR.%                                 :NEUTRON POROSITY (ENVIRONMENTALLY CORRECTED AND ALPHA PROCESSED) 
 NPOR.%                                 :NEUTRON POROSITY (ENVIRONMENTALLY CORRECTED AND ALPHA PROCESSED) 
 PEF.Adim                               :PHOTOELETRIC FACTOR 
 PEF.Adim                               :PHOTOELETRIC FACTOR 
 RHOB.g/cm3                             :BULK DENSITY 
 RHOB.g/cm3                             :BULK DENSITY 
 RSFL.uohm                              :Raw SFL Conductivity 
 SFLU.ohm.m                             :SFL RESISTIVITY UNAVERAGED 
 SP.mV                                  :SPONTANEOUS POTENTIAL 
 TENS.lbf                               :LINE TENSION 
~ASCII LOG DATA                                                                
# ...
    877.3668     8.6106   -99999.0   823.2802     0.0100   -99999.0   106.8750     1.2156    47.1745   -99999.0    50.3421   -99999.0     3.3674   -99999.0     2.0981   -99999.0  1064.7668     0.9354  -130.6461  1685.0000 
    877.5192     8.7158   -99999.0   787.1934     0.0336   -99999.0   106.3125     1.2705    43.6788   -99999.0    45.3418   -99999.0     3.1446   -99999.0     2.1944   -99999.0   865.4686     1.1554  -131.6554  1665.0000 
    877.6716     8.9297   -99999.0   793.5162     0.0485   -99999.0   106.4375     1.2602    39.9728   -99999.0    49.7477   -99999.0     3.9162   -99999.0     2.2582   -99999.0   490.0761     2.0928  -134.3832  1770.0000 
    877.8240     8.7724   -99999.0   794.0650     0.0049   -99999.0   106.2500     1.2593    40.8915   -99999.0    35.0624   -99999.0     3.4457   -99999.0     2.1332   -99999.0   287.3955     3.5372  -133.4802  1685.0000 
    877.9764     8.5482   -99999.0   784.0868     0.0174   -99999.0   109.8125     1.2754    40.7229   -99999.0    37.3438   -99999.0     2.9648   -99999.0     2.0731   -99999.0   273.0940     3.6446  -131.6578  1720.0000 
    878.1288     8.4516   -99999.0   778.5152     0.0133   -99999.0   108.4375     1.2845    42.2742   -99999.0    34.9987   -99999.0     2.7719   -99999.0     2.1142   -99999.0   607.1550     1.7363  -130.3552  1715.0000 
    878.2812     8.5537   -99999.0   772.7174     0.0094   -99999.0   109.2500     1.2941    44.7747   -99999.0    45.3893   -99999.0     3.4603   -99999.0     2.1236   -99999.0   773.5873     1.2915  -130.7079  1675.0000 
    878.4336     8.5567   -99999.0   820.7307     0.0385   -99999.0   111.7500     1.2188    48.1624   -99999.0    54.7416   -99999.0     3.2370   -99999.0     2.1790   -99999.0   842.3238     1.1827  -130.5211  1710.0000 
    878.5860     8.4131   -99999.0   860.7065     0.0402   -99999.0   117.3750     1.1620    45.7550   -99999.0    46.1139   -99999.0     3.3545   -99999.0     2.1678   -99999.0   840.3050     1.1850  -130.8434  1655.0000 
    878.7384     8.3722   -99999.0   894.9484     0.0231   -99999.0   119.0000     1.1175    44.3947   -99999.0    44.5635   -99999.0     3.3020   -99999.0     2.1540   -99999.0   830.6495     1.1988  -131.1039  1740.0000 
    878.8908     8.3359   -99999.0   899.1129    -0.0118   -99999.0   113.6875     1.1122    42.9100   -99999.0    46.3969   -99999.0     3.1424   -99999.0     2.1195   -99999.0   755.0983     1.3198  -130.5527  1695.0000 
    879.0432     8.3759   -99999.0   933.1075     0.0185   -99999.0   107.2500     1.0718    39.6796   -99999.0    41.8428   -99999.0     3.6569   -99999.0     2.1541   -99999.0   618.7206     1.6147  -131.0723  1715.0000 
    879.1956     8.4774   -99999.0   944.5251     0.0331   -99999.0   106.1875     1.0587    39.2854   -99999.0    39.2531   -99999.0     3.1769   -99999.0     2.1601   -99999.0   317.0702     3.2772  -132.7273  1700.0000 
    879.3480     8.4654   -99999.0   939.3678     0.0101   -99999.0   109.1250     1.0645    40.0338   -99999.0    43.0145   -99999.0     3.4348   -99999.0     2.0883   -99999.0   405.4544     2.4802  -131.6161  1695.0000 
    879.5004     8.4901   -99999.0   929.6736     0.0102   -99999.0   113.2500     1.0757    41.2837   -99999.0    36.1290   -99999.0     3.0424   -99999.0     2.0472   -99999.0   629.3411     1.6066  -129.8972  1640.0000 
    879.6528     8.5703   -99999.0   912.0970     0.0069   -99999.0   114.9375     1.0964    44.3837   -99999.0    44.3945   -99999.0     3.1770   -99999.0     2.0926   -99999.0   839.9557     1.1926  -129.6355  1740.0000 
    879.8052     8.4821   -99999.0   915.9537     0.0234   -99999.0   110.3750     1.0918    49.1209   -99999.0    43.0160   -99999.0     3.1203   -99999.0     2.1570   -99999.0   892.6620     1.1157  -130.0829  1660.0000 
    879.9576     8.3936   -99999.0   957.1038     0.0223   -99999.0   106.1250     1.0450    50.5508   -99999.0    49.7417   -99999.0     3.5002   -99999.0     2.1575   -99999.0   864.6567     1.1518  -130.3540  1695.0000 
    880.1100     8.4609   -99999.0   996.1761     0.0136   -99999.0   102.1875     1.0040    50.7407   -99999.0    62.0305   -99999.0     3.8785   -99999.0     2.1464   -99999.0   865.3833     1.1507  -130.3750  1640.0000 
    880.2624     8.5398   -99999.0  1018.7449     0.0123   -99999.0   105.3125     0.9816    50.2763   -99999.0    54.1097   -99999.0     3.0605   -99999.0     2.1260   -99999.0   888.9351     1.1203  -130.4895  1675.0000 
    880.4148     8.5469   -99999.0  1023.0674     0.0383   -99999.0   109.5000     0.9775    49.2106   -99999.0    55.3919   -99999.0     3.2968   -99999.0     2.1657   -99999.0   842.1782     1.1827  -131.1868  1765.0000 
    880.5672     8.4453   -99999.0  1015.8641     0.0554   -99999.0   109.2500     0.9844    47.7320   -99999.0    48.0567   -99999.0     3.3432   -99999.0     2.1723   -99999.0   807.4279     1.2334  -131.3645  1670.0000 
    880.7196     8.4628   -99999.0   992.4069     0.0151   -99999.0   108.0625     1.0077    46.4254   -99999.0    49.2908   -99999.0     3.4609   -99999.0     2.1260   -99999.0   854.0230     1.1664  -131.1461  1810.0000 
    880.8720     8.5481   -99999.0   970.3441     0.0304   -99999.0   106.7500     1.0306    45.6839   -99999.0    53.8166   -99999.0     3.2222   -99999.0     2.1179   -99999.0   957.3284     1.0413  -131.1250  1675.0000 
    881.0244     8.6099   -99999.0   957.1192     0.0367   -99999.0   111.3125     1.0448    45.1569   -99999.0    43.8763   -99999.0     3.3722   -99999.0     2.1415   -99999.0   943.3750     1.0556  -131.6973  1735.0000 
    881.1768     8.6334   -99999.0   952.1505     0.0139   -99999.0   112.0000     1.0503    44.2010   -99999.0    46.3099   -99999.0     3.1878   -99999.0     2.1485   -99999.0   872.4189     1.1420  -131.5211  1710.0000 
    881.3292     8.7188   -99999.0   953.2787     0.0073   -99999.0   118.4375     1.0490    44.3750   -99999.0    39.9672   -99999.0     3.3675   -99999.0     2.1417   -99999.0   833.3736     1.1950  -131.3856  1690.0000 
    881.4816     8.7188   -99999.0   963.6710     0.0511   -99999.0   118.1875     1.0377    43.1931   -99999.0    39.9517   -99999.0     3.3269   -99999.0     2.2291   -99999.0   786.0355     1.2672  -131.7184  1705.0000 
    881.6340     8.6241   -99999.0   966.0339     0.0213   -99999.0   120.8125     1.0352    44.9240   -99999.0    41.7888   -99999.0     3.4575   -99999.0     2.1876   -99999.0   749.2545     1.3292  -132.3224  1730.0000 
    881.7864     8.4032   -99999.0   966.5250     0.0084   -99999.0   117.6250     1.0346    44.7354   -99999.0    53.5463   -99999.0     3.3918   -99999.0     2.1625   -99999.0   776.9958     1.2817  -130.8868  1735.0000 
    881.9388     8.3997   -99999.0   970.0827     0.0152   -99999.0   120.8125     1.0308    46.7247   -99999.0    49.5398   -99999.0     3.0396   -99999.0     2.1412   -99999.0   881.7048     1.1309  -130.1776  1725.0000 
    882.0912     8.4211   -99999.0   978.3614     0.0303   -99999.0   118.2500     1.0221    46.9326   -99999.0    57.9079   -99999.0     3.0177   -99999.0     2.1265   -99999.0   968.9121     1.0284  -129.8961  1695.0000 
    882.2436     8.3825   -99999.0   995.4686     0.0143   -99999.0   116.7500     1.0046    48.1301   -99999.0    44.5654   -99999.0     3.5035   -99999.0     2.0956   -99999.0   931.9194     1.0687  -129.6461  1690.0000 
    882.3960     8.3044   -99999.0  1025.1033     0.0113   -99999.0   112.9375     0.9756    47.2249   -99999.0    65.9707   -99999.0     3.1923   -99999.0     2.0983   -99999.0   887.1406     1.1227  -129.8539  1735.0000 
    882.5484     8.3603   -99999.0  1046.2899    -0.0041   -99999.0   114.9375     0.9558    47.4442   -99999.0    43.4311   -99999.0     3.1218   -99999.0     2.0867   -99999.0   842.6777     1.1819  -129.5316  1705.0000 
    882.7008     8.3359   -99999.0  1058.0087     0.0068   -99999.0   116.6250     0.9452    45.5684   -99999.0    44.4006   -99999.0     3.3592   -99999.0     2.1186   -99999.0   867.0519     1.1486  -129.2711  1695.0000 
