~VERSION INFORMATION                                                           
 VERS.           2.0: CWLS Log ASCII Standard - Version 2.0                    
 WRAP.            NO: One Line per Depth Step                                  
~WELL INFORMATION                                                              
#MNEM.UNIT              DATA            DESCRIPTION OF MNEMONIC                
#-----------            ----            -----------------------                
 STRT.M             952.00              :Start Depth                           
 STOP.M            1604.00              :Stop  Depth                           
 STEP.M             0.2000              :Step                                  
 NULL.              -99999.0            :Null Value                            
 COMP.     PETROLEO BRASILEIRO S/A      :Company                               
 ORIG.     SIGEO EXPORTACAO PERFIL      :Origem dos dados                      
 WELL.     7-LP-85-ES                   :Well                                  
 FLD.      LAGOA PARDA                  :Field                                 
 STAT.     ESPIRITO SANTO               :State                                 
 API.      342700026300                 :API Code                              
 X.                412944.10            :Surface X                             
 Y.               7831795.90            :Surface Y                             
 HZCS.           UTM                    :Horizontal Coordinate System          
 MC.               39 W                 :Meridiano Central
 LATI.           -19:36:25.186          :Latitude                              
 LONG.           -39:49:48.609          :Longitude                             
 GDAT.           SIRGAS2000             :Geodetic Datum                        
 LMF.            MR                     :Log Measure From                      
 EDF.M               8.00               :Elevation Derrick Floor               
 EGL.M               3.00               :GROUND ELEVATION                      
~CURVE INFORMATION                                                             
 DEPT.M                                 :Measured Depth                        
 CALI.in                                :CALIPER 
 DRHO.g/cm3                             :BULK DENSITIY CORRECTION 
 EFAC.Adim                              :ELETROFACIES 
 GR.gAPI                                :GAMMA RAY 
 ILD.ohm.m                              :INDUCTION DEEP RESISTIVITY 
 NPHI.%                                 :THERMAL NEUTRON POROSITY (ORIGINAL RATIO METHOD) IN SELECTED LITHOLOGY 
 RHOB.g/cm3                             :BULK DENSITY 
 SN.ohm.m                               :SHORT NORMAL RESISTIVITY 
 SP.mV                                  :SPONTANEOUS POTENTIAL 
 TENS.lbf                               :LINE TENSION 
 VSH.v/v                                :VOLUME DE FOLHELHO 
~ASCII LOG DATA                                                                
# ...
   1168.0000    10.5911     0.0586   -99999.0   102.1177     0.7411    53.8376     2.1171     1.2078    55.4059  1513.3345   -99999.0 
   1168.2000    10.4723     0.0524   -99999.0   103.0314     0.7373    53.5883     2.1030     1.2078    55.7971  1678.0000   -99999.0 
   1168.4000    10.4690     0.0551   -99999.0   105.0572     0.7374    52.0950     2.1105     1.2021    56.7102  1574.7571   -99999.0 
   1168.6000    10.5994     0.0540   -99999.0   105.5996     0.7396    50.0361     2.1240     1.1995    57.8961  1527.0000   -99999.0 
   1168.8000    10.6062     0.0490   -99999.0   103.4748     0.7420    50.7796     2.1254     1.1961    59.5542  1654.0000   -99999.0 
   1169.0000    10.5703     0.0509   -99999.0    99.4136     0.7364    52.0552     2.1240     1.1885    60.2104  1617.3765   -99999.0 
   1169.2000    10.5400     0.0548   -99999.0    96.9870     0.7267    49.6214     2.1268     1.1885    59.8401  1595.0000   -99999.0 
   1169.4000    10.5174     0.0585   -99999.0    97.4209     0.7166    46.6093     2.1298     1.1885    59.5491  1542.0000   -99999.0 
   1169.6000    10.3950     0.0600   -99999.0    97.7654     0.7101    48.6319     2.1240     1.1824    59.7000  1610.0447   -99999.0 
   1169.8000     9.8102     0.0574   -99999.0    95.7598     0.7051    53.4898     2.1087     1.1706    59.2650  1664.0000   -99999.0 
   1170.0000     9.9128     0.0525   -99999.0    94.1466     0.7031    54.5008     2.0927     1.1695    59.0730  1634.0000   -99999.0 
   1170.2000    10.1085     0.0490   -99999.0    98.2232     0.7055    52.5168     2.0880     1.1695    59.9442  1595.4094   -99999.0 
   1170.4000    10.1854     0.0480   -99999.0   103.1405     0.7172    51.6582     2.0979     1.1695    60.5807  1556.0000   -99999.0 
   1170.6000    10.2263     0.0552   -99999.0   103.8045     0.7404    51.4684     2.1157     1.1802    60.3059  1605.0000   -99999.0 
   1170.8000    10.4589     0.0692   -99999.0   102.4092     0.7685    51.9099     2.1336     1.2079    56.1911  1605.0000   -99999.0 
   1171.0000    10.5100     0.0864   -99999.0    98.1516     0.7965    52.6853     2.1507     1.2253    53.6327  1605.0000   -99999.0 
   1171.2000    10.4817     0.1055   -99999.0    90.5476     0.8212    50.3912     2.1621     1.2474    53.0056  1581.0000   -99999.0 
   1171.4000    10.5100     0.1126   -99999.0    88.5163     0.8392    46.1588     2.1651     1.2474    53.2106  1616.7703   -99999.0 
   1171.6000    10.5100     0.1093   -99999.0    90.0811     0.8479    45.4962     2.1718     1.2474    53.3319  1678.0000   -99999.0 
   1171.8000    10.3709     0.1070   -99999.0    90.0026     0.8472    48.1146     2.1810     1.2389    53.7967  1620.3806   -99999.0 
   1172.0000    10.3631     0.1032   -99999.0    91.6562     0.8354    51.1048     2.1766     1.2274    54.3140  1601.9592   -99999.0 
   1172.2000    10.3885     0.0959   -99999.0    95.2071     0.8133    52.8736     2.1685     1.2222    55.1709  1561.0000   -99999.0 
   1172.4000    10.4186     0.0931   -99999.0    97.9678     0.7866    52.7041     2.1661     1.2086    56.1443  1529.3647   -99999.0 
   1172.6000    10.4200     0.0945   -99999.0   101.1827     0.7627    52.0634     2.1573     1.1995    57.7728  1538.8962   -99999.0 
   1172.8000    10.4200     0.0897   -99999.0   103.3886     0.7378    52.8906     2.1412     1.1873    57.5004  1576.0000   -99999.0 
   1173.0000    10.3766     0.0809   -99999.0   101.9651     0.7165    54.6518     2.1237     1.1776    57.0132  1546.5066   -99999.0 
   1173.2000    10.1892     0.0737   -99999.0    98.0865     0.7022    54.5670     2.1097     1.1676    57.0539  1639.0000   -99999.0 
   1173.4000    10.1105     0.0631   -99999.0    96.4461     0.6974    51.4322     2.1040     1.1535    56.9555  1598.1536   -99999.0 
   1173.6000    10.1283     0.0500   -99999.0    99.4352     0.6966    48.8577     2.1056     1.1482    56.8413  1556.0000   -99999.0 
   1173.8000    10.3735     0.0421   -99999.0   103.2453     0.6974    48.9344     2.1095     1.1482    57.0584  1620.0000   -99999.0 
   1174.0000    10.4086     0.0460   -99999.0   106.7736     0.7080    48.9009     2.1164     1.1527    57.9291  1653.4724   -99999.0 
   1174.2000    10.4867     0.0582   -99999.0   111.9659     0.7293    47.4312     2.1314     1.1588    58.7224  1698.0000   -99999.0 
   1174.4000    10.4725     0.0712   -99999.0   113.3386     0.7656    46.8267     2.1505     1.1705    59.4570  1522.0000   -99999.0 
   1174.6000    10.3070     0.0733   -99999.0   109.8043     0.8085    48.7066     2.1616     1.1997    58.2972  1570.3306   -99999.0 
   1174.8000    10.2364     0.0727   -99999.0   110.5676     0.8550    50.2625     2.1755     1.2461    57.0572  1654.0000   -99999.0 
   1175.0000    10.2003     0.0780   -99999.0   116.4541     0.9054    48.6960     2.1988     1.2968    55.0165  1518.2585   -99999.0 
   1175.2000    10.2452     0.0782   -99999.0   119.2606     0.9582    46.1056     2.2168     1.3575    53.5181  1555.5000   -99999.0 
   1175.4000    10.2800     0.0697   -99999.0   119.5231     1.0210    45.6370     2.2210     1.3910    53.5308  1644.0000   -99999.0 
   1175.6000    10.3078     0.0624   -99999.0   121.3629     1.0854    46.3296     2.2210     1.4086    53.8000  1675.5459   -99999.0 
   1175.8000    10.2236     0.0575   -99999.0   124.0563     1.1316    45.6875     2.2262     1.4116    53.7441  1645.3386   -99999.0 
   1176.0000    10.2836     0.0588   -99999.0   126.6602     1.1499    46.0735     2.2418     1.4245    54.8077  1542.0000   -99999.0 
   1176.2000    10.4000     0.0662   -99999.0   128.4648     1.1558    49.2512     2.2620     1.4375    56.5972  1659.6167   -99999.0 
   1176.4000    10.3918     0.0671   -99999.0   126.6331     1.1593    50.2901     2.2678     1.4406    57.4000  1659.9290   -99999.0 
   1176.6000    10.2091     0.0591   -99999.0   122.8741     1.1628    47.1358     2.2566     1.4439    57.3021  1576.0000   -99999.0 
   1176.8000     9.8657     0.0494   -99999.0   122.1811     1.1598    46.0323     2.2446     1.4388    56.8792  1649.7690   -99999.0 
   1177.0000     9.8763     0.0453   -99999.0   128.0394     1.1431    47.3318     2.2416     1.4278    56.0630  1660.8071   -99999.0 
   1177.2000    10.1525     0.0506   -99999.0   132.7014     1.1148    45.2094     2.2494     1.4108    55.0426  1605.0000   -99999.0 
   1177.4000    10.2796     0.0584   -99999.0   126.4631     1.0848    41.4959     2.2547     1.3831    55.3955  1605.0000   -99999.0 
   1177.6000    10.3533     0.0631   -99999.0   114.7441     1.0557    40.5073     2.2475     1.3485    55.8204  1602.7480   -99999.0 
   1177.8000    10.2191     0.0633   -99999.0   110.0000     1.0283    42.3734     2.2344     1.3319    56.4908  1561.0000   -99999.0 
   1178.0000    10.3487     0.0627   -99999.0   111.3517     1.0006    46.4293     2.2246     1.3183    57.2027  1604.2546   -99999.0 
   1178.2000    10.5682     0.0679   -99999.0   113.0870     0.9686    52.7595     2.2270     1.3394    56.3118  1625.0000   -99999.0 
   1178.4000    10.4468     0.0759   -99999.0   112.9300     0.9370    56.6521     2.2318     1.3397    54.8798  1683.0000   -99999.0 
   1178.6000    10.2606     0.0774   -99999.0   113.3677     0.9102    55.3185     2.2167     1.3321    53.6194  1635.1968   -99999.0 
   1178.8000    10.4928     0.0761   -99999.0   113.4149     0.8922    51.5111     2.1794     1.3105    51.3346  1605.0000   -99999.0 
   1179.0000    10.6333     0.0804   -99999.0   112.8375     0.8757    49.5093     2.1515     1.2834    51.0475  1625.0000   -99999.0 
   1179.2000    10.7400     0.0894   -99999.0   114.9747     0.8574    51.1412     2.1615     1.2677    51.4199  1587.0591   -99999.0 
   1179.4000    10.7400     0.0964   -99999.0   117.3933     0.8444    54.2334     2.1926     1.2601    51.6000  1556.0000   -99999.0 
   1179.6000    10.7700     0.0965   -99999.0   115.8764     0.8428    55.0329     2.2070     1.2677    51.3953  1703.0000   -99999.0 
   1179.8000    10.7943     0.0925   -99999.0   112.2315     0.8569    53.4818     2.2070     1.2734    50.8513  1636.2979   -99999.0 
