~VERSION INFORMATION                                                           
 VERS.           2.0: CWLS Log ASCII Standard - Version 2.0                    
 WRAP.            NO: One Line per Depth Step                                  
~WELL INFORMATION                                                              
#MNEM.UNIT              DATA            DESCRIPTION OF MNEMONIC                
#-----------            ----            -----------------------                
 STRT.M             952.00              :Start Depth                           
 STOP.M            1604.00              :Stop  Depth                           
 STEP.M             0.2000              :Step                                  
 NULL.              -99999.0            :Null Value                            
 COMP.     PETROLEO BRASILEIRO S/A      :Company                               
 ORIG.     SIGEO EXPORTACAO PERFIL      :Origem dos dados                      
 WELL.     7-LP-85-ES                   :Well                                  
 FLD.      LAGOA PARDA                  :Field                                 
 STAT.     ESPIRITO SANTO               :State                                 
 API.      342700026300                 :API Code                              
 X.                412944.10            :Surface X                             
 Y.               7831795.90            :Surface Y                             
 HZCS.           UTM                    :Horizontal Coordinate System          
 MC.               39 W                 :Meridiano Central
 LATI.           -19:36:25.186          :Latitude                              
 LONG.           -39:49:48.609          :Longitude                             
 GDAT.           SIRGAS2000             :Geodetic Datum                        
 LMF.            MR                     :Log Measure From                      
 EDF.M               8.00               :Elevation Derrick Floor               
 EGL.M               3.00               :GROUND ELEVATION                      
~CURVE INFORMATION                                                             
 DEPT.M                                 :Measured Depth                        
 CALI.in                                :CALIPER 
 DRHO.g/cm3                             :BULK DENSITIY CORRECTION 
 EFAC.Adim                              :ELETROFACIES 
 GR.gAPI                                :GAMMA RAY 
 ILD.ohm.m                              :INDUCTION DEEP RESISTIVITY 
 NPHI.%                                 :THERMAL NEUTRON POROSITY (ORIGINAL RATIO METHOD) IN SELECTED LITHOLOGY 
 RHOB.g/cm3                             :BULK DENSITY 
 SN.ohm.m                               :SHORT NORMAL RESISTIVITY 
 SP.mV                                  :SPONTANEOUS POTENTIAL 
 TENS.lbf                               :LINE TENSION 
 VSH.v/v                                :VOLUME DE FOLHELHO 
~ASCII LOG DATA                                                                
# ...
   1384.0000     9.0324     0.0255   -99999.0    90.2890     0.9591    33.5699     2.3100     1.4365    73.6472  1791.9094   -99999.0 
   1384.2000     9.0339     0.0202   -99999.0    88.4669     0.9837    32.8206     2.3072     1.4628    74.6496  1761.6770   -99999.0 
   1384.4000     8.9903     0.0231   -99999.0    89.4164     1.0024    34.2773     2.3020     1.4791    75.8059  1747.1902   -99999.0 
   1384.6000     9.0400     0.0428   -99999.0    92.4102     1.0162    37.6522     2.3007     1.4791    76.4130  1776.0000   -99999.0 
   1384.8000     9.0274     0.0580   -99999.0    94.5100     1.0224    39.7408     2.3006     1.4791    75.1688  1791.1497   -99999.0 
   1385.0000     9.0672     0.0761   -99999.0    98.4968     1.0189    39.3212     2.3133     1.4695    74.8000  1800.0000   -99999.0 
   1385.2000     9.0900     0.1273   -99999.0   102.9327     1.0057    39.0580     2.3358     1.4663    75.0464  1803.8582   -99999.0 
   1385.4000     9.1070     0.1719   -99999.0   103.5022     0.9864    40.5512     2.3330     1.4474    75.0546  1786.0000   -99999.0 
   1385.6000     9.0936     0.1722   -99999.0   102.3194     0.9599    41.2128     2.3111     1.4301    75.2239  1793.9250   -99999.0 
   1385.8000     8.9561     0.1426   -99999.0   100.2406     0.9237    39.5494     2.3048     1.4056    76.0614  1795.9646   -99999.0 
   1386.0000     8.9501     0.1154   -99999.0    96.1821     0.8892    39.1748     2.3075     1.3787    75.8495  1800.0000   -99999.0 
   1386.2000     8.9436     0.0980   -99999.0    91.8020     0.8591    41.1916     2.2972     1.3600    75.7182  1768.1140   -99999.0 
   1386.4000     8.9574     0.0867   -99999.0    86.8713     0.8331    42.0259     2.2761     1.3462    75.1610  1795.0000   -99999.0 
   1386.6000     8.9488     0.0714   -99999.0    83.1597     0.8100    39.9976     2.2581     1.3274    73.8386  1792.7886   -99999.0 
   1386.8000     8.9449     0.0509   -99999.0    80.5154     0.7948    37.7706     2.2467     1.3205    72.4245  1790.0000   -99999.0 
   1387.0000     8.9880     0.0379   -99999.0    76.7527     0.7910    35.8270     2.2397     1.3092    72.0268  1800.0000   -99999.0 
   1387.2000     8.9600     0.0371   -99999.0    75.0413     0.7997    34.3745     2.2341     1.3092    72.4379  1794.6902   -99999.0 
   1387.4000     8.9600     0.0418   -99999.0    77.8823     0.8131    34.9845     2.2296     1.3155    73.1224  1788.7664   -99999.0 
   1387.6000     8.9900     0.0470   -99999.0    82.3118     0.8261    37.8291     2.2330     1.3183    74.4067  1790.2520   -99999.0 
   1387.8000     8.9805     0.0509   -99999.0    86.4386     0.8418    40.5380     2.2503     1.3313    76.4795  1854.0000   -99999.0 
   1388.0000     8.9914     0.0644   -99999.0    91.5401     0.8598    41.5520     2.2772     1.3514    77.6772  1795.5393   -99999.0 
   1388.2000     8.9912     0.0926   -99999.0    95.8287     0.8782    41.4324     2.2906     1.3672    77.0531  1761.0000   -99999.0 
   1388.4000     9.0103     0.1160   -99999.0    96.8266     0.8908    41.9563     2.2734     1.3772    76.0733  1841.5984   -99999.0 
   1388.6000     9.0813     0.1226   -99999.0    97.8222     0.8977    43.6105     2.2560     1.3772    75.7000  1864.0000   -99999.0 
   1388.8000     9.1602     0.1274   -99999.0    99.1779     0.9013    44.4031     2.2600     1.3772    75.0854  1803.4211   -99999.0 
   1389.0000     9.4100     0.1511   -99999.0   100.5664     0.9016    42.6918     2.2696     1.3918    74.1907  1802.4211   -99999.0 
   1389.2000     9.6604     0.1846   -99999.0   102.4539     0.9005    40.3464     2.2595     1.3996    73.3000  1834.0000   -99999.0 
   1389.4000     9.8133     0.2025   -99999.0   103.5260     0.8978    40.3283     2.2355     1.4075    74.0335  1786.7322   -99999.0 
   1389.6000     9.9258     0.1980   -99999.0   102.3963     0.8948    44.7527     2.2258     1.4093    75.2891  1785.9290   -99999.0 
   1389.8000    10.1389     0.1884   -99999.0   101.2198     0.8895    50.3254     2.2350     1.4050    75.6362  1830.2598   -99999.0 
   1390.0000    10.0250     0.1797   -99999.0   104.5831     0.8841    51.7872     2.2408     1.3996    74.5480  1800.0000   -99999.0 
   1390.2000    10.1306     0.1677   -99999.0   111.0350     0.8789    51.2774     2.2329     1.3996    73.9357  1776.0000   -99999.0 
   1390.4000    10.1965     0.1663   -99999.0   112.3597     0.8762    50.8784     2.2380     1.4032    72.5104  1805.3779   -99999.0 
   1390.6000    10.2349     0.1796   -99999.0   110.1976     0.8750    48.6609     2.2638     1.4093    71.5622  1854.0000   -99999.0 
   1390.8000    10.2603     0.1940   -99999.0   110.2025     0.8750    45.3284     2.2740     1.4191    71.7007  1809.9802   -99999.0 
   1391.0000    10.4586     0.1957   -99999.0   112.5705     0.8797    44.4211     2.2429     1.4191    72.3882  1795.0000   -99999.0 
   1391.2000    10.4025     0.1892   -99999.0   114.5390     0.8823    46.9079     2.2136     1.4191    73.1756  1783.1062   -99999.0 
   1391.4000    10.4663     0.1804   -99999.0   115.5692     0.8831    50.4678     2.2052     1.4283    73.9630  1776.0000   -99999.0 
   1391.6000    10.6625     0.1755   -99999.0   113.7733     0.8897    49.2403     2.2005     1.4314    75.3749  1810.0000   -99999.0 
   1391.8000    10.7113     0.1838   -99999.0   111.5622     0.9092    45.0485     2.1943     1.4501    75.3563  1810.0000   -99999.0 
   1392.0000    10.5187     0.2013   -99999.0   113.9260     0.9504    42.5208     2.1860     1.4946    74.6997  1848.5144   -99999.0 
   1392.2000     9.5594     0.2057   -99999.0   116.0185     1.0172    44.0762     2.1502     1.5563    73.0936  1838.4238   -99999.0 
   1392.4000     9.8300     0.1785   -99999.0   114.0500     1.0842    47.6850     2.0910     1.6089    71.9000  1771.0000   -99999.0 
   1392.6000     9.7675     0.1163   -99999.0   115.6558     1.1276    44.6976     2.0716     1.6758    71.1938  1838.4238   -99999.0 
   1392.8000     9.0200     0.0568   -99999.0   120.5504     1.1435    34.8518     2.1588     1.7164    70.3870  1850.3845   -99999.0 
   1393.0000     9.0506     0.0589   -99999.0   116.7468     1.1470    30.1423     2.2862     1.6942    72.5303  1828.9331   -99999.0 
   1393.2000     9.1125     0.0977   -99999.0   109.2285     1.1318    33.9118     2.3295     1.6558    74.7989  1834.0000   -99999.0 
   1393.4000     9.1462     0.1377   -99999.0   106.1692     1.0890    40.3609     2.3147     1.5739    75.8370  1800.0000   -99999.0 
   1393.6000     9.2811     0.1712   -99999.0   105.5504     1.0386    41.9868     2.3100     1.5029    76.3626  1792.8936   -99999.0 
   1393.8000     9.3294     0.1905   -99999.0   104.4764     1.0004    40.6965     2.3093     1.4721    75.8882  1781.0000   -99999.0 
   1394.0000     9.1203     0.1780   -99999.0   101.3037     0.9863    38.8519     2.3030     1.4689    74.2020  1794.9814   -99999.0 
   1394.2000     9.0307     0.1251   -99999.0    98.9067     0.9921    37.1865     2.2989     1.4877    74.7134  1795.0000   -99999.0 
   1394.4000     9.0474     0.0689   -99999.0    99.4480     1.0087    35.9588     2.3142     1.5197    73.4896  1770.6890   -99999.0 
   1394.6000     9.0419     0.0382   -99999.0    99.8064     1.0293    34.7236     2.3332     1.5475    73.3743  1756.0000   -99999.0 
   1394.8000     9.0550     0.0342   -99999.0   100.0457     1.0465    34.0666     2.3323     1.5462    73.8712  1810.0000   -99999.0 
   1395.0000     9.0568     0.0481   -99999.0   103.9415     1.0506    35.3538     2.3339     1.5263    75.5802  1801.5945   -99999.0 
   1395.2000     9.0875     0.0778   -99999.0   109.7144     1.0391    38.0299     2.3510     1.5079    77.1091  1787.1455   -99999.0 
   1395.4000     9.0900     0.1062   -99999.0   111.1189     1.0183    40.4427     2.3604     1.4875    77.5965  1798.5825   -99999.0 
   1395.6000     9.0900     0.1195   -99999.0   107.0602     1.0023    41.8686     2.3555     1.4740    76.7000  1854.0000   -99999.0 
   1395.8000     9.0900     0.1311   -99999.0   103.2377     0.9921    41.3222     2.3530     1.4689    76.2951  1837.8057   -99999.0 
