~VERSION INFORMATION                                                           
 VERS.           2.0: CWLS Log ASCII Standard - Version 2.0                    
 WRAP.            NO: One Line per Depth Step                                  
~WELL INFORMATION                                                              
#MNEM.UNIT              DATA            DESCRIPTION OF MNEMONIC                
#-----------            ----            -----------------------                
 STRT.M             898.09              :Start Depth                           
 STOP.M            1708.40              :Stop  Depth                           
 STEP.M             0.1524              :Step                                  
 NULL.              -99999.0            :Null Value                            
 COMP.     PETROLEO BRASILEIRO S/A      :Company                               
 ORIG.     SIGEO EXPORTACAO PERFIL      :Origem dos dados                      
 WELL.     7-LP-84-ES                   :Well                                  
 FLD.      LAGOA PARDA                  :Field                                 
 STAT.     ESPIRITO SANTO               :State                                 
 API.      342700024200                 :API Code                              
 X.                411577.00            :Surface X                             
 Y.               7831472.80            :Surface Y                             
 HZCS.           UTM                    :Horizontal Coordinate System          
 MC.               39 W                 :Meridiano Central
 LATI.           -19:36:35.478          :Latitude                              
 LONG.           -39:50:35.593          :Longitude                             
 GDAT.           SIRGAS2000             :Geodetic Datum                        
 LMF.            MR                     :Log Measure From                      
 EDF.M               9.00               :Elevation Derrick Floor               
 EGL.M               4.40               :GROUND ELEVATION                      
~CURVE INFORMATION                                                             
 DEPT.M                                 :Measured Depth                        
 CALI.in                                :CALIPER 
 CILD.mS/m                              :CALIBRATED DEEP INDUCTION CONDUCTIVITY 
 DRHO.g/cm3                             :BULK DENSITIY CORRECTION 
 EFAC.Adim                              :ELETROFACIES 
 GR.gAPI                                :GAMMA RAY 
 ILD.ohm.m                              :INDUCTION DEEP RESISTIVITY 
 NPHI.%                                 :THERMAL NEUTRON POROSITY (ORIGINAL RATIO METHOD) IN SELECTED LITHOLOGY 
 NPOR.%                                 :NEUTRON POROSITY (ENVIRONMENTALLY CORRECTED AND ALPHA PROCESSED) 
 RHOB.g/cm3                             :BULK DENSITY 
 SFLU.ohm.m                             :SFL RESISTIVITY UNAVERAGED 
 SP.mV                                  :SPONTANEOUS POTENTIAL 
 TENS.lbf                               :LINE TENSION 
 VSH.v/v                                :VOLUME DE FOLHELHO 
~ASCII LOG DATA                                                                
# ...
   1527.6567     9.0254   803.8901     0.0189     4.0000   120.5469     1.2441    40.0665    42.2760     2.0839     1.5736   -20.9961  1903.7500     0.9909 
   1527.8091     9.5757   787.7429     0.0713     3.9558   123.0156     1.2710    36.8561    38.3606     2.0952     1.5868   -21.6562  1912.5000     0.9988 
   1527.9615     9.1777   768.5579     0.0820     3.1938   131.0781     1.3012    35.6476    33.6945     2.2191     1.5759   -21.6406  1916.2500     0.9785 
   1528.1139     9.2054   750.2471     0.0255     3.0000   136.0938     1.3300    37.4298    36.5173     2.1927     1.6329   -21.4062  1910.0000     0.9779 
   1528.2663     9.3368   739.0806     0.1034     3.3302   132.9531     1.3497    38.7966    40.8585     2.2288     1.6725   -21.4766  1906.2500     0.9876 
   1528.4187     9.4767   735.4082     0.0747     4.0000   125.8125     1.3621    38.7627    38.9297     2.1458     1.6100   -21.4141  1912.5000     0.9982 
   1528.5711     9.5493   726.8191     0.0053     4.0000   119.9688     1.3711    37.8510    37.3917     2.0384     1.5327   -20.9766  1917.5000     0.9834 
   1528.7235     9.3069   728.4563     0.0280     4.0000   119.0312     1.3672    36.6035    38.0846     2.0613     1.5921   -20.9453  1915.0000     0.9925 
   1528.8759     9.0737   742.2629     0.0879     4.0000   123.0781     1.3492    37.1796    37.9578     2.1699     1.7342   -21.2031  1908.7500     0.9899 
   1529.0283     9.3027   752.1262     0.0108     4.0000   127.9062     1.3355    40.5563    39.9048     1.9443     1.7799   -21.3672  1900.0000     0.9724 
   1529.1807    10.1633   748.7197     0.0197     4.0000   129.8750     1.3344    41.6504    46.6873     1.7626     1.7196   -21.6406  1897.5000     0.9674 
   1529.3331    10.1113   748.0332     0.0107     4.0000   129.1094     1.3330    39.5355    44.0857     1.8328     1.5842   -21.8203  1901.2500     0.9659 
   1529.4855     9.7056   755.9109     0.0454     4.0000   128.3750     1.3221    37.2112    40.0696     1.8831     1.4806   -21.6094  1900.0000     0.9696 
   1529.6379    10.3447   765.7544     0.0092     4.0000   128.4844     1.3014    37.2566    37.3301     1.8693     1.4803   -21.1172  1902.5000     0.9762 
   1529.7903    10.4092   786.9270     0.0394     4.0000   127.7344     1.2683    38.5406    38.1500     2.0254     1.5257   -20.9531  1913.7500     0.9803 
   1529.9427     9.7956   815.7031     0.1236     4.0000   125.8438     1.2299    38.9282    39.7919     2.1393     1.5651   -21.2578  1923.7500     0.9751 
   1530.0951     9.7847   835.3625     0.1028     4.0000   123.4844     1.1983    37.4496    38.5036     2.1281     1.5561   -21.5195  1925.0000     0.9858 
   1530.2475     9.8127   852.5757     0.0750     4.0000   121.6406     1.1764    38.3972    39.1113     2.1322     1.4944   -21.6289  1913.7500     1.0000 
   1530.3999    10.2078   860.1680     0.0754     4.0000   121.1875     1.1607    39.4676    41.2071     2.0704     1.3944   -21.6250  1902.5000     1.0000 
   1530.5523    10.1758   873.4780     0.0668     4.0000   120.4219     1.1471    39.7942    40.2939     2.0953     1.3018   -21.5156  1907.5000     1.0000 
   1530.7047     9.5804   880.0466     0.0262     4.0000   117.4219     1.1344    38.8046    39.1403     2.1528     1.2736   -21.5312  1918.7500     1.0000 
   1530.8571     9.5887   892.6299    -0.0215     4.0000   113.1406     1.1224    38.0936    39.6225     2.0439     1.3070   -22.3047  1918.7500     0.9774 
   1531.0095     9.5680   898.5645    -0.0113     4.0000   111.2500     1.1167    40.3656    41.9464     1.9254     1.3508   -24.0625  1913.7500     0.9205 
   1531.1619     9.8081   892.2517     0.0057     4.0000   113.6094     1.1239    42.8055    44.4954     1.8557     1.3595   -25.7344  1913.7500     0.9239 
   1531.3143    10.1893   876.3535     0.0000     4.0000   116.5312     1.1385    42.3065    43.0405     1.8055     1.3514   -26.3359  1918.7500     0.9137 
   1531.4667    10.1006   868.6462    -0.0118     4.0000   116.6719     1.1494    40.6006    41.4137     1.8087     1.3822   -26.4922  1925.0000     0.9061 
   1531.6191     9.9395   866.3523    -0.0191     4.0000   115.5469     1.1538    43.2495    43.7378     1.8136     1.4368   -27.5547  1923.7500     0.9073 
   1531.7715    10.4946   865.3892    -0.0073     4.0000   115.7812     1.1537    44.9330    49.0356     1.8118     1.4661   -29.2422  1913.7500     0.9045 
   1531.9239    10.9736   869.9165    -0.0144     4.0000   117.4531     1.1474    45.3865    49.6368     1.9845     1.4327   -29.4727  1902.5000     0.9484 
   1532.0763    11.1876   880.9993    -0.0055     4.0000   117.7812     1.1356    45.8244    47.6395     2.0509     1.3748   -27.9258  1906.2500     0.9730 
   1532.2287    11.2273   890.6006     0.0237     4.0000   115.7812     1.1173    44.5602    46.9177     2.1030     1.3247   -26.5781  1917.5000     0.9648 
   1532.3811    11.2271   918.8381     0.0352     4.0000   113.6719     1.0904    44.7662    47.3557     2.0352     1.2742   -26.3750  1911.2500     0.9459 
   1532.5335    10.8665   941.6831     0.0544     4.0000   112.3906     1.0637    48.3719    49.9939     1.9968     1.2233   -26.5156  1903.7500     0.9671 
   1532.6859    11.0713   959.0903     0.0792     4.0000   110.9219     1.0437    48.7305    53.4637     1.9958     1.1667   -26.1953  1911.2500     0.9808 
   1532.8383    11.0400   972.9963     0.0726     4.0000   108.5000     1.0290    47.6822    52.8809     1.9955     1.1390   -25.2969  1918.7500     0.9865 
   1532.9907    11.0625   982.6616     0.0706     4.0000   107.6719     1.0194    49.2142    50.1938     1.9653     1.1355   -24.2461  1916.2500     0.9992 
   1533.1431    12.1787   985.5342     0.0107     4.0000   111.7344     1.0146    49.8847    51.7975     1.8634     1.1371   -23.8477  1910.0000     1.0000 
   1533.2955    12.2715   988.8413     0.0016     4.0000   118.3438     1.0103    47.7356    51.5503     1.9289     1.1359   -23.6328  1906.2500     1.0000 
   1533.4479    11.1318   995.9644     0.0599     4.0000   122.7344     1.0048    43.5089    47.8760     2.0527     1.1287   -22.9492  1907.5000     1.0000 
   1533.6003    10.8379  1000.1741     0.0721     4.0000   123.0469     1.0009    42.8192    44.5778     2.1274     1.1484   -22.5195  1911.2500     1.0000 
   1533.7527    11.8037   999.9575     0.0310     4.0000   120.8438     1.0009    44.2253    48.6206     2.0569     1.1903   -22.8047  1913.7500     1.0000 
   1533.9051    11.7134   996.2205     0.0834     4.0000   118.1562     1.0051    44.8580    51.5259     2.0356     1.2166   -23.5273  1916.2500     0.9860 
   1534.0575    11.7969   987.5388     0.0441     4.0000   114.2500     1.0130    45.1691    46.9299     1.9160     1.2090   -24.0586  1918.7500     0.9717 
   1534.2099    12.7710   977.7292    -0.0218     4.0000   108.7656     1.0215    44.8715    46.3684     1.7551     1.1843   -24.2031  1925.0000     0.9677 
   1534.3623    12.7217   972.8611    -0.0369     4.0000   106.0000     1.0264    44.4778    47.9904     1.7242     1.1681   -23.9805  1930.0000     0.9688 
   1534.5147    12.0947   973.7195    -0.0199     4.0000   107.5000     1.0278    45.0829    46.7407     1.9602     1.1610   -23.4258  1923.7500     0.9742 
   1534.6671    11.7644   971.3435     0.0342     4.0000   109.6406     1.0307    44.4534    46.5912     2.1242     1.1689   -23.0156  1913.7500     0.9715 
   1534.8195    11.6982   964.6396     0.0428     4.0000   110.9062     1.0381    42.0685    45.2942     2.0276     1.1865   -22.8242  1908.7500     0.9584 
   1534.9719    11.9089   952.8179     0.0063     4.0000   112.1562     1.0511    39.4630    41.6107     1.9434     1.1987   -22.3086  1910.0000     0.9572 
   1535.1243    11.9729   935.7170     0.0161     4.0000   116.6094     1.0686    40.3076    38.8855     2.0718     1.2073   -21.4492  1911.2500     0.9698 
   1535.2767    11.1455   919.5630     0.0131     4.0000   122.0156     1.0832    42.3859    39.8712     2.1295     1.2298   -20.7695  1906.2500     0.9839 
