~VERSION INFORMATION                                                           
 VERS.           2.0: CWLS Log ASCII Standard - Version 2.0                    
 WRAP.            NO: One Line per Depth Step                                  
~WELL INFORMATION                                                              
#MNEM.UNIT              DATA            DESCRIPTION OF MNEMONIC                
#-----------            ----            -----------------------                
 STRT.M             789.58              :Start Depth                           
 STOP.M            1481.02              :Stop  Depth                           
 STEP.M             0.1524              :Step                                  
 NULL.              -99999.0            :Null Value                            
 COMP.     PETROLEO BRASILEIRO S/A      :Company                               
 ORIG.     SIGEO EXPORTACAO PERFIL      :Origem dos dados                      
 WELL.     7-LP-88-ES                   :Well                                  
 FLD.      LAGOA PARDA                  :Field                                 
 STAT.     ESPIRITO SANTO               :State                                 
 API.      342700034000                 :API Code                              
 X.                410166.50            :Surface X                             
 Y.               7830454.00            :Surface Y                             
 HZCS.           UTM                    :Horizontal Coordinate System          
 MC.               39 W                 :Meridiano Central
 LATI.           -19:37:08.391          :Latitude                              
 LONG.           -39:51:24.187          :Longitude                             
 GDAT.           SIRGAS2000             :Geodetic Datum                        
 LMF.            MR                     :Log Measure From                      
 EDF.M              10.00               :Elevation Derrick Floor               
 EGL.M               4.80               :GROUND ELEVATION                      
~CURVE INFORMATION                                                             
 DEPT.M                                 :Measured Depth                        
 CALI.in                                :CALIPER 
 CALI.in                                :CALIPER 
 CILD.mS/m                              :CALIBRATED DEEP INDUCTION CONDUCTIVITY 
 DRHO.g/cm3                             :BULK DENSITIY CORRECTION 
 DRHO.g/cm3                             :BULK DENSITIY CORRECTION 
 GR.gAPI                                :GAMMA RAY 
 ILD.ohm.m                              :INDUCTION DEEP RESISTIVITY 
 NPHI.%                                 :THERMAL NEUTRON POROSITY (ORIGINAL RATIO METHOD) IN SELECTED LITHOLOGY 
 NPHI.%                                 :THERMAL NEUTRON POROSITY (ORIGINAL RATIO METHOD) IN SELECTED LITHOLOGY 
 NPOR.%                                 :NEUTRON POROSITY (ENVIRONMENTALLY CORRECTED AND ALPHA PROCESSED) 
 NPOR.%                                 :NEUTRON POROSITY (ENVIRONMENTALLY CORRECTED AND ALPHA PROCESSED) 
 PEF.Adim                               :PHOTOELETRIC FACTOR 
 PEF.Adim                               :PHOTOELETRIC FACTOR 
 RHOB.g/cm3                             :BULK DENSITY 
 RHOB.g/cm3                             :BULK DENSITY 
 RSFL.uohm                              :Raw SFL Conductivity 
 SFLU.ohm.m                             :SFL RESISTIVITY UNAVERAGED 
 SP.mV                                  :SPONTANEOUS POTENTIAL 
 TENS.lbf                               :LINE TENSION 
~ASCII LOG DATA                                                                
# ...
    981.6083     9.1122   -99999.0  1203.1309     0.0045   -99999.0   105.3125     0.8312    50.2641   -99999.0    55.8717   -99999.0     3.3802   -99999.0     2.0742   -99999.0  1067.8047     0.9326  -124.4067  1855.0000 
    981.7607     9.1194   -99999.0  1197.7583     0.0124   -99999.0   110.9375     0.8349    50.9447   -99999.0    56.0235   -99999.0     3.2630   -99999.0     2.0792   -99999.0  1049.9977     0.9484  -123.8029  1805.0000 
    981.9131     9.2180   -99999.0  1197.6852     0.0096   -99999.0   109.8750     0.8349    49.9686   -99999.0    68.8320   -99999.0     3.4313   -99999.0     2.1110   -99999.0  1035.7917     0.9614  -123.7500  1815.0000 
    982.0655     9.2602   -99999.0  1200.3591    -0.0032   -99999.0   112.9375     0.8331    49.6441   -99999.0    41.9692   -99999.0     3.2810   -99999.0     2.0900   -99999.0  1018.9520     0.9773  -123.9788  1830.0000 
    982.2179     9.0646   -99999.0  1205.6522     0.0057   -99999.0   107.5625     0.8294    47.4927   -99999.0    57.3012   -99999.0     3.4985   -99999.0     2.0883   -99999.0  1048.2263     0.9501  -123.5424  1815.0000 
    982.3703     9.0954   -99999.0  1212.5057     0.0113   -99999.0   110.3750     0.8247    47.6990   -99999.0    52.4532   -99999.0     3.2983   -99999.0     2.0847   -99999.0  1056.3031     0.9427  -123.6144  1815.0000 
    982.5227     9.0955   -99999.0  1221.1244     0.0107   -99999.0   108.2500     0.8189    48.9035   -99999.0    49.1414   -99999.0     3.3375   -99999.0     2.1033   -99999.0  1068.5526     0.9319  -122.7098  1790.0000 
    982.6751     9.0373   -99999.0  1231.3798     0.0112   -99999.0   113.3750     0.8121    49.3145   -99999.0    47.4100   -99999.0     3.1723   -99999.0     2.1044   -99999.0  1073.2394     0.9279  -122.5106  1810.0000 
    982.8275     9.0230   -99999.0  1238.7582     0.0136   -99999.0   115.3750     0.8073    50.9324   -99999.0    45.6737   -99999.0     3.4555   -99999.0     2.1125   -99999.0  1088.2850     0.9150  -122.5000  1820.0000 
    982.9799     8.7860   -99999.0  1240.1484    -0.0058   -99999.0   115.1250     0.8064    51.4394   -99999.0    60.4442   -99999.0     3.5298   -99999.0     2.0920   -99999.0  1116.6172     0.8919  -122.0423  1810.0000 
    983.1323     8.8203   -99999.0  1242.3514    -0.0024   -99999.0   116.3125     0.8049    52.5386   -99999.0    61.0585   -99999.0     3.3662   -99999.0     2.0853   -99999.0  1125.4825     0.8848  -122.5722  1820.0000 
    983.2847     8.8203   -99999.0  1239.4448    -0.0056   -99999.0   113.3125     0.8068    51.7600   -99999.0    62.1718   -99999.0     3.4485   -99999.0     2.0746   -99999.0  1118.2246     0.8905  -122.7394  1835.0000 
    983.4371     8.8203   -99999.0  1237.8208    -0.0025   -99999.0   114.1875     0.8079    51.8537   -99999.0    49.0349   -99999.0     3.0820   -99999.0     2.0899   -99999.0  1077.6145     0.9242  -121.8346  1820.0000 
    983.5895     9.0536   -99999.0  1234.2351     0.0055   -99999.0   112.1250     0.8102    50.4835   -99999.0    58.8803   -99999.0     3.1029   -99999.0     2.1111   -99999.0  1054.9672     0.9440  -121.8644  1825.0000 
    983.7419     8.8960   -99999.0  1223.6136    -0.0009   -99999.0   114.1875     0.8173    50.6857   -99999.0    56.7728   -99999.0     3.2301   -99999.0     2.0908   -99999.0  1063.6750     0.9362  -122.2183  1800.0000 
    983.8943     8.8148   -99999.0  1211.8555     0.0144   -99999.0   112.6250     0.8252    50.1800   -99999.0    66.8300   -99999.0     3.3510   -99999.0     2.1132   -99999.0  1072.4882     0.9285  -121.9068  1895.0000 
    984.0467     8.7668   -99999.0  1207.7244     0.0040   -99999.0   110.5000     0.8280    49.1723   -99999.0    48.2104   -99999.0     3.2873   -99999.0     2.1222   -99999.0  1080.4056     0.9217  -122.1038  1835.0000 
    984.1991     8.7500   -99999.0  1208.0964    -0.0003   -99999.0   108.5000     0.8277    48.7189   -99999.0    52.0341   -99999.0     3.3490   -99999.0     2.0932   -99999.0  1034.9822     0.9623  -122.2394  1845.0000 
    984.3515     8.7812   -99999.0  1209.0011     0.0256   -99999.0   112.0625     0.8271    48.7222   -99999.0    52.2079   -99999.0     3.3924   -99999.0     2.1447   -99999.0  1025.8092     0.9708  -122.5933  1840.0000 
    984.5039     8.7212   -99999.0  1206.0096     0.0066   -99999.0   113.3750     0.8292    48.7463   -99999.0    52.2530   -99999.0     3.2487   -99999.0     2.1215   -99999.0  1015.2242     0.9809  -122.1674  1810.0000 
    984.6563     8.8018   -99999.0  1201.3369     0.0084   -99999.0   114.2500     0.8324    48.7270   -99999.0    52.1924   -99999.0     3.5172   -99999.0     2.1316   -99999.0  1054.6661     0.9443  -121.7817  1820.0000 
    984.8087     8.6641   -99999.0  1200.6315     0.0078   -99999.0   112.6250     0.8329    48.6900   -99999.0    52.2901   -99999.0     3.2311   -99999.0     2.1327   -99999.0  1063.4608     0.9364  -121.5211  1855.0000 
    984.9611     8.8257   -99999.0  1208.3022     0.0115   -99999.0   113.2500     0.8276    48.6431   -99999.0    52.1744   -99999.0     3.0398   -99999.0     2.1353   -99999.0  1055.4274     0.9435  -121.1567  1835.0000 
    985.1135     8.9271   -99999.0  1219.2698     0.0013   -99999.0   111.5000     0.8202    48.6146   -99999.0    52.0982   -99999.0     3.6830   -99999.0     2.1287   -99999.0  1043.5264     0.9543  -121.3539  1810.0000 
    985.2659     8.9062   -99999.0  1228.4491     0.0004   -99999.0   109.9375     0.8140    48.5431   -99999.0    52.1139   -99999.0     3.2432   -99999.0     2.1352   -99999.0  1025.4991     0.9711  -121.0317  1810.0000 
    985.4183     8.9141   -99999.0  1231.0289     0.0164   -99999.0   106.5000     0.8123    48.4832   -99999.0    52.1080   -99999.0     3.3716   -99999.0     2.1583   -99999.0  1018.0438     0.9782  -120.1990  1785.0000 
    985.5707     8.9536   -99999.0  1228.0447     0.0075   -99999.0   107.7500     0.8143    48.4339   -99999.0    52.0782   -99999.0     3.0099   -99999.0     2.1674   -99999.0  1059.6716     0.9399  -120.3538  1800.0000 
    985.7231     9.0620   -99999.0  1226.1786     0.0041   -99999.0   111.3125     0.8155    48.3423   -99999.0    51.9967   -99999.0     3.7339   -99999.0     2.1985   -99999.0  1097.2422     0.9076  -119.6885  1820.0000 
    985.8755     9.1215   -99999.0  1230.8807     0.0266   -99999.0   118.1250     0.8124    48.3081   -99999.0    51.9520   -99999.0     3.6126   -99999.0     2.2144   -99999.0  1095.2902     0.9092  -120.0826  1830.0000 
    986.0279     9.2671   -99999.0  1239.2854     0.0325   -99999.0   119.6875     0.8069    48.3613   -99999.0    51.8425   -99999.0     3.4403   -99999.0     2.1607   -99999.0  1055.1055     0.9439  -120.4682  1810.0000 
    986.1803     9.0490   -99999.0  1249.2201     0.0279   -99999.0   114.2500     0.8005    48.4226   -99999.0    52.0065   -99999.0     3.1144   -99999.0     2.1598   -99999.0  1039.4977     0.9580  -120.0424  1845.0000 
    986.3327     8.7440   -99999.0  1254.0421     0.0053   -99999.0   113.3750     0.7974    48.5164   -99999.0    52.2359   -99999.0     3.2014   -99999.0     2.1323   -99999.0  1049.3467     0.9490  -119.5422  1825.0000 
    986.4851     8.8203   -99999.0  1256.0583     0.0283   -99999.0   109.2500     0.7961    48.6655   -99999.0    52.1785   -99999.0     3.2851   -99999.0     2.1642   -99999.0  1068.0072     0.9324  -119.2712  1820.0000 
    986.6375     8.7516   -99999.0  1256.5167     0.0127   -99999.0   111.9375     0.7959    48.7889   -99999.0    52.2302   -99999.0     3.3113   -99999.0     2.1518   -99999.0  1070.9506     0.9298  -119.7077  1855.0000 
    986.7899     8.6719   -99999.0  1256.5449     0.0050   -99999.0   106.6875     0.7958    48.8247   -99999.0    52.2842   -99999.0     3.3156   -99999.0     2.1302   -99999.0  1098.0458     0.9070  -119.5211  1835.0000 
    986.9423     8.5547   -99999.0  1259.7880     0.0080   -99999.0   111.5625     0.7938    48.7215   -99999.0    52.3723   -99999.0     3.4684   -99999.0     2.1462   -99999.0  1136.9908     0.8759  -119.5000  1850.0000 
