~VERSION INFORMATION                                                           
 VERS.           2.0: CWLS Log ASCII Standard - Version 2.0                    
 WRAP.            NO: One Line per Depth Step                                  
~WELL INFORMATION                                                              
#MNEM.UNIT              DATA            DESCRIPTION OF MNEMONIC                
#-----------            ----            -----------------------                
 STRT.M             789.58              :Start Depth                           
 STOP.M            1481.02              :Stop  Depth                           
 STEP.M             0.1524              :Step                                  
 NULL.              -99999.0            :Null Value                            
 COMP.     PETROLEO BRASILEIRO S/A      :Company                               
 ORIG.     SIGEO EXPORTACAO PERFIL      :Origem dos dados                      
 WELL.     7-LP-88-ES                   :Well                                  
 FLD.      LAGOA PARDA                  :Field                                 
 STAT.     ESPIRITO SANTO               :State                                 
 API.      342700034000                 :API Code                              
 X.                410166.50            :Surface X                             
 Y.               7830454.00            :Surface Y                             
 HZCS.           UTM                    :Horizontal Coordinate System          
 MC.               39 W                 :Meridiano Central
 LATI.           -19:37:08.391          :Latitude                              
 LONG.           -39:51:24.187          :Longitude                             
 GDAT.           SIRGAS2000             :Geodetic Datum                        
 LMF.            MR                     :Log Measure From                      
 EDF.M              10.00               :Elevation Derrick Floor               
 EGL.M               4.80               :GROUND ELEVATION                      
~CURVE INFORMATION                                                             
 DEPT.M                                 :Measured Depth                        
 CALI.in                                :CALIPER 
 CALI.in                                :CALIPER 
 CILD.mS/m                              :CALIBRATED DEEP INDUCTION CONDUCTIVITY 
 DRHO.g/cm3                             :BULK DENSITIY CORRECTION 
 DRHO.g/cm3                             :BULK DENSITIY CORRECTION 
 GR.gAPI                                :GAMMA RAY 
 ILD.ohm.m                              :INDUCTION DEEP RESISTIVITY 
 NPHI.%                                 :THERMAL NEUTRON POROSITY (ORIGINAL RATIO METHOD) IN SELECTED LITHOLOGY 
 NPHI.%                                 :THERMAL NEUTRON POROSITY (ORIGINAL RATIO METHOD) IN SELECTED LITHOLOGY 
 NPOR.%                                 :NEUTRON POROSITY (ENVIRONMENTALLY CORRECTED AND ALPHA PROCESSED) 
 NPOR.%                                 :NEUTRON POROSITY (ENVIRONMENTALLY CORRECTED AND ALPHA PROCESSED) 
 PEF.Adim                               :PHOTOELETRIC FACTOR 
 PEF.Adim                               :PHOTOELETRIC FACTOR 
 RHOB.g/cm3                             :BULK DENSITY 
 RHOB.g/cm3                             :BULK DENSITY 
 RSFL.uohm                              :Raw SFL Conductivity 
 SFLU.ohm.m                             :SFL RESISTIVITY UNAVERAGED 
 SP.mV                                  :SPONTANEOUS POTENTIAL 
 TENS.lbf                               :LINE TENSION 
~ASCII LOG DATA                                                                
# ...
    860.9076     9.5273   -99999.0  1009.8633     0.0094   -99999.0   105.6250     0.9905    45.6733   -99999.0    47.0254   -99999.0     3.4157   -99999.0     2.1267   -99999.0   891.2355     1.1178  -135.3539  1715.0000 
    861.0600     9.3203   -99999.0   970.1003     0.0018   -99999.0   107.3750     1.0309    43.9257   -99999.0    49.9844   -99999.0     3.2295   -99999.0     2.0999   -99999.0   945.2054     1.0538  -135.1461  1660.0000 
    861.2124     9.2695   -99999.0   947.9412     0.0408   -99999.0   106.5625     1.0550    43.4429   -99999.0    46.2606   -99999.0     3.4185   -99999.0     2.1457   -99999.0   953.2402     1.0446  -134.5527  1640.0000 
    861.3648     9.3398   -99999.0   938.3860     0.0703   -99999.0   106.0000     1.0657    42.6131   -99999.0    45.0877   -99999.0     3.4898   -99999.0     2.2198   -99999.0   874.2647     1.1398  -134.8434  1670.0000 
    861.5172     9.4105   -99999.0   946.2438     0.0104   -99999.0   107.3750     1.0568    42.5662   -99999.0    41.9729   -99999.0     3.2305   -99999.0     2.1711   -99999.0   840.8021     1.1844  -135.7907  1640.0000 
    861.6696     9.3399   -99999.0   958.4584     0.0408   -99999.0   108.1250     1.0434    42.3295   -99999.0    40.8577   -99999.0     3.3743   -99999.0     2.1986   -99999.0   869.1320     1.1458  -136.4473  1680.0000 
    861.8220     9.3281   -99999.0   993.5895     0.0694   -99999.0   106.2500     1.0066    43.5753   -99999.0    45.0765   -99999.0     3.3278   -99999.0     2.2058   -99999.0   895.3448     1.1122  -138.1023  1685.0000 
    861.9744     9.3478   -99999.0  1044.6632     0.0324   -99999.0   106.1875     0.9574    43.4565   -99999.0    46.1717   -99999.0     3.3097   -99999.0     2.1708   -99999.0   907.9678     1.0967  -139.5094  1665.0000 
    862.1268     9.3624   -99999.0  1121.5972     0.0316   -99999.0   109.3125     0.8919    42.9133   -99999.0    43.4530   -99999.0     3.1515   -99999.0     2.2223   -99999.0   823.8764     1.2097  -144.2047  1670.0000 
    862.2792     9.4178   -99999.0  1149.9891     0.0011   -99999.0   107.0625     0.8696    40.9720   -99999.0    44.2665   -99999.0     3.4410   -99999.0     2.1849   -99999.0   831.1185     1.1981  -151.2654  1730.0000 
    862.4316     9.4149   -99999.0  1133.3611     0.0087   -99999.0   101.3125     0.8824    40.4041   -99999.0    39.8968   -99999.0     3.1499   -99999.0     2.1787   -99999.0   863.9015     1.1528  -158.4007  1645.0000 
    862.5840     9.1160   -99999.0  1125.6077    -0.0023   -99999.0   100.4375     0.8884    41.8746   -99999.0    38.0536   -99999.0     3.0499   -99999.0     2.1166   -99999.0  1060.0952     0.9428  -156.8249  1670.0000 
    862.7364     9.0234   -99999.0  1139.0356    -0.0106   -99999.0   104.0625     0.8779    41.9414   -99999.0    42.0359   -99999.0     2.3973   -99999.0     2.0522   -99999.0  1194.2966     0.8346  -146.3221  1630.0000 
    862.8888     9.1941   -99999.0  1194.5060     0.0357   -99999.0   110.0625     0.8373    42.2599   -99999.0    44.1856   -99999.0     2.6149   -99999.0     2.1373   -99999.0  1141.2218     0.8728  -141.9408  1650.0000 
    863.0412     9.1064   -99999.0  1265.2281    -0.0005   -99999.0   109.4375     0.7906    41.8300   -99999.0    45.8934   -99999.0     3.3567   -99999.0     2.1069   -99999.0   967.4142     1.0318  -145.5170  1650.0000 
    863.1936     9.1129   -99999.0  1342.9500     0.0145   -99999.0   110.6250     0.7448    40.9304   -99999.0    37.6997   -99999.0     3.7542   -99999.0     2.2000   -99999.0   875.9265     1.1376  -151.3693  1740.0000 
    863.3460     9.1762   -99999.0  1437.2827     0.0028   -99999.0   107.3125     0.6960    38.0515   -99999.0    35.9651   -99999.0     3.3708   -99999.0     2.2025   -99999.0   817.5844     1.2183  -160.5741  1660.0000 
    863.4984     8.9801   -99999.0  1524.0140    -0.0050   -99999.0    99.2500     0.6563    37.0982   -99999.0    32.5496   -99999.0     3.1218   -99999.0     2.1652   -99999.0   869.2681     1.1460  -168.5858  1775.0000 
    863.6508     8.7700   -99999.0  1653.9657     0.0012   -99999.0    88.6875     0.6049    37.2223   -99999.0    36.2341   -99999.0     3.1110   -99999.0     2.1163   -99999.0   966.1903     1.0316  -171.9969  1690.0000 
    863.8032     8.7526   -99999.0  1780.0273    -0.0116   -99999.0    78.1875     0.5620    37.7631   -99999.0    39.4255   -99999.0     2.3160   -99999.0     2.0412   -99999.0  1119.1758     0.8913  -174.9968  1700.0000 
    863.9556     8.7778   -99999.0  1868.2048     0.0451   -99999.0    74.4375     0.5354    37.0236   -99999.0    35.7206   -99999.0     2.5399   -99999.0     2.0989   -99999.0  1055.3000     0.9441  -177.3108  1655.0000 
    864.1080     8.8081   -99999.0  1898.5620     0.0014   -99999.0    71.3750     0.5267    36.3340   -99999.0    39.8934   -99999.0     2.4856   -99999.0     2.0262   -99999.0  1033.9845     0.9631  -177.3855  1715.0000 
    864.2604     8.7388   -99999.0  1858.2998     0.0334   -99999.0    74.3750     0.5382    36.3912   -99999.0    38.4337   -99999.0     2.3722   -99999.0     2.0792   -99999.0  1096.7914     0.9082  -176.1156  1660.0000 
    864.4128     8.6183   -99999.0  1816.1096    -0.0199   -99999.0    81.1250     0.5506    36.2690   -99999.0    31.3955   -99999.0     2.2840   -99999.0     2.0181   -99999.0  1253.9601     0.7953  -170.2758  1740.0000 
    864.5652     8.6060   -99999.0  1825.1899    -0.0055   -99999.0    91.1875     0.5479    36.7037   -99999.0    34.9744   -99999.0     2.2008   -99999.0     2.0605   -99999.0  1450.3699     0.6878  -160.1337  1675.0000 
    864.7176     8.6349   -99999.0  1870.0350     0.0375   -99999.0    95.4375     0.5348    36.3894   -99999.0    38.1432   -99999.0     2.3872   -99999.0     2.2026   -99999.0  1082.5050     0.9281  -159.5934  1680.0000 
    864.8700     8.6139   -99999.0  1896.3922     0.0042   -99999.0    89.0000     0.5273    36.2532   -99999.0    37.3729   -99999.0     3.1314   -99999.0     2.2346   -99999.0   702.0930     1.4403  -165.6920  1685.0000 
    865.0224     8.5234   -99999.0  1893.3076     0.0025   -99999.0    81.3125     0.5282    36.2721   -99999.0    41.5208   -99999.0     3.0243   -99999.0     2.1691   -99999.0   637.9791     1.5611  -171.0576  1650.0000 
    865.1748     8.5234   -99999.0  1859.7532    -0.0109   -99999.0    76.3125     0.5377    34.5255   -99999.0    33.6538   -99999.0     2.4924   -99999.0     2.0847   -99999.0   830.2419     1.2072  -173.4459  1635.0000 
    865.3272     8.5234   -99999.0  1838.7283    -0.0116   -99999.0    80.3750     0.5439    33.5493   -99999.0    32.3513   -99999.0     2.1898   -99999.0     2.0660   -99999.0  1183.4170     0.8499  -174.6551  1685.0000 
    865.4796     8.5344   -99999.0  1832.6647    -0.0123   -99999.0    81.1250     0.5457    34.2982   -99999.0    32.6267   -99999.0     2.2767   -99999.0     2.0405   -99999.0  1326.7789     0.7511  -173.8344  1645.0000 
    865.6320     8.5469   -99999.0  1791.7648    -0.0091   -99999.0    85.3125     0.5581    35.1208   -99999.0    33.3920   -99999.0     2.4047   -99999.0     2.0506   -99999.0  1327.0056     0.7504  -169.9731  1655.0000 
    865.7844     8.5656   -99999.0  1725.6510    -0.0188   -99999.0    91.8125     0.5796    36.6798   -99999.0    36.4939   -99999.0     2.5387   -99999.0     2.0106   -99999.0  1372.8312     0.7255  -159.5536  1655.0000 
    865.9368     8.5687   -99999.0  1596.2426     0.0037   -99999.0   102.1875     0.6268    39.0073   -99999.0    40.6848   -99999.0     2.3809   -99999.0     2.0508   -99999.0  1472.6594     0.6765  -144.1993  1655.0000 
    866.0892     8.8806   -99999.0  1456.7688     0.0077   -99999.0   111.3750     0.6869    40.5187   -99999.0    42.3476   -99999.0     2.7669   -99999.0     2.1282   -99999.0  1185.3907     0.8440  -140.2417  1665.0000 
    866.2416     9.0343   -99999.0  1315.0491     0.0073   -99999.0   111.8750     0.7611    42.9268   -99999.0    44.0568   -99999.0     3.6795   -99999.0     2.1298   -99999.0   984.8500     1.0136  -139.1986  1690.0000 
