~VERSION INFORMATION                                                           
 VERS.           2.0: CWLS Log ASCII Standard - Version 2.0                    
 WRAP.            NO: One Line per Depth Step                                  
~WELL INFORMATION                                                              
#MNEM.UNIT              DATA            DESCRIPTION OF MNEMONIC                
#-----------            ----            -----------------------                
 STRT.M             898.09              :Start Depth                           
 STOP.M            1708.40              :Stop  Depth                           
 STEP.M             0.1524              :Step                                  
 NULL.              -99999.0            :Null Value                            
 COMP.     PETROLEO BRASILEIRO S/A      :Company                               
 ORIG.     SIGEO EXPORTACAO PERFIL      :Origem dos dados                      
 WELL.     7-LP-84-ES                   :Well                                  
 FLD.      LAGOA PARDA                  :Field                                 
 STAT.     ESPIRITO SANTO               :State                                 
 API.      342700024200                 :API Code                              
 X.                411577.00            :Surface X                             
 Y.               7831472.80            :Surface Y                             
 HZCS.           UTM                    :Horizontal Coordinate System          
 MC.               39 W                 :Meridiano Central
 LATI.           -19:36:35.478          :Latitude                              
 LONG.           -39:50:35.593          :Longitude                             
 GDAT.           SIRGAS2000             :Geodetic Datum                        
 LMF.            MR                     :Log Measure From                      
 EDF.M               9.00               :Elevation Derrick Floor               
 EGL.M               4.40               :GROUND ELEVATION                      
~CURVE INFORMATION                                                             
 DEPT.M                                 :Measured Depth                        
 CALI.in                                :CALIPER 
 CILD.mS/m                              :CALIBRATED DEEP INDUCTION CONDUCTIVITY 
 DRHO.g/cm3                             :BULK DENSITIY CORRECTION 
 EFAC.Adim                              :ELETROFACIES 
 GR.gAPI                                :GAMMA RAY 
 ILD.ohm.m                              :INDUCTION DEEP RESISTIVITY 
 NPHI.%                                 :THERMAL NEUTRON POROSITY (ORIGINAL RATIO METHOD) IN SELECTED LITHOLOGY 
 NPOR.%                                 :NEUTRON POROSITY (ENVIRONMENTALLY CORRECTED AND ALPHA PROCESSED) 
 RHOB.g/cm3                             :BULK DENSITY 
 SFLU.ohm.m                             :SFL RESISTIVITY UNAVERAGED 
 SP.mV                                  :SPONTANEOUS POTENTIAL 
 TENS.lbf                               :LINE TENSION 
 VSH.v/v                                :VOLUME DE FOLHELHO 
~ASCII LOG DATA                                                                
# ...
   1574.2911     8.5555  2165.3350    -0.0450     1.0000    62.9609     0.4609    28.4927    27.3621     2.2851     1.8164   -89.7344  1960.0000     0.0000 
   1574.4435     8.4403  2098.5444    -0.0338     1.0000    60.5156     0.4762    29.0451    27.4578     2.2897     1.8991   -89.3750  1957.5000     0.0000 
   1574.5959     8.4680  2041.4333    -0.0228     1.0000    58.4062     0.4912    28.1555    27.6157     2.3051     1.9767   -89.3281  1948.7500     0.0000 
   1574.7483     8.4383  1966.4297    -0.0430     1.0000    58.9922     0.5106    27.4872    27.2366     2.2506     1.9430   -89.5312  1940.0000     0.0000 
   1574.9007     8.3385  1867.9705    -0.0248     1.0000    61.8828     0.5352    26.3855    24.4324     2.2851     1.8456   -89.6719  1938.7500     0.0000 
   1575.0531     8.1759  1780.4270     0.0022     1.0000    65.8359     0.5635    25.1389    24.4989     2.3411     1.8383   -89.6562  1942.5000     0.0000 
   1575.2055     8.0956  1679.9373     0.0018     1.0000    67.8281     0.5951    24.5674    24.7753     2.2944     2.0108   -89.3906  1945.0000     0.0000 
   1575.3579     8.1166  1592.1184     0.0258     1.0000    65.7656     0.6290    24.9233    23.0392     2.3037     2.3580   -88.6719  1942.5000     0.0000 
   1575.5103     8.3762  1504.4661     0.0061     1.0000    60.5859     0.6657    24.0952    21.7392     2.3719     2.7932   -87.9062  1938.7500     0.0000 
   1575.6627     8.4514  1417.8210    -0.0351     1.0000    56.0859     0.7026    22.7463    20.7565     2.3387     3.1985   -87.5781  1941.2500     0.0000 
   1575.8151     8.4379  1360.5835    -0.0313     1.0000    55.5625     0.7302    22.0169    21.2811     2.3515     3.4903   -87.5781  1948.7500     0.0000 
   1575.9675     8.3994  1341.4128    -0.0293     1.0000    57.7266     0.7384    22.1594    21.8311     2.3300     3.6477   -87.6250  1955.0000     0.0000 
   1576.1199     8.3908  1374.1282    -0.0227     1.0000    60.0234     0.7209    23.5275    21.7977     2.3442     3.6876   -87.5625  1951.2500     0.0000 
   1576.2723     8.4135  1465.1523    -0.0138     1.0000    61.3125     0.6797    24.7719    23.8922     2.3472     3.5379   -87.5156  1938.7500     0.0000 
   1576.4247     8.4141  1597.3066    -0.0308     1.0000    61.9141     0.6274    25.5692    26.2894     2.3311     3.1266   -87.4531  1936.2500     0.0000 
   1576.5771     8.3683  1738.7747    -0.0411     1.0000    62.8516     0.5753    25.0118    25.1389     2.2624     2.5859   -87.5469  1942.5000     0.0000 
   1576.7295     8.3748  1905.5923    -0.0292     1.0000    63.9922     0.5334    23.8991    24.1142     2.2778     2.0917   -88.2656  1948.7500     0.0000 
   1576.8819     8.4512  1965.2327    -0.0346     1.0000    64.9609     0.5148    23.9758    21.6370     2.2461     1.6956   -89.0938  1955.0000     0.0000 
   1577.0343     8.3693  1935.7664    -0.0241     1.0000    66.6406     0.5195    25.1984    23.3505     2.2670     1.3994   -89.3438  1956.2500     0.0000 
   1577.1867     8.3672  1866.0535    -0.0303     1.0000    70.0938     0.5350    29.1443    26.6052     2.2764     1.2238   -88.7969  1953.7500     0.0000 
   1577.3391     8.4129  1812.6707    -0.0358     1.0000    74.9531     0.5494    32.5134    33.2520     2.2779     1.2950   -87.2031  1948.7500     0.0000 
   1577.4915     8.3988  1790.3818    -0.0519     1.0000    78.3281     0.5572    30.8884    33.3425     2.2400     1.7795   -85.1250  1942.5000     0.0000 
   1577.6439     8.3984  1785.4009    -0.0476     1.0000    78.3281     0.5592    29.2114    27.8625     2.2277     2.5330   -83.4688  1940.0000     0.0000 
   1577.7963     8.3984  1792.1797    -0.0340     1.0000    76.3125     0.5586    30.0133    28.6430     2.2380     3.0051   -82.3594  1940.0000     0.0000 
   1577.9487     8.3984  1791.5259    -0.0427     1.0000    72.7812     0.5575    29.4205    29.5441     2.2120     2.9004   -82.0781  1940.0000     0.0000 
   1578.1011     8.4213  1799.7893    -0.0497     1.0000    69.3906     0.5514    30.7785    27.5375     2.1950     2.5351   -83.0625  1940.0000     0.0000 
   1578.2535     8.4371  1865.5532    -0.0528     1.0000    67.6719     0.5348    29.2435    28.8025     2.1996     2.2142   -84.7344  1938.7500     0.0000 
   1578.4059     8.4375  1955.6709    -0.0446     1.0000    67.2812     0.5133    28.4294    28.0121     2.2376     1.9992   -86.3750  1936.2500     0.0000 
   1578.5583     8.4451  2021.9658    -0.0346     1.0000    67.6094     0.4954    28.8399    26.8799     2.2454     1.9272   -87.7031  1945.0000     0.0000 
   1578.7107     8.4148  2077.8369    -0.0301     1.0000    66.7188     0.4838    29.3716    28.3249     2.2807     1.9815   -88.5469  1967.5000     0.0000 
   1578.8631     8.4141  2091.0425    -0.0374     1.0000    64.0078     0.4840    29.2792    27.3239     2.2762     2.1076   -88.9375  1977.5000     0.0000 
   1579.0155     8.4141  2006.3037    -0.0561     1.0000    59.8281     0.5032    29.6909    27.4899     2.2558     2.2546   -88.9531  1965.0000     0.0000 
   1579.1679     8.4064  1859.8909    -0.0548     1.0000    57.0078     0.5411    29.6116    28.3806     2.2465     2.3943   -88.7188  1950.0000     0.0000 
   1579.3203     8.4062  1692.8870    -0.0448     1.0000    57.8906     0.5926    28.7132    28.9696     2.2595     2.5572   -88.3906  1945.0000     0.0000 
   1579.4727     8.3986  1535.0117    -0.0429     1.0000    59.5469     0.6521    27.2964    27.8130     2.2540     2.7880   -88.1719  1945.0000     0.0000 
   1579.6251     8.3680  1399.1921    -0.0380     1.0000    59.2266     0.7138    26.6930    26.5579     2.2469     3.0897   -88.0156  1947.5000     0.0000 
   1579.7775     8.3672  1291.4319    -0.0294     1.0000    58.0391     0.7756    28.2654    25.5684     2.2683     3.4151   -87.6250  1951.2500     0.0000 
   1579.9299     8.4129  1191.5884    -0.0257     1.0000    57.9531     0.8377    28.3950    27.4261     2.2689     3.7021   -86.9844  1953.7500     0.0000 
   1580.0823     8.4141  1113.6028    -0.0397     1.0000    58.0469     0.8952    28.3563    28.3394     2.2574     3.9397   -86.5469  1961.2500     0.0000 
   1580.2347     8.4141  1057.5898    -0.0378     1.0000    57.3984     0.9429    26.7227    25.9003     2.2556     4.1604   -86.5938  1968.7500     0.0000 
   1580.3871     8.3988  1017.7795    -0.0442     1.0000    57.4844     0.9793    26.2379    23.9136     2.2668     4.3765   -86.6250  1961.2500     0.0000 
   1580.5395     8.3984   993.2729    -0.0236     1.0000    58.0078     1.0030    26.3593    25.7889     2.3007     4.5703   -86.4531  1943.7500     0.0000 
   1580.6919     8.3984   984.2571    -0.0298     1.0000    58.0000     1.0149    26.9829    27.2079     2.2824     4.7118   -86.4375  1937.5000     0.0000 
   1580.8443     8.3908   979.6646    -0.0416     1.0000    57.7266     1.0177    26.7210    25.9979     2.2925     4.7972   -86.5781  1943.7500     0.0000 
   1580.9967     8.3982   986.9236    -0.0361     1.0000    57.6641     1.0093    25.6302    25.2930     2.2998     4.8767   -86.7500  1945.0000     0.0000 
   1581.1491     8.3984  1010.0139    -0.0412     1.0000    58.1719     0.9873    24.5125    22.9416     2.3026     4.9614   -86.8906  1941.2500     0.0000 
   1581.3015     8.3984  1046.2561    -0.0448     1.0000    59.1719     0.9555    24.9683    23.3803     2.2640     4.9660   -86.9844  1942.5000     0.0000 
   1581.4539     8.3908  1086.3721    -0.0333     1.0000    59.9453     0.9208    25.2600    25.2106     2.2458     4.8307   -86.8594  1947.5000     0.0000 
   1581.6063     8.3982  1128.2351    -0.0151     1.0000    59.1016     0.8871    25.0816    24.0639     2.2719     4.6252   -86.4062  1952.5000     0.0000 
   1581.7587     8.3984  1169.2656    -0.0435     1.0000    57.7656     0.8601    24.3935    24.0826     2.2505     4.4655   -86.0000  1955.0000     0.0000 
   1581.9111     8.3984  1185.5906    -0.0389     1.0000    57.7812     0.8500    24.8062    23.8167     2.2437     4.3476   -85.5156  1952.5000     0.0000 
