~VERSION INFORMATION                                                           
 VERS.           2.0: CWLS Log ASCII Standard - Version 2.0                    
 WRAP.            NO: One Line per Depth Step                                  
~WELL INFORMATION                                                              
#MNEM.UNIT              DATA            DESCRIPTION OF MNEMONIC                
#-----------            ----            -----------------------                
 STRT.M             952.00              :Start Depth                           
 STOP.M            1604.00              :Stop  Depth                           
 STEP.M             0.2000              :Step                                  
 NULL.              -99999.0            :Null Value                            
 COMP.     PETROLEO BRASILEIRO S/A      :Company                               
 ORIG.     SIGEO EXPORTACAO PERFIL      :Origem dos dados                      
 WELL.     7-LP-85-ES                   :Well                                  
 FLD.      LAGOA PARDA                  :Field                                 
 STAT.     ESPIRITO SANTO               :State                                 
 API.      342700026300                 :API Code                              
 X.                412944.10            :Surface X                             
 Y.               7831795.90            :Surface Y                             
 HZCS.           UTM                    :Horizontal Coordinate System          
 MC.               39 W                 :Meridiano Central
 LATI.           -19:36:25.186          :Latitude                              
 LONG.           -39:49:48.609          :Longitude                             
 GDAT.           SIRGAS2000             :Geodetic Datum                        
 LMF.            MR                     :Log Measure From                      
 EDF.M               8.00               :Elevation Derrick Floor               
 EGL.M               3.00               :GROUND ELEVATION                      
~CURVE INFORMATION                                                             
 DEPT.M                                 :Measured Depth                        
 CALI.in                                :CALIPER 
 DRHO.g/cm3                             :BULK DENSITIY CORRECTION 
 EFAC.Adim                              :ELETROFACIES 
 GR.gAPI                                :GAMMA RAY 
 ILD.ohm.m                              :INDUCTION DEEP RESISTIVITY 
 NPHI.%                                 :THERMAL NEUTRON POROSITY (ORIGINAL RATIO METHOD) IN SELECTED LITHOLOGY 
 RHOB.g/cm3                             :BULK DENSITY 
 SN.ohm.m                               :SHORT NORMAL RESISTIVITY 
 SP.mV                                  :SPONTANEOUS POTENTIAL 
 TENS.lbf                               :LINE TENSION 
 VSH.v/v                                :VOLUME DE FOLHELHO 
~ASCII LOG DATA                                                                
# ...
   1504.0000     8.9122     0.1323     4.0000   128.0732     1.3465    39.1295     2.3383     1.9969    86.1433  1832.9724     1.0000 
   1504.2000     8.9100     0.1464     4.0000   126.4371     1.4212    38.4333     2.3442     2.0220    86.7276  1901.9868     1.0000 
   1504.4000     8.8978     0.1588     4.0000   124.0429     1.4863    37.1059     2.3448     2.0774    84.4878  1984.2073     1.0000 
   1504.6000     8.8512     0.1354     4.0000   121.0709     1.5167    34.3856     2.3430     2.1512    83.8161  1866.6101     1.0000 
   1504.8000     8.7810     0.0897     4.0000   118.9459     1.5356    31.1141     2.3574     2.2288    82.6066  2060.4568     1.0000 
   1505.0000     8.8376     0.0882     4.0000   121.7496     1.5757    30.9022     2.3635     2.2316    82.6619  1905.6089     1.0000 
   1505.2000     9.0215     0.1191     4.0000   126.9327     1.6093    34.0539     2.3241     2.1982    82.8602  1838.9290     1.0000 
   1505.4000     9.2161     0.1396     4.0000   130.2366     1.5929    38.2340     2.2741     2.1490    83.1970  2057.6614     1.0000 
   1505.6000     9.1592     0.1395     4.0000   132.2232     1.5260    40.0528     2.2644     2.0935    83.4307  1916.7637     1.0000 
   1505.8000     8.9705     0.1217     4.0000   133.6567     1.4540    38.5316     2.2728     2.0599    83.2378  1953.5000     1.0000 
   1506.0000     8.8756     0.1067     4.0000   133.7186     1.3881    35.9389     2.2869     2.0210    82.1304  1925.1995     1.0000 
   1506.2000     8.9260     0.1250     4.0000   135.1630     1.3367    36.0491     2.3080     1.9642    82.3287  1851.7375     1.0000 
   1506.4000     9.1006     0.1483     4.0000   135.4622     1.3025    38.4949     2.3070     1.8909    83.5531  1936.3701     1.0000 
   1506.6000     9.1016     0.1496     4.0000   132.1997     1.2664    40.5654     2.2730     1.8341    83.6000  1848.5237     1.0000 
   1506.8000     9.1472     0.1456     4.0000   128.7814     1.2255    42.0477     2.2425     1.7957    83.4186  1978.3425     1.0000 
   1507.0000     9.2353     0.1551     4.0000   127.1783     1.1892    43.5260     2.2466     1.7783    84.9748  1942.7441     1.0000 
   1507.2000     9.2300     0.1745     4.0000   126.9342     1.1692    43.5942     2.2681     1.7783    85.5562  1910.6443     1.0000 
   1507.4000     9.5244     0.1891     4.0000   129.0329     1.1700    42.8600     2.2834     1.7865    85.7745  1916.1614     1.0000 
   1507.6000     9.4011     0.1864     4.0000   131.8272     1.1793    42.8600     2.2858     1.7865    85.7701  1941.6575     1.0000 
   1507.8000     9.2856     0.1695     4.0000   132.5282     1.1917    42.1278     2.2768     1.7806    84.7718  1934.2900     1.0000 
   1508.0000     9.5215     0.1541     4.0000   132.1121     1.1997    40.9705     2.2595     1.7785    84.7121  1872.6824     1.0000 
   1508.2000     9.2877     0.1638     4.0000   132.7055     1.2050    42.1061     2.2314     1.7907    84.8945  1965.6536     1.0000 
   1508.4000     9.3142     0.1809     4.0000   132.9690     1.2032    43.0986     2.1848     1.7908    84.1071  1837.1077     1.0000 
   1508.6000     9.3480     0.1753     4.0000   131.7393     1.1969    42.2308     2.1391     1.7785    84.2869  2055.1746     1.0000 
   1508.8000     9.2788     0.1439     4.0000   130.8279     1.1912    42.6416     2.1113     1.7638    84.3925  1994.9133     1.0000 
   1509.0000     9.4335     0.1047     4.0000   131.1367     1.1896    44.9460     2.0733     1.7531    83.6592  1935.7520     1.0000 
   1509.2000    10.1477     0.0712     4.0000   131.3904     1.1860    46.6090     2.0400     1.7571    83.5191  1874.4370     1.0000 
   1509.4000     9.5737     0.0839     4.0000   130.5185     1.1830    45.2974     2.0923     1.7579    84.7000  1941.2756     1.0000 
   1509.6000     9.2960     0.1419     4.0000   128.6538     1.1874    42.7292     2.2085     1.7687    84.5413  1898.5774     1.0000 
   1509.8000     9.2048     0.1886     4.0000   128.1523     1.2005    41.1261     2.2778     1.7852    83.3905  1915.5708     1.0000 
   1510.0000     9.3123     0.1870     4.0000   132.4756     1.2074    40.1226     2.2639     1.7884    81.6224  1877.1851     1.0000 
   1510.2000     9.2234     0.1496     4.0000   136.7590     1.2012    38.8814     2.2461     1.7931    83.6795  1970.9907     1.0000 
   1510.4000     9.1778     0.1180     4.0000   135.2988     1.1882    37.9931     2.2536     1.7801    84.3891  1886.0852     1.0000 
   1510.6000     9.2916     0.1344     4.0000   132.3271     1.1739    37.9170     2.2629     1.7660    85.3823  1871.2795     1.0000 
   1510.8000    10.0195     0.1791     4.0000   132.8820     1.1598    39.1742     2.2367     1.7660    83.7165  1847.9565     1.0000 
   1511.0000    10.6304     0.1926     4.0000   132.8708     1.1459    41.2845     2.1761     1.7602    82.6424  1978.4685     1.0000 
   1511.2000    10.6872     0.1778     4.0000   132.2441     1.1349    43.9050     2.1007     1.7577    82.4358  2021.7756     1.0000 
   1511.4000     9.5334     0.1670     4.0000   134.5138     1.1298    46.5943     2.0486     1.7458    83.5980  1911.0591     1.0000 
   1511.6000     9.4096     0.1591     4.0000   134.2042     1.1315    46.6295     2.0628     1.7378    84.2479  1911.1299     1.0000 
   1511.8000     9.3111     0.1570     4.0000   127.0303     1.1374    44.0408     2.1609     1.7378    84.8929  1954.2991     1.0000 
   1512.0000     9.2355     0.1630     4.0000   124.5584     1.1429    42.1672     2.2601     1.7378    84.7554  1939.2742     1.0000 
   1512.2000     9.3266     0.1571     4.0000   129.5694     1.1444    41.4779     2.2704     1.7378    84.6643  1999.8240     1.0000 
   1512.4000     9.5243     0.1413     4.0000   132.7622     1.1455    40.9603     2.2051     1.7378    85.1311  1887.6455     1.0000 
   1512.6000     9.4279     0.1279     4.0000   131.8861     1.1386    40.9026     2.0800     1.7404    84.7433  2001.7637     1.0000 
   1512.8000     9.3310     0.1224     4.0000   129.5739     1.1269    42.0531     1.9695     1.7498    84.0631  1864.3201     1.0000 
   1513.0000     9.3835     0.1176     4.0000   124.9295     1.1177    43.5976     1.9665     1.7498    84.6354  1965.6575     1.0000 
   1513.2000     9.2400     0.1174     4.0000   123.0566     1.1238    44.5971     2.0761     1.7622    84.8811  1936.4553     1.0000 
   1513.4000     9.2771     0.1296     4.0000   125.6581     1.1719    45.9412     2.1500     1.8019    85.8073  1876.3320     1.0000 
   1513.6000     9.3820     0.1342     4.0000   128.2410     1.2456    48.1263     2.1407     1.8559    85.0795  1964.6182     1.0000 
   1513.8000     9.2312     0.1150     4.0000   129.2824     1.3012    47.0877     2.1518     1.9230    85.6055  1889.7585     1.0000 
   1514.0000     9.1480     0.0912     4.0000   128.3395     1.3098    39.9343     2.2448     1.9844    86.9402  1868.7742     1.0000 
   1514.2000     9.1600     0.0963     4.0000   124.5634     1.3019    32.9688     2.3154     2.0223    87.3712  1924.7283     1.0000 
   1514.4000     9.2900     0.1193     4.0000   121.1548     1.2940    31.4467     2.2790     2.0083    86.7576  1963.8057     1.0000 
   1514.6000     9.2833     0.1297     4.0000   125.6609     1.2823    37.4391     2.1700     1.9573    84.7964  1884.7454     1.0000 
   1514.8000     9.2960     0.1258     4.0000   134.7173     1.2407    45.4048     2.0779     1.8653    84.5248  1955.1653     1.0000 
   1515.0000     9.3196     0.1269     4.0000   139.9858     1.1664    48.6297     2.0705     1.7687    86.5277  1966.7610     1.0000 
   1515.2000     9.3027     0.1502     4.0000   139.1983     1.0977    45.4816     2.1709     1.7444    86.4806  1877.2505     1.0000 
   1515.4000     9.3100     0.1599     4.0000   139.2213     1.0725    43.2142     2.2366     1.7298    85.4894  1905.6575     1.0000 
   1515.6000     9.2830     0.1309     4.0000   142.3171     1.0782    42.9270     2.2078     1.7370    84.3909  1956.6023     1.0000 
   1515.8000     9.3000     0.1083     4.0000   142.6450     1.0905    42.1928     2.1925     1.7498    85.8902  1938.7598     1.0000 
