~VERSION INFORMATION                                                           
 VERS.           2.0: CWLS Log ASCII Standard - Version 2.0                    
 WRAP.            NO: One Line per Depth Step                                  
~WELL INFORMATION                                                              
#MNEM.UNIT              DATA            DESCRIPTION OF MNEMONIC                
#-----------            ----            -----------------------                
 STRT.M             952.00              :Start Depth                           
 STOP.M            1604.00              :Stop  Depth                           
 STEP.M             0.2000              :Step                                  
 NULL.              -99999.0            :Null Value                            
 COMP.     PETROLEO BRASILEIRO S/A      :Company                               
 ORIG.     SIGEO EXPORTACAO PERFIL      :Origem dos dados                      
 WELL.     7-LP-85-ES                   :Well                                  
 FLD.      LAGOA PARDA                  :Field                                 
 STAT.     ESPIRITO SANTO               :State                                 
 API.      342700026300                 :API Code                              
 X.                412944.10            :Surface X                             
 Y.               7831795.90            :Surface Y                             
 HZCS.           UTM                    :Horizontal Coordinate System          
 MC.               39 W                 :Meridiano Central
 LATI.           -19:36:25.186          :Latitude                              
 LONG.           -39:49:48.609          :Longitude                             
 GDAT.           SIRGAS2000             :Geodetic Datum                        
 LMF.            MR                     :Log Measure From                      
 EDF.M               8.00               :Elevation Derrick Floor               
 EGL.M               3.00               :GROUND ELEVATION                      
~CURVE INFORMATION                                                             
 DEPT.M                                 :Measured Depth                        
 CALI.in                                :CALIPER 
 DRHO.g/cm3                             :BULK DENSITIY CORRECTION 
 EFAC.Adim                              :ELETROFACIES 
 GR.gAPI                                :GAMMA RAY 
 ILD.ohm.m                              :INDUCTION DEEP RESISTIVITY 
 NPHI.%                                 :THERMAL NEUTRON POROSITY (ORIGINAL RATIO METHOD) IN SELECTED LITHOLOGY 
 RHOB.g/cm3                             :BULK DENSITY 
 SN.ohm.m                               :SHORT NORMAL RESISTIVITY 
 SP.mV                                  :SPONTANEOUS POTENTIAL 
 TENS.lbf                               :LINE TENSION 
 VSH.v/v                                :VOLUME DE FOLHELHO 
~ASCII LOG DATA                                                                
# ...
   1420.0000     9.0200     0.0490   -99999.0    85.2661     0.8966    35.5692     2.2848     1.3621    74.8807  1830.0000   -99999.0 
   1420.2000     9.0200     0.0592   -99999.0    88.6782     0.8914    34.4506     2.2635     1.3583    76.6465  1865.6731   -99999.0 
   1420.4000     9.0545     0.0830   -99999.0    93.2216     0.8947    36.0181     2.2554     1.3699    77.1497  1869.0000   -99999.0 
   1420.6000     9.0808     0.1097   -99999.0    98.7496     0.9040    38.9665     2.2670     1.3893    78.8091  1869.0000   -99999.0 
   1420.8000     9.1752     0.1274   -99999.0   101.0110     0.9168    40.6695     2.2849     1.4078    79.3297  1843.4487   -99999.0 
   1421.0000     9.2200     0.1371   -99999.0    97.4946     0.9383    41.0472     2.2963     1.4125    78.5852  1878.0000   -99999.0 
   1421.2000     9.1581     0.1478   -99999.0    92.8520     0.9634    41.6044     2.2970     1.4384    77.8094  1859.4211   -99999.0 
   1421.4000     9.0900     0.1601   -99999.0    92.8831     0.9947    41.6034     2.2913     1.4647    77.3634  1839.0000   -99999.0 
   1421.6000     9.1521     0.1628   -99999.0    96.1617     1.0309    40.5755     2.2780     1.4904    76.7202  1839.0000   -99999.0 
   1421.8000     9.2021     0.1433   -99999.0    97.7654     1.0691    40.5231     2.2682     1.5069    76.9413  1820.8110   -99999.0 
   1422.0000     9.0837     0.1165   -99999.0    97.5646     1.1066    41.9171     2.2714     1.5324    76.8549  1845.0747   -99999.0 
   1422.2000     9.0885     0.0967   -99999.0    97.2152     1.1383    42.4213     2.2813     1.5499    77.6571  1863.6194   -99999.0 
   1422.4000     9.0570     0.0880   -99999.0    97.5299     1.1627    40.5312     2.2898     1.5879    79.2051  1854.0000   -99999.0 
   1422.6000     9.0700     0.0933   -99999.0    97.0024     1.1857    38.4948     2.2943     1.6143    79.7976  1854.0000   -99999.0 
   1422.8000     9.0700     0.1058   -99999.0    96.7025     1.1966    38.0215     2.2960     1.6290    78.9274  1854.0000   -99999.0 
   1423.0000     9.0700     0.1139   -99999.0    98.2736     1.1850    38.5116     2.2986     1.6096    78.0126  1870.1497   -99999.0 
   1423.2000     9.0700     0.1154   -99999.0    98.4203     1.1504    38.4700     2.2970     1.5712    76.4604  1873.0000   -99999.0 
   1423.4000     9.0882     0.1095   -99999.0    95.8934     1.1093    38.3626     2.2804     1.5208    75.7176  1815.5393   -99999.0 
   1423.6000     9.1088     0.0948   -99999.0    96.2488     1.0729    38.8716     2.2562     1.4825    76.0346  1825.2598   -99999.0 
   1423.8000     9.0700     0.0859   -99999.0    99.0882     1.0378    39.9131     2.2564     1.4481    76.5537  1870.4856   -99999.0 
   1424.0000     9.0870     0.0875   -99999.0    99.7755     1.0078    40.7290     2.2781     1.4304    76.8547  1864.0000   -99999.0 
   1424.2000     9.0248     0.0926   -99999.0    94.7606     0.9894    40.2147     2.3003     1.4289    78.0390  1869.0000   -99999.0 
   1424.4000     9.0405     0.0951   -99999.0    88.9787     0.9785    39.1568     2.3182     1.4289    79.5631  1869.0000   -99999.0 
   1424.6000     9.0300     0.0846   -99999.0    88.2647     0.9732    38.5056     2.3274     1.4289    79.6144  1845.4172   -99999.0 
   1424.8000     9.0480     0.0673   -99999.0    91.4264     0.9752    37.9383     2.3184     1.4388    79.2213  1836.6377   -99999.0 
   1425.0000     9.0300     0.0794   -99999.0    94.3215     0.9791    37.9248     2.3134     1.4429    78.3357  1815.0000   -99999.0 
   1425.2000     9.0300     0.1118   -99999.0    96.5123     0.9850    38.8769     2.3133     1.4560    77.4492  1843.2007   -99999.0 
   1425.4000     9.0493     0.1289   -99999.0    97.1177     0.9886    39.4160     2.3047     1.4592    77.3965  1854.0000   -99999.0 
   1425.6000     9.0335     0.1226   -99999.0    98.2955     0.9862    37.4792     2.2960     1.4654    77.4391  1847.0447   -99999.0 
   1425.8000     9.0268     0.1147   -99999.0   101.3163     0.9758    35.1988     2.3019     1.4588    78.2281  1834.0000   -99999.0 
   1426.0000     9.0394     0.1130   -99999.0   102.9780     0.9641    35.1095     2.3176     1.4393    79.2780  1838.8621   -99999.0 
   1426.2000     9.0486     0.1268   -99999.0    99.8172     0.9497    37.1813     2.3261     1.4261    78.9715  1820.0000   -99999.0 
   1426.4000     9.0797     0.1533   -99999.0    97.0626     0.9329    39.1662     2.3174     1.4132    79.0194  1817.0144   -99999.0 
   1426.6000     9.2473     0.1821   -99999.0    98.6098     0.9153    40.5631     2.3048     1.4093    78.6453  1815.0000   -99999.0 
   1426.8000     9.5045     0.1849   -99999.0   102.2879     0.9018    40.5739     2.2950     1.3996    77.8004  1783.5405   -99999.0 
   1427.0000     9.1664     0.1655   -99999.0   104.7478     0.8954    38.2454     2.2837     1.3996    76.8863  1810.0000   -99999.0 
   1427.2000     8.9461     0.1546   -99999.0   105.3154     0.9006    35.3378     2.2800     1.4078    76.4461  1867.5591   -99999.0 
   1427.4000     8.9768     0.1526   -99999.0   102.9871     0.9140    35.0272     2.2771     1.4191    76.2905  1868.7900   -99999.0 
   1427.6000     8.9600     0.1346   -99999.0   100.0462     0.9318    37.4265     2.2446     1.4237    77.4884  1824.7112   -99999.0 
   1427.8000     8.8346     0.1042   -99999.0    99.1216     0.9534    39.4988     2.1984     1.4367    78.1701  1830.0000   -99999.0 
   1428.0000     8.7790     0.0856   -99999.0   100.4916     0.9718    38.9194     2.1849     1.4497    79.5712  1815.0000   -99999.0 
   1428.2000     8.7904     0.0808   -99999.0   103.0755     0.9896    36.1282     2.2148     1.4629    79.0551  1815.0000   -99999.0 
   1428.4000     8.9209     0.0761   -99999.0   104.2720     1.0077    33.4724     2.2478     1.4763    78.3398  1832.2913   -99999.0 
   1428.6000     8.9993     0.0729   -99999.0   103.4000     1.0284    32.7010     2.2693     1.4897    78.3639  1837.7205   -99999.0 
   1428.8000     8.9869     0.0669   -99999.0   103.4000     1.0416    33.5581     2.2797     1.5021    77.2655  1800.0000   -99999.0 
   1429.0000     9.0131     0.0557   -99999.0   102.8083     1.0447    34.5294     2.2764     1.5066    77.4630  1835.5039   -99999.0 
   1429.2000     9.0394     0.0540   -99999.0   102.3060     1.0447    36.0220     2.2556     1.5167    76.7272  1854.0000   -99999.0 
   1429.4000     9.0461     0.0567   -99999.0   105.6157     1.0447    36.8699     2.2297     1.5066    77.3129  1838.4028   -99999.0 
   1429.6000     8.9600     0.0566   -99999.0   109.5673     1.0433    36.0609     2.2341     1.5025    78.3728  1786.0000   -99999.0 
   1429.8000     8.9600     0.0643   -99999.0   110.9534     1.0358    35.4279     2.2673     1.4903    79.0813  1864.8936   -99999.0 
   1430.0000     8.9756     0.0644   -99999.0   108.4453     1.0260    35.6031     2.2884     1.4894    78.9000  1859.1929   -99999.0 
   1430.2000     8.9600     0.0476   -99999.0   102.6894     1.0112    35.6925     2.2895     1.4839    78.6874  1822.7559   -99999.0 
   1430.4000     8.9431     0.0334   -99999.0    96.6715     0.9911    36.2447     2.2856     1.4791    77.4030  1834.0000   -99999.0 
   1430.6000     8.9538     0.0285   -99999.0    92.8096     0.9743    36.7057     2.2733     1.4673    76.7937  1846.8188   -99999.0 
   1430.8000     8.9294     0.0260   -99999.0    89.9504     0.9705    34.9446     2.2626     1.4541    77.0189  1781.0000   -99999.0 
   1431.0000     8.9400     0.0362   -99999.0    90.1151     0.9740    32.3254     2.2688     1.4410    76.8562  1822.3845   -99999.0 
   1431.2000     8.9219     0.0731   -99999.0    96.6243     0.9803    32.3536     2.2922     1.4397    76.9186  1835.8635   -99999.0 
   1431.4000     8.8994     0.1095   -99999.0   104.1193     0.9923    35.7181     2.3024     1.4569    77.5055  1816.2874   -99999.0 
   1431.6000     8.8185     0.1176   -99999.0   106.9178     1.0093    38.4793     2.2928     1.4836    78.7461  1761.0000   -99999.0 
   1431.8000     8.8872     0.1184   -99999.0   108.4272     1.0259    38.6079     2.2934     1.5072    80.1758  1904.7400   -99999.0 
