~VERSION INFORMATION                                                           
 VERS.           2.0: CWLS Log ASCII Standard - Version 2.0                    
 WRAP.            NO: One Line per Depth Step                                  
~WELL INFORMATION                                                              
#MNEM.UNIT              DATA            DESCRIPTION OF MNEMONIC                
#-----------            ----            -----------------------                
 STRT.M             898.09              :Start Depth                           
 STOP.M            1708.40              :Stop  Depth                           
 STEP.M             0.1524              :Step                                  
 NULL.              -99999.0            :Null Value                            
 COMP.     PETROLEO BRASILEIRO S/A      :Company                               
 ORIG.     SIGEO EXPORTACAO PERFIL      :Origem dos dados                      
 WELL.     7-LP-84-ES                   :Well                                  
 FLD.      LAGOA PARDA                  :Field                                 
 STAT.     ESPIRITO SANTO               :State                                 
 API.      342700024200                 :API Code                              
 X.                411577.00            :Surface X                             
 Y.               7831472.80            :Surface Y                             
 HZCS.           UTM                    :Horizontal Coordinate System          
 MC.               39 W                 :Meridiano Central
 LATI.           -19:36:35.478          :Latitude                              
 LONG.           -39:50:35.593          :Longitude                             
 GDAT.           SIRGAS2000             :Geodetic Datum                        
 LMF.            MR                     :Log Measure From                      
 EDF.M               9.00               :Elevation Derrick Floor               
 EGL.M               4.40               :GROUND ELEVATION                      
~CURVE INFORMATION                                                             
 DEPT.M                                 :Measured Depth                        
 CALI.in                                :CALIPER 
 CILD.mS/m                              :CALIBRATED DEEP INDUCTION CONDUCTIVITY 
 DRHO.g/cm3                             :BULK DENSITIY CORRECTION 
 EFAC.Adim                              :ELETROFACIES 
 GR.gAPI                                :GAMMA RAY 
 ILD.ohm.m                              :INDUCTION DEEP RESISTIVITY 
 NPHI.%                                 :THERMAL NEUTRON POROSITY (ORIGINAL RATIO METHOD) IN SELECTED LITHOLOGY 
 NPOR.%                                 :NEUTRON POROSITY (ENVIRONMENTALLY CORRECTED AND ALPHA PROCESSED) 
 RHOB.g/cm3                             :BULK DENSITY 
 SFLU.ohm.m                             :SFL RESISTIVITY UNAVERAGED 
 SP.mV                                  :SPONTANEOUS POTENTIAL 
 TENS.lbf                               :LINE TENSION 
 VSH.v/v                                :VOLUME DE FOLHELHO 
~ASCII LOG DATA                                                                
# ...
   1496.5671    11.1870  1132.9607     0.0039   -99999.0   110.3125     0.8819    45.0142    44.2017     2.2340     1.0754   -17.4062  1872.5000     1.0000 
   1496.7195    11.3704  1118.0793     0.0106   -99999.0   108.0938     0.8902    42.7399    40.6921     2.2950     1.0474   -16.4473  1871.2500     1.0000 
   1496.8719    10.3564  1124.5725     0.0055   -99999.0   106.5469     0.8863    40.6815    41.7908     2.3340     1.1004   -15.3184  1871.2500     0.9972 
   1497.0243    10.5430  1146.4309     0.0330   -99999.0   106.6406     0.8721    41.6428    43.0351     2.2943     1.2123   -14.7422  1875.0000     0.9932 
   1497.1767    10.5946  1170.2861     0.0727   -99999.0   108.7031     0.8577    42.9848    46.5332     2.2078     1.2704   -14.9551  1876.2500     0.9991 
   1497.3291    10.3774  1177.3704     0.0267   -99999.0   109.0000     0.8509    42.9119    49.3301     2.0935     1.2068   -15.8652  1872.5000     1.0000 
   1497.4815    11.0244  1176.0063     0.0078   -99999.0   106.6094     0.8509    46.2616    45.3247     2.1187     1.0849   -16.7422  1871.2500     1.0000 
   1497.6339    10.9526  1171.5107     0.0093   -99999.0   104.8906     0.8526    47.6387    51.2512     2.0393     0.9949   -17.1523  1875.0000     1.0000 
   1497.7863    11.3916  1172.7363     0.0013   -99999.0   106.1719     0.8504    44.2261    48.2056     2.0106     0.9648   -17.0898  1873.7500     1.0000 
   1497.9387    11.6095  1186.5908     0.0536   -99999.0   108.5781     0.8432    40.3961    43.3624     2.1694     0.9781   -16.4277  1863.7500     1.0000 
   1498.0911    10.6699  1197.9668     0.0228   -99999.0   111.1562     0.8368    41.4185    41.4558     2.1506     1.0090   -15.6836  1866.2500     1.0000 
   1498.2435    10.7676  1197.5549     0.0608   -99999.0   115.0156     0.8350    43.3105    46.0815     2.2490     1.0571   -15.3809  1887.5000     1.0000 
   1498.3959    11.0852  1197.3491     0.0269   -99999.0   119.1406     0.8366    45.3186    47.7654     2.1659     1.0950   -15.3770  1901.2500     1.0000 
   1498.5483    11.5894  1188.7803    -0.0005   -99999.0   120.9531     0.8426    45.0302    47.8019     2.0259     1.1016   -15.3418  1901.2500     1.0000 
   1498.7007    11.1533  1172.6001     0.0293   -99999.0   120.0938     0.8528    45.2240    46.5790     2.0946     1.0872   -15.3145  1895.0000     1.0000 
   1498.8531    11.0803  1156.7764     0.0251   -99999.0   119.1719     0.8624    45.3652    47.0551     2.1445     1.0566   -15.2793  1882.5000     1.0000 
   1499.0055    11.2454  1152.1741     0.0780   -99999.0   117.8438     0.8687    45.2764    47.0573     2.1472     1.0439   -15.2422  1872.5000     1.0000 
   1499.1579    11.3180  1143.3274     0.0768   -99999.0   113.9844     0.8727    42.3370    45.5444     2.1444     1.0636   -15.0859  1871.2500     1.0000 
   1499.3103    10.9438  1144.4739     0.1000   -99999.0   108.6094     0.8754    42.4210    43.7607     2.2019     1.0909   -14.4316  1875.0000     1.0000 
   1499.4627    10.8958  1137.3318     0.0962   -99999.0   105.7188     0.8786    42.2829    43.3094     2.2490     1.1160   -13.8418  1877.5000     1.0000 
   1499.6151    11.0088  1133.8342     0.0605   -99999.0   107.9375     0.8813    40.6891    42.3615     2.2360     1.1387   -13.8457  1875.0000     1.0000 
   1499.7675    10.7310  1133.7000     0.0656   -99999.0   111.5000     0.8807    40.2927    43.0847     2.2008     1.1584   -14.1719  1875.0000     1.0000 
   1499.9199    10.5205  1140.4292     0.0714   -99999.0   112.7344     0.8777    44.6045    44.4565     2.1596     1.1574   -14.7500  1882.5000     1.0000 
   1500.0723    10.6550  1142.6531     0.0580   -99999.0   110.9375     0.8750    44.3481    48.1262     2.0137     1.1221   -15.8145  1887.5000     1.0000 
   1500.2247    11.6348  1145.4858     0.0798   -99999.0   107.3125     0.8717    40.6982    44.8364     2.0946     1.0819   -16.8711  1886.2500     1.0000 
   1500.3771    11.7686  1154.9480     0.0645   -99999.0   104.6094     0.8658    41.0843    42.4450     2.1347     1.0528   -17.1406  1880.0000     1.0000 
   1500.5295    11.8337  1164.6440     0.0643   -99999.0   105.3125     0.8586    42.8741    45.1965     2.0803     1.0407   -16.9375  1867.5000     1.0000 
   1500.6819    11.9727  1174.9163     0.0786   -99999.0   110.6562     0.8504    43.3008    45.3964     2.0414     1.0349   -16.6211  1862.5000     1.0000 
   1500.8343    11.5713  1189.4651     0.0767   -99999.0   116.6719     0.8410    43.0019    43.9056     2.0691     1.0361   -16.0957  1871.2500     1.0000 
   1500.9867    11.1523  1202.8457     0.0201   -99999.0   118.0469     0.8324    43.8416    44.1078     2.0756     1.0426   -15.5566  1880.0000     1.0000 
   1501.1391    10.9429  1210.2124     0.0209   -99999.0   115.3438     0.8277    43.9335    48.0835     2.0929     1.0387   -15.0801  1887.5000     1.0000 
   1501.2915    11.0867  1209.3855     0.0482   -99999.0   112.3438     0.8276    43.0901    47.3022     2.1813     1.0301   -14.6855  1897.5000     1.0000 
   1501.4439    11.4021  1204.5652     0.0341   -99999.0   111.3750     0.8322    42.0113    44.0613     2.2053     1.0038   -14.5098  1901.2500     1.0000 
   1501.5963    11.1206  1188.1646     0.0474   -99999.0   112.4844     0.8443    43.1244    42.1158     2.2326     0.9841   -14.2969  1890.0000     1.0000 
   1501.7487    11.0669  1157.6570     0.0582   -99999.0   114.1875     0.8643    43.1618    45.1477     2.2033     0.9826   -13.8750  1876.2500     1.0000 
   1501.9011    10.8428  1126.1140     0.1034   -99999.0   115.5000     0.8873    41.0278    45.3186     2.2341     1.0165   -13.3926  1880.0000     1.0000 
   1502.0535     9.7969  1099.6819     0.0549   -99999.0   115.9844     0.9099    39.5752    41.7389     2.1272     1.0783   -13.1855  1887.5000     0.9888 
   1502.2059     9.3232  1071.8960     0.0036   -99999.0   114.9375     0.9296    41.3361    41.3086     2.0192     1.1757   -13.5957  1887.5000     0.9578 
   1502.3583     9.4650  1060.1455     0.0449   -99999.0   113.1406     0.9424    43.3487    42.7422     2.1232     1.3344   -14.2090  1888.7500     0.9529 
   1502.5107     9.3423  1052.3054     0.1029   -99999.0   111.7812     0.9514    42.6010    43.6108     2.1937     1.4583   -14.4121  1886.2500     0.9155 
   1502.6631     9.1617  1039.7632     0.0724   -99999.0   111.3281     0.9610    40.5975    40.6738     2.1597     1.4654   -14.1816  1883.7500     0.8820 
   1502.8155     9.2145  1030.9236     0.0069   -99999.0   112.4219     0.9667    38.9343    38.6458     2.1062     1.3433   -13.9219  1887.5000     0.8779 
   1502.9679     9.0869  1036.0552     0.0412   -99999.0   113.8125     0.9641    38.5240    41.2018     2.1271     1.1991   -13.8594  1890.0000     0.9316 
   1503.1203     9.4961  1046.1499     0.1295   -99999.0   114.3125     0.9549    39.3776    40.6921     2.3018     1.1191   -13.8652  1890.0000     0.9753 
   1503.2727     9.7073  1061.0635     0.0906   -99999.0   113.6875     0.9431    40.4327    39.8727     2.3315     1.0907   -13.7676  1885.0000     0.9661 
   1503.4251     9.3037  1073.4844     0.0311   -99999.0   112.3438     0.9341    41.3239    40.7284     2.2870     1.1043   -13.6309  1875.0000     0.9063 
   1503.5775     9.0982  1074.0771     0.0103   -99999.0   111.1094     0.9349    41.4955    41.9189     2.2224     1.1194   -13.6797  1871.2500     0.8717 
   1503.7299     9.1682  1057.1970     0.0577   -99999.0   111.2188     0.9483    41.7870    42.3225     2.1902     1.1185   -13.9141  1876.2500     0.9135 
   1503.8823     9.3857  1030.7290     0.0806   -99999.0   114.7969     0.9713    42.2878    43.2709     2.1887     1.1208   -14.0859  1885.0000     0.9640 
   1504.0347     9.2065  1000.9688     0.0769   -99999.0   120.4531     0.9986    42.9314    43.4280     2.1812     1.1629   -13.9746  1895.0000     1.0000 
   1504.1871     9.2490   974.6816     0.0947   -99999.0   123.5469     1.0199    41.4093    42.7462     2.2649     1.2776   -13.8359  1900.0000     1.0000 
