~VERSION INFORMATION                                                           
 VERS.           2.0: CWLS Log ASCII Standard - Version 2.0                    
 WRAP.            NO: One Line per Depth Step                                  
~WELL INFORMATION                                                              
#MNEM.UNIT              DATA            DESCRIPTION OF MNEMONIC                
#-----------            ----            -----------------------                
 STRT.M             952.00              :Start Depth                           
 STOP.M            1604.00              :Stop  Depth                           
 STEP.M             0.2000              :Step                                  
 NULL.              -99999.0            :Null Value                            
 COMP.     PETROLEO BRASILEIRO S/A      :Company                               
 ORIG.     SIGEO EXPORTACAO PERFIL      :Origem dos dados                      
 WELL.     7-LP-85-ES                   :Well                                  
 FLD.      LAGOA PARDA                  :Field                                 
 STAT.     ESPIRITO SANTO               :State                                 
 API.      342700026300                 :API Code                              
 X.                412944.10            :Surface X                             
 Y.               7831795.90            :Surface Y                             
 HZCS.           UTM                    :Horizontal Coordinate System          
 MC.               39 W                 :Meridiano Central
 LATI.           -19:36:25.186          :Latitude                              
 LONG.           -39:49:48.609          :Longitude                             
 GDAT.           SIRGAS2000             :Geodetic Datum                        
 LMF.            MR                     :Log Measure From                      
 EDF.M               8.00               :Elevation Derrick Floor               
 EGL.M               3.00               :GROUND ELEVATION                      
~CURVE INFORMATION                                                             
 DEPT.M                                 :Measured Depth                        
 CALI.in                                :CALIPER 
 DRHO.g/cm3                             :BULK DENSITIY CORRECTION 
 EFAC.Adim                              :ELETROFACIES 
 GR.gAPI                                :GAMMA RAY 
 ILD.ohm.m                              :INDUCTION DEEP RESISTIVITY 
 NPHI.%                                 :THERMAL NEUTRON POROSITY (ORIGINAL RATIO METHOD) IN SELECTED LITHOLOGY 
 RHOB.g/cm3                             :BULK DENSITY 
 SN.ohm.m                               :SHORT NORMAL RESISTIVITY 
 SP.mV                                  :SPONTANEOUS POTENTIAL 
 TENS.lbf                               :LINE TENSION 
 VSH.v/v                                :VOLUME DE FOLHELHO 
~ASCII LOG DATA                                                                
# ...
   1552.0000     8.7951     0.0170     1.0000    67.7744     1.6188    20.2164     2.3338     7.4360    24.4559  1863.8818     0.0420 
   1552.2000     8.8094     0.0132     1.0000    66.5871     1.5161    20.6376     2.3171     6.8142    22.9661  1877.4919     0.0219 
   1552.4000     8.8037     0.0186     1.0000    63.8149     1.4182    20.2899     2.3201     6.2808    22.0312  1861.6245     0.0000 
   1552.6000     8.8100     0.0244     1.0000    60.9378     1.3454    20.1317     2.3097     5.9223    21.1275  1855.8110     0.0000 
   1552.8000     8.8100     0.0200     1.0000    60.0020     1.2944    20.8853     2.2722     5.6766    21.0993  1892.7769     0.0000 
   1553.0000     8.8008     0.0179     1.0000    62.0644     1.2568    22.0257     2.2516     5.5396    20.9000  1867.1902     0.0000 
   1553.2000     8.7985     0.0225     1.0000    65.2216     1.2231    22.5627     2.2604     5.4488    21.0854  1868.8345     0.0000 
   1553.4000     8.8100     0.0277     1.0000    66.1930     1.1902    22.6014     2.2724     5.3738    21.8513  1860.3215     0.0149 
   1553.6000     8.8100     0.0317     1.0000    64.6572     1.1636    22.7434     2.2755     5.3000    22.6272  1887.4685     0.0000 
   1553.8000     8.8100     0.0340     1.0000    64.0110     1.1520    23.0599     2.2712     5.2994    22.3445  1912.0039     0.0000 
   1554.0000     8.8013     0.0305     1.0000    64.3602     1.1577    23.2754     2.2638     5.4395    22.3867  1908.0000     0.0000 
   1554.2000     8.8100     0.0221     1.0000    63.7561     1.1815    22.8354     2.2591     5.6997    22.1461  1879.2925     0.0000 
   1554.4000     8.8100     0.0190     1.0000    62.9523     1.2146    21.5197     2.2733     6.0457    21.5063  1898.1575     0.0000 
   1554.6000     8.8020     0.0256     1.0000    63.2827     1.2533    19.9729     2.3015     6.2815    21.6631  1872.7151     0.0000 
   1554.8000     8.8100     0.0318     1.0000    63.7182     1.2907    19.0296     2.3212     6.3645    21.7233  1877.5552     0.0000 
   1555.0000     8.8100     0.0266     1.0000    63.0571     1.3118    18.8558     2.3183     6.2952    22.1145  1893.5471     0.0000 
   1555.2000     8.8100     0.0168     1.0000    64.1863     1.3085    19.3081     2.3001     6.1425    22.9190  1854.1707     0.0000 
   1555.4000     8.8005     0.0132     1.0000    66.7269     1.2865    20.0824     2.2827     6.0666    23.3161  1915.1746     0.0235 
   1555.6000     8.8100     0.0164     1.0000    66.9437     1.2384    20.2085     2.2795     6.0636    23.4535  1951.2283     0.0284 
   1555.8000     8.7964     0.0170     1.0000    66.8392     1.1673    20.0636     2.2847     6.1100    22.9964  1874.2559     0.0251 
   1556.0000     8.8098     0.0190     1.0000    68.8825     1.0945    21.1500     2.2820     6.1375    22.6027  1887.6875     0.0642 
   1556.2000     8.8070     0.0210     1.0000    71.5425     1.0371    23.6123     2.2641     6.1065    22.2606  1873.0000     0.1154 
   1556.4000     8.8062     0.0198     1.0000    71.7307     0.9983    25.2024     2.2462     6.0331    22.4000  1873.0000     0.1191 
   1556.6000     8.8100     0.0134     1.0000    70.7577     0.9718    25.4600     2.2346     5.9606    21.8433  1864.6497     0.1003 
   1556.8000     8.8100     0.0038     1.0000    70.9921     0.9638    25.5208     2.2282     5.9293    22.4480  1850.3975     0.1049 
   1557.0000     8.8045     0.0011     1.0000    71.8762     0.9675    25.6113     2.2356     5.9444    22.8210  1844.5249     0.1218 
   1557.2000     8.8086     0.0089     1.0000    72.3594     0.9763    24.8968     2.2600     5.9685    23.6054  1836.0276     0.1321 
   1557.4000     8.8100     0.0209     1.0000    71.5165     0.9852    22.8858     2.2900     5.9445    23.5114  1857.3660     0.1153 
   1557.6000     8.8051     0.0245     1.0000    69.1231     0.9953    20.7681     2.3040     5.8163    23.0510  1853.9094     0.0682 
   1557.8000     8.8080     0.0200     1.0000    65.9152     1.0093    20.0819     2.2880     5.5747    22.5991  1850.0366     0.0097 
   1558.0000     8.8100     0.0117     1.0000    62.7630     1.0212    21.4864     2.2515     5.2991    22.7858  1831.0276     0.0000 
   1558.2000     8.8057     0.0099     1.0000    61.6147     1.0193    23.6071     2.2299     5.0641    21.9426  1836.8674     0.0000 
   1558.4000     8.8074     0.0162     1.0000    61.3522     1.0019    24.8828     2.2300     4.8771    22.0739  1834.0000     0.0000 
   1558.6000     8.8100     0.0219     1.0000    61.3409     0.9837    25.0110     2.2328     4.7016    22.3153  1887.2322     0.0000 
   1558.8000     8.8100     0.0199     1.0000    62.5362     0.9740    24.4891     2.2293     4.4864    22.9272  1878.4526     0.0000 
   1559.0000     8.8100     0.0166     1.0000    63.9082     0.9608    23.9129     2.2300     4.2748    23.9731  1865.0210     0.0000 
   1559.2000     8.7902     0.0140     1.0000    64.9906     0.9399    23.5725     2.2340     4.1222    24.7929  1872.7756     0.0000 
   1559.4000     8.8100     0.0117     1.0000    65.4699     0.9181    23.6681     2.2334     4.1192    24.4393  1869.0000     0.0021 
   1559.6000     8.8100     0.0110     1.0000    64.6646     0.9040    24.1748     2.2308     4.2065    22.8033  1859.8071     0.0000 
   1559.8000     8.8100     0.0119     1.0000    63.0898     0.8997    25.0369     2.2291     4.3093    22.2075  1867.8779     0.0000 
   1560.0000     8.8100     0.0128     1.0000    62.3762     0.9000    25.5672     2.2270     4.3925    21.3575  1878.7361     0.0000 
   1560.2000     8.7990     0.0109     1.0000    62.4650     0.9027    24.9241     2.2292     4.4213    20.7900  1851.7493     0.0000 
   1560.4000     8.8159     0.0083     1.0000    62.8586     0.9019    23.6995     2.2362     4.4259    21.3898  1849.6890     0.0000 
   1560.6000     8.7952     0.0083     1.0000    63.1651     0.8984    23.3188     2.2503     4.4259    22.3873  1855.5090     0.0000 
   1560.8000     8.8103     0.0119     1.0000    63.0000     0.8893    23.6522     2.2659     4.4358    22.7026  1843.8687     0.0000 
   1561.0000     8.8080     0.0140     1.0000    63.5594     0.8802    23.6081     2.2694     4.4709    22.6799  1868.1812     0.0000 
   1561.2000     8.8089     0.0116     1.0000    64.0777     0.8745    23.1521     2.2543     4.5232    22.6888  1869.2073     0.0000 
   1561.4000     8.8042     0.0072     1.0000    63.6457     0.8701    22.9300     2.2376     4.5918    22.7695  1845.3582     0.0000 
   1561.6000     8.8100     0.0045     1.0000    63.1527     0.8690    22.9742     2.2315     4.6899    23.2945  1861.3621     0.0000 
   1561.8000     8.8100     0.0050     1.0000    63.4097     0.8732    23.0848     2.2334     4.7670    23.2291  1854.2427     0.0000 
   1562.0000     8.8028     0.0056     1.0000    63.7804     0.8770    23.1980     2.2456     4.8315    23.4752  1864.0525     0.0000 
   1562.2000     8.8035     0.0030     1.0000    64.3020     0.8770    23.2300     2.2574     4.8680    23.0346  1863.5747     0.0000 
   1562.4000     8.8100     0.0030     1.0000    64.4000     0.8770    23.0624     2.2669     4.8975    23.7899  1868.8555     0.0000 
   1562.6000     8.8100     0.0115     1.0000    65.0085     0.8764    22.5700     2.2774     4.9158    23.5596  1843.4685     0.0000 
   1562.8000     8.7978     0.0156     1.0000    65.8661     0.8762    21.9532     2.2879     4.9666    23.5169  1868.6455     0.0079 
   1563.0000     8.8085     0.0178     1.0000    66.1000     0.8807    21.6039     2.2947     5.0421    23.0310  1842.0195     0.0131 
   1563.2000     8.8100     0.0222     1.0000    66.9054     0.8905    21.8175     2.2936     5.1127    22.3705  1857.5237     0.0277 
   1563.4000     8.8045     0.0214     1.0000    68.1736     0.9107    22.1849     2.2863     5.2420    22.6547  1871.1890     0.0503 
   1563.6000     8.8086     0.0183     1.0000    67.8842     0.9404    22.2456     2.2814     5.4350    22.4421  1873.0000     0.0454 
   1563.8000     8.8100     0.0167     1.0000    66.5140     0.9748    22.0408     2.2751     5.6835    22.2000  1841.5786     0.0206 
