~VERSION INFORMATION                                                           
 VERS.           2.0: CWLS Log ASCII Standard - Version 2.0                    
 WRAP.            NO: One Line per Depth Step                                  
~WELL INFORMATION                                                              
#MNEM.UNIT              DATA            DESCRIPTION OF MNEMONIC                
#-----------            ----            -----------------------                
 STRT.M             789.58              :Start Depth                           
 STOP.M            1481.02              :Stop  Depth                           
 STEP.M             0.1524              :Step                                  
 NULL.              -99999.0            :Null Value                            
 COMP.     PETROLEO BRASILEIRO S/A      :Company                               
 ORIG.     SIGEO EXPORTACAO PERFIL      :Origem dos dados                      
 WELL.     7-LP-88-ES                   :Well                                  
 FLD.      LAGOA PARDA                  :Field                                 
 STAT.     ESPIRITO SANTO               :State                                 
 API.      342700034000                 :API Code                              
 X.                410166.50            :Surface X                             
 Y.               7830454.00            :Surface Y                             
 HZCS.           UTM                    :Horizontal Coordinate System          
 MC.               39 W                 :Meridiano Central
 LATI.           -19:37:08.391          :Latitude                              
 LONG.           -39:51:24.187          :Longitude                             
 GDAT.           SIRGAS2000             :Geodetic Datum                        
 LMF.            MR                     :Log Measure From                      
 EDF.M              10.00               :Elevation Derrick Floor               
 EGL.M               4.80               :GROUND ELEVATION                      
~CURVE INFORMATION                                                             
 DEPT.M                                 :Measured Depth                        
 CALI.in                                :CALIPER 
 CALI.in                                :CALIPER 
 CILD.mS/m                              :CALIBRATED DEEP INDUCTION CONDUCTIVITY 
 DRHO.g/cm3                             :BULK DENSITIY CORRECTION 
 DRHO.g/cm3                             :BULK DENSITIY CORRECTION 
 GR.gAPI                                :GAMMA RAY 
 ILD.ohm.m                              :INDUCTION DEEP RESISTIVITY 
 NPHI.%                                 :THERMAL NEUTRON POROSITY (ORIGINAL RATIO METHOD) IN SELECTED LITHOLOGY 
 NPHI.%                                 :THERMAL NEUTRON POROSITY (ORIGINAL RATIO METHOD) IN SELECTED LITHOLOGY 
 NPOR.%                                 :NEUTRON POROSITY (ENVIRONMENTALLY CORRECTED AND ALPHA PROCESSED) 
 NPOR.%                                 :NEUTRON POROSITY (ENVIRONMENTALLY CORRECTED AND ALPHA PROCESSED) 
 PEF.Adim                               :PHOTOELETRIC FACTOR 
 PEF.Adim                               :PHOTOELETRIC FACTOR 
 RHOB.g/cm3                             :BULK DENSITY 
 RHOB.g/cm3                             :BULK DENSITY 
 RSFL.uohm                              :Raw SFL Conductivity 
 SFLU.ohm.m                             :SFL RESISTIVITY UNAVERAGED 
 SP.mV                                  :SPONTANEOUS POTENTIAL 
 TENS.lbf                               :LINE TENSION 
~ASCII LOG DATA                                                                
# ...
    899.3124     8.4453   -99999.0  1127.5334     0.0312   -99999.0   124.5000     0.8869    43.5832   -99999.0    42.8287   -99999.0     3.1049   -99999.0     2.2057   -99999.0   844.2377     1.1802  -131.3434  1720.0000 
    899.4648     8.4635   -99999.0  1136.0511     0.0079   -99999.0   128.7500     0.8802    43.1906   -99999.0    53.7785   -99999.0     3.2175   -99999.0     2.1835   -99999.0   879.0354     1.1330  -130.5737  1745.0000 
    899.6172     8.5054   -99999.0  1136.1918     0.0001   -99999.0   128.2500     0.8801    44.9536   -99999.0    43.9163   -99999.0     3.2721   -99999.0     2.1791   -99999.0   955.4600     1.0428  -129.2409  1705.0000 
    899.7696     8.5156   -99999.0  1136.5548     0.0069   -99999.0   124.6250     0.8799    43.5559   -99999.0    41.5814   -99999.0     3.2835   -99999.0     2.1660   -99999.0  1105.8719     0.9021  -129.2395  1705.0000 
    899.9220     8.5104   -99999.0  1132.5372     0.0144   -99999.0   122.3125     0.8830    44.1658   -99999.0    45.4038   -99999.0     3.2981   -99999.0     2.1669   -99999.0  1055.3385     0.9439  -129.8223  1700.0000 
    900.0744     8.4766   -99999.0  1131.9291    -0.0070   -99999.0   121.8750     0.8834    45.4229   -99999.0    55.1890   -99999.0     3.1708   -99999.0     2.1545   -99999.0   992.8920     1.0032  -129.8750  1710.0000 
    900.2268     8.5286   -99999.0  1135.6682     0.0222   -99999.0   121.5625     0.8805    44.4523   -99999.0    42.8178   -99999.0     3.3698   -99999.0     2.1919   -99999.0   978.0320     1.0182  -129.4172  1670.0000 
    900.3792     8.5469   -99999.0  1142.7262     0.0070   -99999.0   118.6875     0.8751    42.5530   -99999.0    42.2517   -99999.0     3.3548   -99999.0     2.1553   -99999.0   972.8920     1.0235  -130.5194  1745.0000 
    900.5316     8.5469   -99999.0  1146.2938     0.0273   -99999.0   119.5000     0.8724    43.9225   -99999.0    45.2945   -99999.0     3.4492   -99999.0     2.1750   -99999.0   936.5329     1.0634  -131.6550  1720.0000 
    900.6840     8.6347   -99999.0  1159.9926     0.0104   -99999.0   119.5000     0.8621    42.4708   -99999.0    38.7945   -99999.0     3.0791   -99999.0     2.1741   -99999.0   878.9387     1.1333  -134.0387  1760.0000 
    900.8364     8.5781   -99999.0  1170.9131     0.0081   -99999.0   119.3125     0.8540    42.1653   -99999.0    37.9119   -99999.0     3.2707   -99999.0     2.2023   -99999.0   783.6904     1.2720  -137.2252  1735.0000 
    900.9888     8.5781   -99999.0  1175.2015    -0.0075   -99999.0   117.5000     0.8509    43.3548   -99999.0    47.4488   -99999.0     3.4386   -99999.0     2.1787   -99999.0   776.6652     1.2821  -135.5539  1725.0000 
    901.1412     8.4794   -99999.0  1181.2404    -0.0108   -99999.0   117.1875     0.8466    44.9184   -99999.0    43.4893   -99999.0     3.1199   -99999.0     2.1782   -99999.0   898.4554     1.1105  -131.4829  1710.0000 
    901.2936     8.4815   -99999.0  1191.8165    -0.0005   -99999.0   117.4375     0.8391    43.4489   -99999.0    42.4108   -99999.0     3.1259   -99999.0     2.1646   -99999.0  1083.1471     0.9219  -130.6671  1720.0000 
    901.4460     8.4531   -99999.0  1201.0228     0.0182   -99999.0   117.0625     0.8326    45.5355   -99999.0    47.4703   -99999.0     3.3332   -99999.0     2.1683   -99999.0   985.7852     1.0113  -131.0829  1690.0000 
    901.5984     8.4531   -99999.0  1213.8307     0.0282   -99999.0   120.1250     0.8238    45.8178   -99999.0    49.0144   -99999.0     3.2378   -99999.0     2.2203   -99999.0   908.6418     1.0964  -129.9804  1730.0000 
    901.7508     8.4306   -99999.0  1227.8243     0.0205   -99999.0   121.1875     0.8145    47.2631   -99999.0    45.3946   -99999.0     3.2251   -99999.0     2.2041   -99999.0   958.9114     1.0388  -129.3027  1710.0000 
    901.9032     8.4121   -99999.0  1230.1025     0.0020   -99999.0   124.3750     0.8129    46.8763   -99999.0    45.7509   -99999.0     3.2976   -99999.0     2.1292   -99999.0  1096.3837     0.9096  -129.5934  1695.0000 
    902.0556     8.3984   -99999.0  1210.2594     0.0079   -99999.0   119.5000     0.8263    48.2388   -99999.0    50.1641   -99999.0     3.1356   -99999.0     2.1178   -99999.0  1009.8168     0.9869  -132.3718  1700.0000 
    902.2080     8.4501   -99999.0  1183.8384     0.0029   -99999.0   118.1250     0.8447    47.7947   -99999.0    55.5261   -99999.0     3.1753   -99999.0     2.1226   -99999.0  1016.0827     0.9801  -132.0528  1710.0000 
    902.3604     8.4062   -99999.0  1152.4742     0.0173   -99999.0   110.8750     0.8677    47.3919   -99999.0    47.2644   -99999.0     3.1016   -99999.0     2.1514   -99999.0  1074.5576     0.9270  -129.9400  1705.0000 
    902.5128     8.4062   -99999.0  1118.9535     0.0132   -99999.0   114.0625     0.8938    47.2236   -99999.0    44.7991   -99999.0     3.0097   -99999.0     2.1423   -99999.0  1134.5881     0.8779  -130.2077  1700.0000 
    902.6652     8.4062   -99999.0  1082.7898     0.0022   -99999.0   112.3750     0.9236    45.4995   -99999.0    45.9077   -99999.0     3.0919   -99999.0     2.1730   -99999.0  1092.0707     0.9120  -130.3644  1685.0000 
    902.8176     8.4375   -99999.0  1066.0198    -0.0034   -99999.0   117.0625     0.9381    44.9075   -99999.0    46.3823   -99999.0     3.1168   -99999.0     2.1621   -99999.0   875.0010     1.1431  -132.5492  1685.0000 
    902.9700     8.4375   -99999.0  1044.1671     0.0086   -99999.0   117.5000     0.9577    44.8886   -99999.0    51.3837   -99999.0     3.2215   -99999.0     2.2013   -99999.0   746.7717     1.3357  -133.8947  1685.0000 
    903.1224     8.4375   -99999.0  1024.5597     0.0035   -99999.0   119.6875     0.9761    46.6224   -99999.0    40.8440   -99999.0     3.0969   -99999.0     2.2069   -99999.0   714.0546     1.3946  -131.4816  1695.0000 
    903.2748     8.5622   -99999.0  1019.7642    -0.0025   -99999.0   120.1250     0.9806    45.1426   -99999.0    47.5192   -99999.0     3.4755   -99999.0     2.1795   -99999.0   762.1668     1.3070  -129.6474  1750.0000 
    903.4272     8.5000   -99999.0  1032.3893    -0.0077   -99999.0   118.8750     0.9686    46.6671   -99999.0    47.9318   -99999.0     3.4118   -99999.0     2.1273   -99999.0   815.3513     1.2217  -129.3855  1725.0000 
    903.5796     8.5000   -99999.0  1058.5695     0.0105   -99999.0   116.7500     0.9447    48.3093   -99999.0    54.1621   -99999.0     3.3451   -99999.0     2.1546   -99999.0   810.5009     1.2286  -129.0316  1725.0000 
    903.7320     8.5000   -99999.0  1095.8964     0.0059   -99999.0   114.7500     0.9126    49.2439   -99999.0    52.2460   -99999.0     3.4071   -99999.0     2.1925   -99999.0   893.3596     1.1156  -129.0000  1735.0000 
    903.8844     8.5781   -99999.0  1136.2557     0.0118   -99999.0   116.5000     0.8802    47.1813   -99999.0    43.8410   -99999.0     3.7960   -99999.0     2.2074   -99999.0   974.9750     1.0219  -129.0000  1700.0000 
    904.0368     8.4294   -99999.0  1170.4043    -0.0108   -99999.0   117.1875     0.8545    47.5588   -99999.0    59.0506   -99999.0     3.4954   -99999.0     2.1371   -99999.0  1096.2341     0.9094  -128.4277  1715.0000 
    904.1892     8.4252   -99999.0  1189.8959    -0.0080   -99999.0   120.6875     0.8404    48.1702   -99999.0    48.1976   -99999.0     3.2653   -99999.0     2.1185   -99999.0  1102.8617     0.9029  -129.0617  1705.0000 
    904.3416     8.4420   -99999.0  1195.1479     0.0053   -99999.0   117.9375     0.8367    46.7354   -99999.0    47.4186   -99999.0     3.1171   -99999.0     2.1240   -99999.0  1119.6659     0.8894  -128.6672  1720.0000 
    904.4940     8.4688   -99999.0  1191.4159     0.0107   -99999.0   120.8750     0.8393    45.4714   -99999.0    47.1955   -99999.0     3.4503   -99999.0     2.1423   -99999.0  1110.6234     0.8966  -128.5106  1715.0000 
    904.6464     8.4141   -99999.0  1182.6670     0.0096   -99999.0   118.4375     0.8456    45.1502   -99999.0    49.8698   -99999.0     3.1938   -99999.0     2.1722   -99999.0  1027.2180     0.9700  -129.1869  1735.0000 
