~VERSION INFORMATION                                                           
 VERS.           2.0: CWLS Log ASCII Standard - Version 2.0                    
 WRAP.            NO: One Line per Depth Step                                  
~WELL INFORMATION                                                              
#MNEM.UNIT              DATA            DESCRIPTION OF MNEMONIC                
#-----------            ----            -----------------------                
 STRT.M             952.00              :Start Depth                           
 STOP.M            1604.00              :Stop  Depth                           
 STEP.M             0.2000              :Step                                  
 NULL.              -99999.0            :Null Value                            
 COMP.     PETROLEO BRASILEIRO S/A      :Company                               
 ORIG.     SIGEO EXPORTACAO PERFIL      :Origem dos dados                      
 WELL.     7-LP-85-ES                   :Well                                  
 FLD.      LAGOA PARDA                  :Field                                 
 STAT.     ESPIRITO SANTO               :State                                 
 API.      342700026300                 :API Code                              
 X.                412944.10            :Surface X                             
 Y.               7831795.90            :Surface Y                             
 HZCS.           UTM                    :Horizontal Coordinate System          
 MC.               39 W                 :Meridiano Central
 LATI.           -19:36:25.186          :Latitude                              
 LONG.           -39:49:48.609          :Longitude                             
 GDAT.           SIRGAS2000             :Geodetic Datum                        
 LMF.            MR                     :Log Measure From                      
 EDF.M               8.00               :Elevation Derrick Floor               
 EGL.M               3.00               :GROUND ELEVATION                      
~CURVE INFORMATION                                                             
 DEPT.M                                 :Measured Depth                        
 CALI.in                                :CALIPER 
 DRHO.g/cm3                             :BULK DENSITIY CORRECTION 
 EFAC.Adim                              :ELETROFACIES 
 GR.gAPI                                :GAMMA RAY 
 ILD.ohm.m                              :INDUCTION DEEP RESISTIVITY 
 NPHI.%                                 :THERMAL NEUTRON POROSITY (ORIGINAL RATIO METHOD) IN SELECTED LITHOLOGY 
 RHOB.g/cm3                             :BULK DENSITY 
 SN.ohm.m                               :SHORT NORMAL RESISTIVITY 
 SP.mV                                  :SPONTANEOUS POTENTIAL 
 TENS.lbf                               :LINE TENSION 
 VSH.v/v                                :VOLUME DE FOLHELHO 
~ASCII LOG DATA                                                                
# ...
   1216.0000   -99999.0   -99999.0   -99999.0   -99999.0   -99999.0   -99999.0   -99999.0   -99999.0   -99999.0   -99999.0   -99999.0 
   1216.2000    10.4570     0.0887   -99999.0   112.4719     0.7261    50.6802     2.1977     1.1849    60.1648  1682.6089   -99999.0 
   1216.4000    10.2900     0.0866   -99999.0   111.3465     0.7184    49.7674     2.2024     1.1724    61.1000  1737.1299   -99999.0 
   1216.6000   -99999.0   -99999.0   -99999.0   -99999.0   -99999.0   -99999.0   -99999.0   -99999.0   -99999.0   -99999.0   -99999.0 
   1216.8000    10.2819     0.0901   -99999.0   114.9310     0.7187    48.4295     2.1960     1.1666    63.0071  1705.2651   -99999.0 
   1217.0000    10.2774     0.0942   -99999.0   112.8047     0.7221    52.6689     2.2012     1.1650    64.9675  1637.3923   -99999.0 
   1217.2000   -99999.0   -99999.0   -99999.0   -99999.0   -99999.0   -99999.0   -99999.0   -99999.0   -99999.0   -99999.0   -99999.0 
   1217.4000    10.3076     0.0931   -99999.0   112.7000     0.7295    58.0512     2.2118     1.1757    63.9588  1662.9592   -99999.0 
   1217.6000    10.2756     0.0819   -99999.0   111.4041     0.7380    59.0346     2.2049     1.2038    63.5926  1602.4080   -99999.0 
   1217.8000    10.2402     0.0697   -99999.0   110.6984     0.7424    60.0650     2.2022     1.2171    63.1508  1600.0000   -99999.0 
   1218.0000   -99999.0   -99999.0   -99999.0   -99999.0   -99999.0   -99999.0   -99999.0   -99999.0   -99999.0   -99999.0   -99999.0 
   1218.2000    10.2437     0.0600   -99999.0   111.5061     0.7496    54.2767     2.1995     1.2139    63.4187  1652.5171   -99999.0 
   1218.4000    10.2370     0.0638   -99999.0   107.2968     0.7547    49.6744     2.2013     1.2078    64.1071  1634.0000   -99999.0 
   1218.6000   -99999.0   -99999.0   -99999.0   -99999.0   -99999.0   -99999.0   -99999.0   -99999.0   -99999.0   -99999.0   -99999.0 
   1218.8000    10.2182     0.0753   -99999.0   106.4417     0.7599    51.7765     2.2084     1.2122    64.2430  1621.9619   -99999.0 
   1219.0000    10.1436     0.0855   -99999.0   108.9571     0.7761    51.7070     2.2113     1.2190    64.0000  1625.0000   -99999.0 
   1219.2000   -99999.0   -99999.0   -99999.0   -99999.0   -99999.0   -99999.0   -99999.0   -99999.0   -99999.0   -99999.0   -99999.0 
   1219.4000    10.0994     0.0844   -99999.0   110.1741     0.8129    47.5521     2.1958     1.2255    62.2412  1618.4121   -99999.0 
   1219.6000    10.3283     0.0756   -99999.0   107.5524     0.8547    48.1654     2.1887     1.2573    60.7075  1605.0000   -99999.0 
   1219.8000   -99999.0   -99999.0   -99999.0   -99999.0   -99999.0   -99999.0   -99999.0   -99999.0   -99999.0   -99999.0   -99999.0 
   1220.0000    10.4513     0.0887   -99999.0   102.7475     0.8757    51.5981     2.2256     1.2938    60.2000  1688.3281   -99999.0 
   1220.2000    10.8341     0.0931   -99999.0   100.9787     0.8866    50.9097     2.2375     1.3144    61.2417  1652.0708   -99999.0 
   1220.4000   -99999.0   -99999.0   -99999.0   -99999.0   -99999.0   -99999.0   -99999.0   -99999.0   -99999.0   -99999.0   -99999.0 
   1220.6000    11.1276     0.0786   -99999.0   104.8424     0.8786    45.8056     2.2169     1.2936    63.3424  1627.8149   -99999.0 
   1220.8000    10.7821     0.0613   -99999.0   104.7811     0.8518    45.7809     2.1866     1.2629    63.5905  1615.0786   -99999.0 
   1221.0000    10.5648     0.0565   -99999.0   102.2954     0.8245    47.9473     2.1788     1.2474    63.0516  1556.0000   -99999.0 
   1221.2000   -99999.0   -99999.0   -99999.0   -99999.0   -99999.0   -99999.0   -99999.0   -99999.0   -99999.0   -99999.0   -99999.0 
   1221.4000    10.5400     0.0592   -99999.0   106.5992     0.8095    50.9543     2.2046     1.2388    62.3020  1689.5000   -99999.0 
   1221.6000    10.5630     0.0539   -99999.0   116.2254     0.8068    51.7979     2.2188     1.2388    61.8530  1620.0000   -99999.0 
   1221.8000   -99999.0   -99999.0   -99999.0   -99999.0   -99999.0   -99999.0   -99999.0   -99999.0   -99999.0   -99999.0   -99999.0 
   1222.0000    10.5700     0.0552   -99999.0   119.3338     0.8117    49.8790     2.2250     1.2421    62.7067  1673.0000   -99999.0 
   1222.2000    10.4857     0.0549   -99999.0   120.4723     0.8155    49.2149     2.2222     1.2474    64.2723  1694.0630   -99999.0 
   1222.4000   -99999.0   -99999.0   -99999.0   -99999.0   -99999.0   -99999.0   -99999.0   -99999.0   -99999.0   -99999.0   -99999.0 
   1222.6000    10.4202     0.0493   -99999.0   120.4059     0.8166    48.2922     2.2223     1.2589    63.8693  1595.0000   -99999.0 
   1222.8000    10.4128     0.0493   -99999.0   120.4391     0.8178    51.7794     2.2140     1.2515    62.4496  1664.0237   -99999.0 
   1223.0000   -99999.0   -99999.0   -99999.0   -99999.0   -99999.0   -99999.0   -99999.0   -99999.0   -99999.0   -99999.0   -99999.0 
   1223.2000    10.3921     0.0531   -99999.0   122.8528     0.8170    53.6708     2.2116     1.2388    60.8264  1620.0000   -99999.0 
   1223.4000    10.2375     0.0623   -99999.0   116.4899     0.8085    50.8558     2.2223     1.2388    61.1304  1620.0000   -99999.0 
   1223.6000   -99999.0   -99999.0   -99999.0   -99999.0   -99999.0   -99999.0   -99999.0   -99999.0   -99999.0   -99999.0   -99999.0 
   1223.8000    10.0938     0.0608   -99999.0   106.1201     0.8054    50.1196     2.2120     1.2388    61.7004  1668.0000   -99999.0 
   1224.0000     9.8597     0.0494   -99999.0   107.9446     0.8054    52.5669     2.1904     1.2388    62.7157  1660.8162   -99999.0 
   1224.2000     9.7097     0.0594   -99999.0   108.1142     0.8008    49.9874     2.1999     1.2388    65.0334  1673.8110   -99999.0 
   1224.4000   -99999.0   -99999.0   -99999.0   -99999.0   -99999.0   -99999.0   -99999.0   -99999.0   -99999.0   -99999.0   -99999.0 
   1224.6000     9.6865     0.0622   -99999.0   110.9458     0.7919    45.1748     2.2065     1.2388    64.4949  1634.0000   -99999.0 
   1224.8000     9.5633     0.0638   -99999.0   122.1534     0.7820    46.0852     2.2144     1.2388    63.6950  1589.7769   -99999.0 
   1225.0000   -99999.0   -99999.0   -99999.0   -99999.0   -99999.0   -99999.0   -99999.0   -99999.0   -99999.0   -99999.0   -99999.0 
   1225.2000     9.5223     0.0671   -99999.0   117.0577     0.7756    48.9013     2.2049     1.2421    63.5451  1717.0000   -99999.0 
   1225.4000     9.4890     0.0591   -99999.0   109.1824     0.7745    51.1330     2.1731     1.2414    63.5098  1665.9382   -99999.0 
   1225.6000   -99999.0   -99999.0   -99999.0   -99999.0   -99999.0   -99999.0   -99999.0   -99999.0   -99999.0   -99999.0   -99999.0 
   1225.8000     9.5392     0.0537   -99999.0   109.4780     0.7733    57.2511     2.1615     1.2247    66.1566  1712.0000   -99999.0 
   1226.0000     9.6636     0.0517   -99999.0   112.8185     0.7790    58.1754     2.1786     1.2190    66.9636  1764.8281   -99999.0 
   1226.2000   -99999.0   -99999.0   -99999.0   -99999.0   -99999.0   -99999.0   -99999.0   -99999.0   -99999.0   -99999.0   -99999.0 
   1226.4000     9.6852     0.0626   -99999.0   110.5509     0.8159    50.5228     2.2066     1.2304    65.0605  1586.0000   -99999.0 
   1226.6000     9.7057     0.0687   -99999.0   104.3752     0.8421    46.3729     2.2220     1.2503    62.6089  1650.2310   -99999.0 
   1226.8000   -99999.0   -99999.0   -99999.0   -99999.0   -99999.0   -99999.0   -99999.0   -99999.0   -99999.0   -99999.0   -99999.0 
   1227.0000     9.7859     0.0838   -99999.0    91.3055     0.8871    42.2627     2.2586     1.2996    58.3613  1605.0000   -99999.0 
   1227.2000     9.8764     0.1052   -99999.0    89.0021     0.8975    39.6484     2.2427     1.3092    57.1363  1619.8044   -99999.0 
   1227.4000     9.9729     0.1331   -99999.0    89.5114     0.8978    40.3360     2.1936     1.3092    55.5126  1634.0000   -99999.0 
   1227.6000   -99999.0   -99999.0   -99999.0   -99999.0   -99999.0   -99999.0   -99999.0   -99999.0   -99999.0   -99999.0   -99999.0 
   1227.8000    10.2497     0.1582   -99999.0    85.3392     0.8670    47.2055     2.0927     1.2843    51.6580  1671.7349   -99999.0 
