~VERSION INFORMATION                                                           
 VERS.           2.0: CWLS Log ASCII Standard - Version 2.0                    
 WRAP.            NO: One Line per Depth Step                                  
~WELL INFORMATION                                                              
#MNEM.UNIT              DATA            DESCRIPTION OF MNEMONIC                
#-----------            ----            -----------------------                
 STRT.M             789.58              :Start Depth                           
 STOP.M            1481.02              :Stop  Depth                           
 STEP.M             0.1524              :Step                                  
 NULL.              -99999.0            :Null Value                            
 COMP.     PETROLEO BRASILEIRO S/A      :Company                               
 ORIG.     SIGEO EXPORTACAO PERFIL      :Origem dos dados                      
 WELL.     7-LP-88-ES                   :Well                                  
 FLD.      LAGOA PARDA                  :Field                                 
 STAT.     ESPIRITO SANTO               :State                                 
 API.      342700034000                 :API Code                              
 X.                410166.50            :Surface X                             
 Y.               7830454.00            :Surface Y                             
 HZCS.           UTM                    :Horizontal Coordinate System          
 MC.               39 W                 :Meridiano Central
 LATI.           -19:37:08.391          :Latitude                              
 LONG.           -39:51:24.187          :Longitude                             
 GDAT.           SIRGAS2000             :Geodetic Datum                        
 LMF.            MR                     :Log Measure From                      
 EDF.M              10.00               :Elevation Derrick Floor               
 EGL.M               4.80               :GROUND ELEVATION                      
~CURVE INFORMATION                                                             
 DEPT.M                                 :Measured Depth                        
 CALI.in                                :CALIPER 
 CALI.in                                :CALIPER 
 CILD.mS/m                              :CALIBRATED DEEP INDUCTION CONDUCTIVITY 
 DRHO.g/cm3                             :BULK DENSITIY CORRECTION 
 DRHO.g/cm3                             :BULK DENSITIY CORRECTION 
 GR.gAPI                                :GAMMA RAY 
 ILD.ohm.m                              :INDUCTION DEEP RESISTIVITY 
 NPHI.%                                 :THERMAL NEUTRON POROSITY (ORIGINAL RATIO METHOD) IN SELECTED LITHOLOGY 
 NPHI.%                                 :THERMAL NEUTRON POROSITY (ORIGINAL RATIO METHOD) IN SELECTED LITHOLOGY 
 NPOR.%                                 :NEUTRON POROSITY (ENVIRONMENTALLY CORRECTED AND ALPHA PROCESSED) 
 NPOR.%                                 :NEUTRON POROSITY (ENVIRONMENTALLY CORRECTED AND ALPHA PROCESSED) 
 PEF.Adim                               :PHOTOELETRIC FACTOR 
 PEF.Adim                               :PHOTOELETRIC FACTOR 
 RHOB.g/cm3                             :BULK DENSITY 
 RHOB.g/cm3                             :BULK DENSITY 
 RSFL.uohm                              :Raw SFL Conductivity 
 SFLU.ohm.m                             :SFL RESISTIVITY UNAVERAGED 
 SP.mV                                  :SPONTANEOUS POTENTIAL 
 TENS.lbf                               :LINE TENSION 
~ASCII LOG DATA                                                                
# ...
   1376.6289   -99999.0     8.6484   586.4824   -99999.0     0.0077   118.0000     1.7051   -99999.0    26.3673   -99999.0    27.9592   -99999.0     3.9531   -99999.0     2.4247   626.0244     1.5907   -95.4676  2300.0000 
   1376.7813   -99999.0     8.6094   589.2810   -99999.0     0.0101   114.3750     1.6970   -99999.0    24.5870   -99999.0    23.2083   -99999.0     4.3125   -99999.0     2.4735   550.1558     1.8125   -94.7002  2225.0000 
   1376.9337   -99999.0     8.7734   609.1653   -99999.0     0.0079   100.7500     1.6418   -99999.0    23.1010   -99999.0    18.2549   -99999.0     4.2031   -99999.0     2.4958   345.3190     2.9422   -93.8249  2210.0000 
   1377.0861   -99999.0     8.6094   617.0272   -99999.0     0.0134    97.0000     1.6207   -99999.0    21.8827   -99999.0    20.0370   -99999.0     4.1758   -99999.0     2.5034   319.6042     3.1147   -92.9502  2230.0000 
   1377.2385   -99999.0     8.6406   646.5699   -99999.0     0.0130    97.1250     1.5469   -99999.0    22.0675   -99999.0    21.3738   -99999.0     3.8301   -99999.0     2.4709   322.8438     3.0834   -92.8750  2155.0000 
   1377.3909   -99999.0     8.7031   691.2502   -99999.0     0.0210   103.5625     1.4472   -99999.0    23.8250   -99999.0    23.5639   -99999.0     3.5293   -99999.0     2.4574   398.2822     2.5097   -93.1035  2215.0000 
   1377.5433   -99999.0     8.7266   712.5446   -99999.0     0.0371   110.0000     1.4035   -99999.0    26.0275   -99999.0    24.8659   -99999.0     3.3301   -99999.0     2.4261   490.2507     2.0376   -93.2393  2275.0000 
   1377.6957   -99999.0     8.6406   740.3624   -99999.0     0.0710   114.3125     1.3509   -99999.0    28.0483   -99999.0    28.9684   -99999.0     3.2695   -99999.0     2.4273   568.1163     1.7554   -93.0213  2285.0000 
   1377.8481   -99999.0     8.6250   789.6725   -99999.0     0.0753   116.3125     1.2668   -99999.0    29.8240   -99999.0    33.9756   -99999.0     3.3203   -99999.0     2.3839   708.6776     1.4108   -92.3143  2315.0000 
   1378.0005   -99999.0     8.6172   820.8968   -99999.0     0.1184   114.6250     1.2183   -99999.0    31.2591   -99999.0    29.4829   -99999.0     3.4766   -99999.0     2.4208   814.0998     1.2248   -92.3642  2245.0000 
   1378.1529   -99999.0     8.5312   850.8809   -99999.0     0.0896   110.5625     1.1754   -99999.0    31.9869   -99999.0    29.6262   -99999.0     3.4453   -99999.0     2.3871   742.2192     1.3429   -92.1465  2215.0000 
   1378.3053   -99999.0     8.5312   892.7532   -99999.0     0.0785   111.6250     1.1203   -99999.0    32.0486   -99999.0    29.8472   -99999.0     3.4844   -99999.0     2.3836   700.6763     1.4214   -92.0107  2375.0000 
   1378.4577   -99999.0     8.4375   904.7798   -99999.0     0.0545   112.8125     1.1053   -99999.0    32.1560   -99999.0    31.5486   -99999.0     3.4043   -99999.0     2.3638   670.8925     1.4844   -91.6572  2320.0000 
   1378.6101   -99999.0     8.5312   903.8671   -99999.0     0.0610   113.0625     1.1064   -99999.0    32.5820   -99999.0    34.2207   -99999.0     3.7363   -99999.0     2.3860   692.8665     1.4373   -91.9676  2245.0000 
   1378.7625   -99999.0     8.7812   899.2740   -99999.0     0.0698   116.1875     1.1120   -99999.0    32.8298   -99999.0    31.6587   -99999.0     3.6699   -99999.0     2.4139   719.8234     1.3835   -92.9140  2345.0000 
   1378.9149   -99999.0     8.8359   895.6102   -99999.0     0.0358   116.4375     1.1166   -99999.0    32.6216   -99999.0    32.7887   -99999.0     3.7051   -99999.0     2.3744   730.6332     1.3629   -93.8001  2370.0000 
   1379.0673   -99999.0     8.8438   903.0316   -99999.0     0.0596   115.5000     1.1074   -99999.0    32.1974   -99999.0    35.8963   -99999.0     3.5605   -99999.0     2.3974   776.1487     1.2834   -92.9610  2255.0000 
   1379.2197   -99999.0     8.8281   920.3015   -99999.0     0.0518   110.1875     1.0866   -99999.0    32.0098   -99999.0    32.6574   -99999.0     3.5234   -99999.0     2.3843   745.0915     1.3367   -91.6179  2285.0000 
   1379.3721   -99999.0     8.5781   925.2789   -99999.0     0.0652   109.8750     1.0808   -99999.0    32.4105   -99999.0    28.6169   -99999.0     3.4141   -99999.0     2.4013   691.5197     1.4406   -91.7285  2345.0000 
   1379.5245   -99999.0     8.8203   921.9558   -99999.0     0.0552   114.2500     1.0847   -99999.0    32.7569   -99999.0    31.2526   -99999.0     3.3066   -99999.0     2.3668   703.2743     1.4159   -92.3214  2270.0000 
   1379.6769   -99999.0     8.7578   905.6152   -99999.0     0.0800   114.3125     1.1043   -99999.0    33.0568   -99999.0    35.6472   -99999.0     3.4902   -99999.0     2.3834   830.4147     1.2021   -92.3750  2265.0000 
   1379.8293   -99999.0     8.7266   891.4333   -99999.0     0.0559   111.2500     1.1218   -99999.0    32.9746   -99999.0    37.0638   -99999.0     3.5684   -99999.0     2.3610   871.8552     1.1423   -91.9179  2335.0000 
   1379.9817   -99999.0     8.7812   890.1219   -99999.0     0.0222   104.3125     1.1234   -99999.0    33.1919   -99999.0    29.3762   -99999.0     3.5898   -99999.0     2.3591   775.4303     1.2859   -91.6466  2290.0000 
   1380.1341   -99999.0     8.8281   893.2961   -99999.0     0.0058   101.7500     1.1195   -99999.0    32.9708   -99999.0    29.8577   -99999.0     3.5195   -99999.0     2.3657   691.1479     1.4421   -91.7393  2225.0000 
   1380.2865   -99999.0     8.9062   889.9980   -99999.0     0.0118   104.1250     1.1236   -99999.0    33.3091   -99999.0    31.1583   -99999.0     3.4941   -99999.0     2.3806   645.8953     1.5421   -92.4359  2290.0000 
   1380.4389   -99999.0     8.9688   877.7595   -99999.0     0.0247   105.8750     1.1393   -99999.0    33.3120   -99999.0    33.0161   -99999.0     3.3965   -99999.0     2.3640   663.0519     1.5019   -92.6143  2270.0000 
   1380.5913   -99999.0     8.7656   860.9953   -99999.0     0.0453   110.9375     1.1615   -99999.0    33.8535   -99999.0    35.8755   -99999.0     3.3809   -99999.0     2.3603   722.2675     1.3795   -92.9676  2295.0000 
   1380.7437   -99999.0     8.7266   849.5449   -99999.0     0.0587   116.2500     1.1771   -99999.0    33.6780   -99999.0    38.8515   -99999.0     3.3438   -99999.0     2.3625   796.2263     1.2515   -92.6573  2310.0000 
   1380.8961   -99999.0     8.7031   846.3405   -99999.0     0.0670   116.3125     1.1816   -99999.0    33.5565   -99999.0    30.8502   -99999.0     3.3145   -99999.0     2.3741   797.2903     1.2489   -92.0535  2245.0000 
   1381.0485   -99999.0     8.6719   848.1479   -99999.0     0.0891   118.0625     1.1790   -99999.0    33.1715   -99999.0    30.8768   -99999.0     3.1992   -99999.0     2.3843   768.7134     1.2955   -92.0000  2265.0000 
   1381.2009   -99999.0     8.6953   846.8209   -99999.0     0.1196   114.5000     1.1809   -99999.0    33.4630   -99999.0    32.2535   -99999.0     3.1523   -99999.0     2.3977   719.2147     1.3850   -93.0286  2330.0000 
   1381.3533   -99999.0     8.7500   841.3618   -99999.0     0.1532   115.3750     1.1886   -99999.0    34.0183   -99999.0    36.3216   -99999.0     3.1523   -99999.0     2.4363   757.0897     1.3156   -93.8104  2295.0000 
   1381.5057   -99999.0     8.9922   835.1850   -99999.0     0.1275   112.0000     1.1973   -99999.0    34.8577   -99999.0    34.6347   -99999.0     3.2500   -99999.0     2.4255   785.8856     1.2672   -92.7322  2335.0000 
   1381.6581   -99999.0     8.9141   824.8983   -99999.0     0.1044   110.1875     1.2123   -99999.0    35.1549   -99999.0    36.2196   -99999.0     3.2773   -99999.0     2.4105   777.9250     1.2800   -92.8536  2345.0000 
   1381.8105   -99999.0     8.8281   814.2507   -99999.0     0.1059   113.3125     1.2281   -99999.0    35.0610   -99999.0    33.9606   -99999.0     3.4043   -99999.0     2.3977   742.1913     1.3419   -92.8750  2320.0000 
   1381.9629   -99999.0     8.8281   805.1355   -99999.0     0.1269   119.1875     1.2420   -99999.0    35.0943   -99999.0    36.5885   -99999.0     3.4297   -99999.0     2.4126   747.5767     1.3320   -93.2177  2305.0000 
