~VERSION INFORMATION                                                           
 VERS.           2.0: CWLS Log ASCII Standard - Version 2.0                    
 WRAP.            NO: One Line per Depth Step                                  
~WELL INFORMATION                                                              
#MNEM.UNIT              DATA            DESCRIPTION OF MNEMONIC                
#-----------            ----            -----------------------                
 STRT.M             898.09              :Start Depth                           
 STOP.M            1708.40              :Stop  Depth                           
 STEP.M             0.1524              :Step                                  
 NULL.              -99999.0            :Null Value                            
 COMP.     PETROLEO BRASILEIRO S/A      :Company                               
 ORIG.     SIGEO EXPORTACAO PERFIL      :Origem dos dados                      
 WELL.     7-LP-84-ES                   :Well                                  
 FLD.      LAGOA PARDA                  :Field                                 
 STAT.     ESPIRITO SANTO               :State                                 
 API.      342700024200                 :API Code                              
 X.                411577.00            :Surface X                             
 Y.               7831472.80            :Surface Y                             
 HZCS.           UTM                    :Horizontal Coordinate System          
 MC.               39 W                 :Meridiano Central
 LATI.           -19:36:35.478          :Latitude                              
 LONG.           -39:50:35.593          :Longitude                             
 GDAT.           SIRGAS2000             :Geodetic Datum                        
 LMF.            MR                     :Log Measure From                      
 EDF.M               9.00               :Elevation Derrick Floor               
 EGL.M               4.40               :GROUND ELEVATION                      
~CURVE INFORMATION                                                             
 DEPT.M                                 :Measured Depth                        
 CALI.in                                :CALIPER 
 CILD.mS/m                              :CALIBRATED DEEP INDUCTION CONDUCTIVITY 
 DRHO.g/cm3                             :BULK DENSITIY CORRECTION 
 EFAC.Adim                              :ELETROFACIES 
 GR.gAPI                                :GAMMA RAY 
 ILD.ohm.m                              :INDUCTION DEEP RESISTIVITY 
 NPHI.%                                 :THERMAL NEUTRON POROSITY (ORIGINAL RATIO METHOD) IN SELECTED LITHOLOGY 
 NPOR.%                                 :NEUTRON POROSITY (ENVIRONMENTALLY CORRECTED AND ALPHA PROCESSED) 
 RHOB.g/cm3                             :BULK DENSITY 
 SFLU.ohm.m                             :SFL RESISTIVITY UNAVERAGED 
 SP.mV                                  :SPONTANEOUS POTENTIAL 
 TENS.lbf                               :LINE TENSION 
 VSH.v/v                                :VOLUME DE FOLHELHO 
~ASCII LOG DATA                                                                
# ...
   1652.0150    10.2305  1018.5225     0.0067   -99999.0   127.1250     0.9832    46.2357    50.5249     1.8558     1.2189   -20.7695  2018.7500     0.9848 
   1652.1674    10.8408  1015.2854    -0.0154   -99999.0   128.9531     0.9838    44.1910    46.5790     1.8420     1.1881   -20.1992  2007.5000     0.9958 
   1652.3198    10.9916  1016.8269     0.0162   -99999.0   127.8125     0.9832    41.9357    46.5461     1.9376     1.1602   -19.6875  2006.2500     0.9993 
   1652.4722    11.0621  1019.5811     0.0241   -99999.0   125.5781     0.9791    42.4686    45.8466     1.9474     1.1731   -19.4531  2002.5000     1.0000 
   1652.6246    11.0159  1029.5449     0.0599   -99999.0   125.4062     0.9712    42.7654    44.4519     2.0224     1.2105   -19.4062  1995.0000     1.0000 
   1652.7770    11.4355  1039.9424     0.0414   -99999.0   127.4531     0.9635    41.8297    41.2628     2.0134     1.2266   -19.0547  1996.2500     1.0000 
   1652.9294    10.8779  1042.2708     0.0999   -99999.0   129.4688     0.9613    42.4049    45.1874     2.1592     1.2067   -18.4258  2007.5000     1.0000 
   1653.0818    11.1472  1036.5671     0.0810   -99999.0   129.4688     0.9669    39.6210    46.3554     2.1159     1.1673   -18.0117  2022.5000     1.0000 
   1653.2342    11.7158  1021.7554     0.0644   -99999.0   128.4375     0.9825    39.5668    41.3696     1.9548     1.1418   -17.8281  2027.5000     1.0000 
   1653.3866    10.9180   992.3606    -0.0027   -99999.0   128.3750     1.0076    42.5446    44.4153     1.8289     1.1340   -17.7422  2015.0000     1.0000 
   1653.5390    10.8052   965.0913    -0.0131   -99999.0   129.9375     1.0340    42.9951    43.9941     1.8665     1.1291   -17.7734  2005.0000     1.0000 
   1653.6914     9.3359   947.0088     0.0055   -99999.0   130.4375     1.0552    41.7953    40.8264     1.9817     1.1797   -17.6875  2012.5000     1.0000 
   1653.8438     9.8257   932.3000     0.0328   -99999.0   129.7188     1.0762    38.6597    36.0474     2.2261     1.3090   -17.5703  2023.7500     1.0000 
   1653.9962     8.7549   906.1484     0.0078   -99999.0   131.0312     1.1068    38.5351    38.8641     2.1848     1.4506   -17.7578  2030.0000     1.0000 
   1654.1486     9.3950   871.3713     0.0122   -99999.0   134.1875     1.1500    38.3022    41.8091     2.0582     1.5198   -17.8594  2033.7500     1.0000 
   1654.3010     9.7170   832.5688     0.0796   -99999.0   135.7500     1.1976    39.4791    41.4249     2.1843     1.4913   -17.5352  2031.2500     1.0000 
   1654.4534     9.5789   806.0483    -0.0020   -99999.0   133.2500     1.2282    37.7670    36.7798     2.0902     1.4829   -17.3398  2023.7500     1.0000 
   1654.6058     9.2671   812.6306     0.0166   -99999.0   129.7500     1.2284    33.0841    32.9285     2.1755     1.5901   -17.8555  2025.0000     1.0000 
   1654.7582     8.5195   825.2134     0.0767   -99999.0   128.2812     1.2135    37.4115    35.3760     2.2587     1.7059   -18.9805  2035.0000     1.0000 
   1654.9106     9.1919   833.3914     0.0933   -99999.0   128.4375     1.2026    44.3726    42.1082     2.1332     1.6802   -19.4805  2031.2500     1.0000 
   1655.0630     9.5762   834.2297     0.0283   -99999.0   130.1250     1.2016    41.3879    48.0713     2.0510     1.5726   -18.8047  2008.7500     1.0000 
   1655.2154     9.0728   826.9749     0.1294   -99999.0   133.0625     1.2070    39.7491    42.2607     2.2242     1.5078   -17.9023  1990.0000     1.0000 
   1655.3678     9.5288   825.7930     0.0012   -99999.0   135.5000     1.2171    41.4307    38.2263     2.0948     1.4892   -16.7363  1988.7500     1.0000 
   1655.5202     9.3135   808.3577     0.0853   -99999.0   133.8438     1.2459    44.9677    48.2178     2.1397     1.4808   -15.5078  1997.5000     1.0000 
   1655.6726    10.0898   770.0823     0.0065   -99999.0   126.9375     1.3004    45.5318    50.5615     1.9591     1.4911   -16.2520  2006.2500     1.0000 
   1655.8250     9.3477   731.4146     0.0316   -99999.0   116.7344     1.3702    40.2161    39.3677     2.0135     1.5441   -19.1211  2018.7500     0.9698 
   1655.9774     8.8540   690.6494    -0.0278   -99999.0   108.2969     1.4591    31.0730    31.0852     2.1020     1.7412   -21.2969  2030.0000     0.7840 
   1656.1298     8.5171   635.6150    -0.0046   -99999.0   105.9688     1.5737    31.4453    29.7318     2.3750     2.0977   -22.7812  2021.2500     0.6824 
   1656.2822     8.5778   588.1697    -0.0136   -99999.0   106.8750     1.7002    30.8128    35.8826     2.1777     2.4150   -27.4844  2003.7500     0.6880 
   1656.4346     8.9824   547.3601    -0.0187   -99999.0   108.5469     1.8472    23.1689    23.7793     2.1371     2.6766   -34.9805  2008.7500     0.7452 
   1656.5870     8.3394   491.4639    -0.0617   -99999.0   112.0938     2.0372    21.8353    14.2456     2.1029     2.8749   -38.7734  2030.0000     0.7080 
   1656.7394     8.3437   443.9792    -0.0503   -99999.0   115.8594     2.2325    28.2471    25.9277     2.2034     2.9071   -36.8984  2036.2500     0.7087 
   1656.8918     8.4137   418.3174     0.0052   -99999.0   114.3281     2.3868    25.0702    30.4260     2.4326     2.9227   -33.7305  2028.7500     0.6799 
   1657.0442     8.4685   397.8064    -0.0198   -99999.0   108.0781     2.5098    15.4663    15.7349     2.5842     3.4036   -31.4844  2021.2500     0.6198 
   1657.1966     8.3832   381.5427    -0.0130   -99999.0   104.8125     2.5825    18.3411    12.4817     2.6737     4.2484   -30.3359  2015.0000     0.5363 
   1657.3490     8.4061   388.4341    -0.0043   -99999.0   107.3906     2.5736    24.1150    22.0947     2.4949     4.4839   -33.4531  2011.2500     0.5957 
   1657.5014     8.3985   396.1128    -0.0443   -99999.0   112.1406     2.5533    24.2126    23.7885     2.2102     4.0846   -41.2148  2006.2500     0.5693 
   1657.6538     8.3829   386.1738    -0.0616   -99999.0   116.8750     2.5615    24.7025    20.3430     2.1528     3.7289   -45.3281  2002.5000     0.5283 
   1657.8062     8.4139   393.3120    -0.0519   -99999.0   120.5156     2.5308    28.0670    26.6846     2.2299     3.4067   -42.7422  2005.0000     0.5433 
   1657.9586     8.4063   408.3870    -0.0303   -99999.0   120.8281     2.4914    27.2545    30.2002     2.2708     3.0834   -41.6328  2007.5000     0.5565 
   1658.1110     8.3829   395.9060    -0.0471   -99999.0   117.9531     2.5333    24.3378    23.4985     2.1466     2.9692   -42.9922  2001.2500     0.5506 
   1658.2634     8.3361   379.8064    -0.0220   -99999.0   113.1250     2.6044    25.8575    25.6805     2.2261     3.0859   -42.7500  1991.2500     0.5256 
   1658.4158     8.4138   380.8333    -0.0163   -99999.0   106.7969     2.6453    23.4070    29.0558     2.2503     3.5188   -45.9453  1995.0000     0.4765 
   1658.5682     8.4374   370.8306    -0.0528   -99999.0    99.9844     2.6850    17.9077    16.2964     2.1182     4.4918   -52.5859  2010.0000     0.3641 
   1658.7206     8.4608   367.5442    -0.0513   -99999.0    98.4531     2.6923    18.2281    13.0951     2.1169     5.5767   -54.5000  2021.2500     0.3434 
   1658.8730     8.3754   380.0615    -0.0645   -99999.0   104.3438     2.6416    20.4758    18.1152     2.1427     5.8534   -51.0703  2023.7500     0.3899 
   1659.0254     8.3906   387.1040    -0.0316   -99999.0   111.1406     2.5798    23.5565    21.5240     2.2191     5.1244   -45.6797  2017.5000     0.4900 
   1659.1778     8.4140   396.5894     0.0019   -99999.0   114.1250     2.5025    27.8809    25.8423     2.3231     4.0261   -39.6250  2010.0000     0.6242 
   1659.3302     8.3907   419.5405     0.0063   -99999.0   115.3438     2.3713    29.6219    30.8044     2.4014     3.1563   -36.4609  2008.7500     0.6630 
   1659.4826     8.3906   455.2236    -0.0172   -99999.0   118.0156     2.2205    27.7252    28.1342     2.2838     2.7624   -38.1719  2015.0000     0.6643 
   1659.6350     8.3906   475.0569    -0.0416   -99999.0   121.1875     2.1510    27.0149    24.9390     2.2434     2.6746   -40.4922  2025.0000     0.6547 
