~VERSION INFORMATION                                                           
 VERS.           2.0: CWLS Log ASCII Standard - Version 2.0                    
 WRAP.            NO: One Line per Depth Step                                  
~WELL INFORMATION                                                              
#MNEM.UNIT              DATA            DESCRIPTION OF MNEMONIC                
#-----------            ----            -----------------------                
 STRT.M             789.58              :Start Depth                           
 STOP.M            1481.02              :Stop  Depth                           
 STEP.M             0.1524              :Step                                  
 NULL.              -99999.0            :Null Value                            
 COMP.     PETROLEO BRASILEIRO S/A      :Company                               
 ORIG.     SIGEO EXPORTACAO PERFIL      :Origem dos dados                      
 WELL.     7-LP-88-ES                   :Well                                  
 FLD.      LAGOA PARDA                  :Field                                 
 STAT.     ESPIRITO SANTO               :State                                 
 API.      342700034000                 :API Code                              
 X.                410166.50            :Surface X                             
 Y.               7830454.00            :Surface Y                             
 HZCS.           UTM                    :Horizontal Coordinate System          
 MC.               39 W                 :Meridiano Central
 LATI.           -19:37:08.391          :Latitude                              
 LONG.           -39:51:24.187          :Longitude                             
 GDAT.           SIRGAS2000             :Geodetic Datum                        
 LMF.            MR                     :Log Measure From                      
 EDF.M              10.00               :Elevation Derrick Floor               
 EGL.M               4.80               :GROUND ELEVATION                      
~CURVE INFORMATION                                                             
 DEPT.M                                 :Measured Depth                        
 CALI.in                                :CALIPER 
 CALI.in                                :CALIPER 
 CILD.mS/m                              :CALIBRATED DEEP INDUCTION CONDUCTIVITY 
 DRHO.g/cm3                             :BULK DENSITIY CORRECTION 
 DRHO.g/cm3                             :BULK DENSITIY CORRECTION 
 GR.gAPI                                :GAMMA RAY 
 ILD.ohm.m                              :INDUCTION DEEP RESISTIVITY 
 NPHI.%                                 :THERMAL NEUTRON POROSITY (ORIGINAL RATIO METHOD) IN SELECTED LITHOLOGY 
 NPHI.%                                 :THERMAL NEUTRON POROSITY (ORIGINAL RATIO METHOD) IN SELECTED LITHOLOGY 
 NPOR.%                                 :NEUTRON POROSITY (ENVIRONMENTALLY CORRECTED AND ALPHA PROCESSED) 
 NPOR.%                                 :NEUTRON POROSITY (ENVIRONMENTALLY CORRECTED AND ALPHA PROCESSED) 
 PEF.Adim                               :PHOTOELETRIC FACTOR 
 PEF.Adim                               :PHOTOELETRIC FACTOR 
 RHOB.g/cm3                             :BULK DENSITY 
 RHOB.g/cm3                             :BULK DENSITY 
 RSFL.uohm                              :Raw SFL Conductivity 
 SFLU.ohm.m                             :SFL RESISTIVITY UNAVERAGED 
 SP.mV                                  :SPONTANEOUS POTENTIAL 
 TENS.lbf                               :LINE TENSION 
~ASCII LOG DATA                                                                
# ...
   1458.9249   -99999.0     8.3750    37.7069   -99999.0     0.0683    60.2500    26.5234   -99999.0     2.0435   -99999.0     2.6557   -99999.0     2.7754   -99999.0     2.6800    17.5153    56.2898  -128.0390  2360.0000 
   1459.0773   -99999.0     8.3750    35.6844   -99999.0     0.0777    60.0000    28.0305   -99999.0     1.9690   -99999.0     3.6965   -99999.0     2.7832   -99999.0     2.7073    17.5000    56.3382  -127.8964  2405.0000 
   1459.2297   -99999.0     8.4062    34.4022   -99999.0     0.0368    63.5312    29.0707   -99999.0     1.9600   -99999.0     3.7404   -99999.0     2.8555   -99999.0     2.6681    19.4587    50.7711  -127.6465  2325.0000 
   1459.3821   -99999.0     8.4531    34.0010   -99999.0     0.0236    78.3750    29.4111   -99999.0     1.9365   -99999.0     2.4407   -99999.0     2.9121   -99999.0     2.6536    20.6217    47.8934  -127.1682  2435.0000 
   1459.5345   -99999.0     8.5000    34.3514   -99999.0     0.0091    97.5000    29.1112   -99999.0     1.8447   -99999.0     2.5682   -99999.0     3.1152   -99999.0     2.6335    20.5511    48.0464  -127.5820  2340.0000 
   1459.6869   -99999.0     8.5000    34.1030   -99999.0     0.0178   102.7500    29.3231   -99999.0     1.7166   -99999.0     4.0477   -99999.0     2.9277   -99999.0     2.6383    17.1072    57.7993  -128.1964  2355.0000 
   1459.8393   -99999.0     8.3906    33.8241   -99999.0     0.0169    89.0625    29.5649   -99999.0     1.5980   -99999.0     3.0868   -99999.0     2.7695   -99999.0     2.6388    15.4801    63.6443  -128.3642  2505.0000 
   1459.9917   -99999.0     8.4297    33.4897   -99999.0     0.0253    79.5625    29.8602   -99999.0     1.4706   -99999.0     1.7500   -99999.0     2.5645   -99999.0     2.6405    14.8678    66.2006  -128.3750  2400.0000 
   1460.1441   -99999.0     8.4453    33.1765   -99999.0     0.0170    83.3750    30.1420   -99999.0     1.2918   -99999.0     1.5119   -99999.0     2.5566   -99999.0     2.6342    13.6792    71.9145  -128.8319  2330.0000 
   1460.2965   -99999.0     8.4062    31.4840   -99999.0     0.0126    94.1250    31.7702   -99999.0     1.0944   -99999.0     1.4197   -99999.0     2.6211   -99999.0     2.6192     9.3271   106.1924  -129.3321  2430.0000 
   1460.4489   -99999.0     8.4219    29.8395   -99999.0     0.0226    90.7500    33.5202   -99999.0     0.9564   -99999.0     1.2100   -99999.0     2.6582   -99999.0     2.6332     7.7863   125.2612  -129.3750  2475.0000 
   1460.6013   -99999.0     8.4141    30.8942   -99999.0     0.0201    79.2500    32.3733   -99999.0     0.8809   -99999.0     1.3835   -99999.0     2.7207   -99999.0     2.6279     7.1893   135.2327  -129.9458  2335.0000 
   1460.7537   -99999.0     8.5469    32.8928   -99999.0     0.0313    69.3750    30.4118   -99999.0     0.8436   -99999.0     1.1512   -99999.0     2.7891   -99999.0     2.6445     6.1639   157.3434  -129.8858  2400.0000 
   1460.9061   -99999.0     8.6250    34.7292   -99999.0     0.0275    66.7500    28.8007   -99999.0     0.7957   -99999.0     0.9479   -99999.0     3.0449   -99999.0     2.6477     5.5818   173.0123  -129.8750  2410.0000 
   1461.0585   -99999.0     8.4219    42.4820   -99999.0     0.0132    69.0625    23.6238   -99999.0     0.7901   -99999.0     0.9057   -99999.0     3.1797   -99999.0     2.6209     6.1889   156.5882  -129.8750  2435.0000 
   1461.2109   -99999.0     8.5469    54.6144   -99999.0     0.0215    68.7500    18.4036   -99999.0     0.8923   -99999.0     0.9850   -99999.0     3.1602   -99999.0     2.6176    14.5742    71.9169  -129.7607  2400.0000 
   1461.3633   -99999.0     8.4766    57.8440   -99999.0     0.0168    67.1875    17.2902   -99999.0     1.1981   -99999.0     1.3927   -99999.0     2.8828   -99999.0     2.5725    45.7016    24.2043  -129.8642  2335.0000 
   1461.5157   -99999.0     8.4062    61.3060   -99999.0     0.0789    65.5000    16.3162   -99999.0     1.6773   -99999.0     2.0870   -99999.0     2.9043   -99999.0     2.6129    64.0750    15.6103  -130.3320  2365.0000 
   1461.6681   -99999.0     8.4297    71.0963   -99999.0     0.1363    68.1875    14.0922   -99999.0     2.3789   -99999.0     3.3021   -99999.0     2.9980   -99999.0     2.6356    51.3319    19.4464  -130.6036  2445.0000 
   1461.8205   -99999.0     8.3984    88.6534   -99999.0     0.1980    71.0000    11.3253   -99999.0     3.0947   -99999.0     5.1880   -99999.0     2.9961   -99999.0     2.6904    24.8677    41.8450  -130.6250  2420.0000 
   1461.9729   -99999.0     8.4297   102.6913   -99999.0     0.1559    76.1250     9.7532   -99999.0     4.0039   -99999.0     5.4414   -99999.0     2.8184   -99999.0     2.6442     4.3937   322.2307  -130.8534  2330.0000 
   1462.1253   -99999.0     8.3516   118.9289   -99999.0     0.0796    78.0000     8.4228   -99999.0     5.6366   -99999.0     4.0706   -99999.0     2.7109   -99999.0     2.5827    -1.7271  1857.5994  -131.7888  2430.0000 
   1462.2777   -99999.0     8.5078   165.0856   -99999.0     0.0288    81.3750     6.1133   -99999.0     7.9745   -99999.0     5.0744   -99999.0     2.8828   -99999.0     2.5309    -0.0207  1770.6656  -131.5322  2385.0000 
   1462.4301   -99999.0     8.4453   195.9667   -99999.0     0.0149    81.2500     5.1131   -99999.0    10.7364   -99999.0     6.7353   -99999.0     3.0156   -99999.0     2.5084    60.0635   164.6295  -132.1853  2365.0000 
   1462.5825   -99999.0     8.3750   218.7360   -99999.0     0.0148    80.4375     4.5758   -99999.0    13.1861   -99999.0    13.7259   -99999.0     3.1973   -99999.0     2.4771   224.5707     5.1029  -132.8208  2385.0000 
   1462.7349   -99999.0     8.3750   243.8754   -99999.0    -0.0020    75.9375     4.1043   -99999.0    14.9591   -99999.0    20.9830   -99999.0     3.2754   -99999.0     2.4327   359.7215     2.8097  -133.9028  2340.0000 
   1462.8873   -99999.0     8.3984   262.7188   -99999.0    -0.0028    80.2500     3.8079   -99999.0    15.9766   -99999.0    17.4434   -99999.0     3.5430   -99999.0     2.4322   442.5601     2.2561  -133.3145  2280.0000 
   1463.0397   -99999.0     8.2422   266.8195   -99999.0     0.0015    80.8750     3.7479   -99999.0    16.7659   -99999.0    13.8266   -99999.0     3.5625   -99999.0     2.4607   438.3457     2.2713  -132.9071  2335.0000 
   1463.1921   -99999.0     8.2656   259.1606   -99999.0     0.0210    81.3750     3.8589   -99999.0    17.5426   -99999.0    12.9143   -99999.0     3.4395   -99999.0     2.4548   397.6596     2.5056  -132.5322  2390.0000 
   1463.3445   -99999.0     8.3281   230.2055   -99999.0     0.0669    64.8750     4.3495   -99999.0    18.1544   -99999.0    18.0220   -99999.0     3.0957   -99999.0     2.4464   341.7237     2.9187  -131.8148  2425.0000 
   1463.4969   -99999.0     8.1953   182.7329   -99999.0     0.1016    64.5625     5.4980   -99999.0    17.8043   -99999.0    25.2413   -99999.0     3.0000   -99999.0     2.4635   299.4144     3.3288  -129.9222  2385.0000 
   1463.6493   -99999.0     8.2188   147.9513   -99999.0     0.1212    66.1250     6.7818   -99999.0    16.0520   -99999.0    22.3650   -99999.0     2.9277   -99999.0     2.5441   263.4042     3.7835  -126.5501  2395.0000 
   1463.8017   -99999.0     8.1719   119.5863   -99999.0     0.0872    78.1875     8.3923   -99999.0    12.7619   -99999.0    14.1122   -99999.0     2.9863   -99999.0     2.5890   211.0724     4.7347  -125.1076  2435.0000 
   1463.9541   -99999.0     8.2188   104.3533   -99999.0     0.0484    78.1875     9.5952   -99999.0     8.7076   -99999.0     4.9987   -99999.0     2.8516   -99999.0     2.6230   114.1042     9.0378  -125.3425  2425.0000 
   1464.1065   -99999.0     8.2969    90.5644   -99999.0     0.0059   -99999.0    11.0597   -99999.0     5.0672   -99999.0     2.9137   -99999.0     2.8984   -99999.0     2.6234    58.3640    17.6339  -125.8319  2415.0000 
   1464.2589   -99999.0     8.3906    73.7558   -99999.0    -0.0004   -99999.0    13.6064   -99999.0     2.7932   -99999.0     1.6224   -99999.0     3.0352   -99999.0     2.6680    34.3402    29.4415  -126.7891  2455.0000 
