~VERSION INFORMATION                                                           
 VERS.           2.0: CWLS Log ASCII Standard - Version 2.0                    
 WRAP.            NO: One Line per Depth Step                                  
~WELL INFORMATION                                                              
#MNEM.UNIT              DATA            DESCRIPTION OF MNEMONIC                
#-----------            ----            -----------------------                
 STRT.M             952.00              :Start Depth                           
 STOP.M            1604.00              :Stop  Depth                           
 STEP.M             0.2000              :Step                                  
 NULL.              -99999.0            :Null Value                            
 COMP.     PETROLEO BRASILEIRO S/A      :Company                               
 ORIG.     SIGEO EXPORTACAO PERFIL      :Origem dos dados                      
 WELL.     7-LP-85-ES                   :Well                                  
 FLD.      LAGOA PARDA                  :Field                                 
 STAT.     ESPIRITO SANTO               :State                                 
 API.      342700026300                 :API Code                              
 X.                412944.10            :Surface X                             
 Y.               7831795.90            :Surface Y                             
 HZCS.           UTM                    :Horizontal Coordinate System          
 MC.               39 W                 :Meridiano Central
 LATI.           -19:36:25.186          :Latitude                              
 LONG.           -39:49:48.609          :Longitude                             
 GDAT.           SIRGAS2000             :Geodetic Datum                        
 LMF.            MR                     :Log Measure From                      
 EDF.M               8.00               :Elevation Derrick Floor               
 EGL.M               3.00               :GROUND ELEVATION                      
~CURVE INFORMATION                                                             
 DEPT.M                                 :Measured Depth                        
 CALI.in                                :CALIPER 
 DRHO.g/cm3                             :BULK DENSITIY CORRECTION 
 EFAC.Adim                              :ELETROFACIES 
 GR.gAPI                                :GAMMA RAY 
 ILD.ohm.m                              :INDUCTION DEEP RESISTIVITY 
 NPHI.%                                 :THERMAL NEUTRON POROSITY (ORIGINAL RATIO METHOD) IN SELECTED LITHOLOGY 
 RHOB.g/cm3                             :BULK DENSITY 
 SN.ohm.m                               :SHORT NORMAL RESISTIVITY 
 SP.mV                                  :SPONTANEOUS POTENTIAL 
 TENS.lbf                               :LINE TENSION 
 VSH.v/v                                :VOLUME DE FOLHELHO 
~ASCII LOG DATA                                                                
# ...
   1252.0000    10.5256     0.1779   -99999.0   101.9323     0.8501    50.7132     2.1255     1.3464    63.7319  1678.0000   -99999.0 
   1252.2000    10.4966     0.1586   -99999.0   104.2392     0.8531    51.1097     2.1320     1.3625    62.7027  1627.1707   -99999.0 
   1252.4000    10.5100     0.1372   -99999.0   107.0756     0.8480    51.4411     2.1507     1.3422    63.0783  1586.0000   -99999.0 
   1252.6000    10.5787     0.1172   -99999.0   109.9709     0.8397    51.0309     2.1655     1.3258    63.9646  1654.0000   -99999.0 
   1252.8000    10.2891     0.0952   -99999.0   109.5658     0.8280    49.9708     2.1675     1.3138    63.8979  1665.7480   -99999.0 
   1253.0000     9.9777     0.0716   -99999.0   107.0359     0.8181    46.1209     2.1718     1.3092    64.2406  1678.0000   -99999.0 
   1253.2000     9.7871     0.0578   -99999.0   103.9831     0.8149    41.2192     2.1869     1.2985    65.2571  1712.0000   -99999.0 
   1253.4000     9.9115     0.0738   -99999.0   101.7882     0.8182    41.5201     2.1902     1.3131    65.4014  1695.3660   -99999.0 
   1253.6000     9.9813     0.1040   -99999.0   101.0261     0.8231    45.6068     2.1665     1.3250    63.5962  1738.0183   -99999.0 
   1253.8000    10.3146     0.1199   -99999.0   101.0205     0.8323    46.9430     2.1335     1.3499    62.6358  1756.7520   -99999.0 
   1254.0000    10.5882     0.1151   -99999.0   101.7635     0.8457    44.8538     2.1286     1.3712    63.4090  1678.0000   -99999.0 
   1254.2000    10.0335     0.1032   -99999.0   103.2110     0.8652    43.7091     2.1499     1.3772    63.8027  1681.3792   -99999.0 
   1254.4000     9.9002     0.0951   -99999.0   104.7858     0.9012    43.3525     2.1857     1.3772    63.9988  1683.0000   -99999.0 
   1254.6000     9.8920     0.1033   -99999.0   102.9077     0.9771    43.1700     2.2052     1.3928    63.5202  1644.0000   -99999.0 
   1254.8000     9.8219     0.1165   -99999.0    95.5487     1.0544    43.3171     2.1814     1.4115    63.7387  1661.7729   -99999.0 
   1255.0000     9.5009     0.1209   -99999.0    87.0638     1.0948    43.1879     2.1468     1.4282    63.5150  1673.0000   -99999.0 
   1255.2000     9.4680     0.1226   -99999.0    81.1499     1.1109    40.4805     2.1675     1.4436    62.5437  1595.0000   -99999.0 
   1255.4000     9.7110     0.1436   -99999.0    76.6703     1.1390    36.1564     2.2128     1.4644    60.0803  1651.6365   -99999.0 
   1255.6000     9.8617     0.1687   -99999.0    76.7933     1.1739    34.0285     2.2181     1.4777    57.3618  1698.0000   -99999.0 
   1255.8000    10.1013     0.1632   -99999.0    84.9661     1.1861    36.0490     2.1870     1.5027    56.2127  1703.0000   -99999.0 
   1256.0000    10.1866     0.1461   -99999.0    95.3568     1.1593    40.7313     2.1749     1.5170    55.9947  1636.2979   -99999.0 
   1256.2000    10.4079     0.1444   -99999.0   101.7972     1.1159    45.8910     2.1874     1.5170    58.3579  1566.0000   -99999.0 
   1256.4000    10.3869     0.1537   -99999.0   103.2115     1.0787    49.1915     2.2056     1.4860    60.4342  1781.0000   -99999.0 
   1256.6000    10.7388     0.1577   -99999.0   104.7358     1.0486    50.3603     2.2231     1.4420    62.5119  1718.6890   -99999.0 
   1256.8000    10.6879     0.1457   -99999.0   106.1154     1.0219    51.9985     2.2344     1.3976    63.7571  1634.0000   -99999.0 
   1257.0000    10.5700     0.1282   -99999.0   105.6854     0.9943    53.7309     2.2424     1.3583    65.9388  1483.0000   -99999.0 
   1257.2000    10.5880     0.1403   -99999.0   105.4361     0.9648    52.2614     2.2514     1.3549    66.4474  1696.2874   -99999.0 
   1257.4000    10.8287     0.1691   -99999.0   104.8268     0.9346    49.0542     2.2452     1.3490    65.7980  2074.0000   -99999.0 
   1257.6000    10.9891     0.1829   -99999.0   101.3462     0.9060    47.0085     2.2154     1.3398    64.3202  1813.8110   -99999.0 
   1257.8000    10.9449     0.1788   -99999.0    96.0255     0.8797    46.8072     2.1909     1.3360    64.2106  1678.0000   -99999.0 
   1258.0000    10.9983     0.1760   -99999.0    94.2000     0.8597    47.2614     2.1891     1.3274    63.6339  1651.1497   -99999.0 
   1258.2000    11.0192     0.1760   -99999.0    94.9380     0.8496    46.8457     2.1928     1.3274    62.9387  1634.0000   -99999.0 
   1258.4000    10.9342     0.1667   -99999.0    94.4121     0.8429    45.0862     2.1798     1.3183    63.4342  1654.0000   -99999.0 
   1258.6000    10.6968     0.1467   -99999.0    93.6358     0.8403    44.8880     2.1578     1.3133    66.2114  1669.8701   -99999.0 
   1258.8000    10.7849     0.1287   -99999.0    93.5860     0.8395    47.1309     2.1527     1.3092    67.2298  1683.0000   -99999.0 
   1259.0000    10.6662     0.1158   -99999.0    93.3421     0.8417    48.0880     2.1674     1.3107    66.8656  1654.0000   -99999.0 
   1259.2000    10.5564     0.1006   -99999.0    90.7925     0.8452    45.5387     2.1863     1.3227    65.9736  1713.0786   -99999.0 
   1259.4000    10.4622     0.1000   -99999.0    87.0899     0.8519    44.0708     2.2099     1.3372    63.6068  1776.0000   -99999.0 
   1259.6000    10.5487     0.1174   -99999.0    85.8852     0.8614    46.6483     2.2318     1.3500    62.2564  1654.0000   -99999.0 
   1259.8000    10.6116     0.1294   -99999.0    88.4110     0.8666    48.5073     2.2367     1.3583    62.1949  1645.5747   -99999.0 
   1260.0000    10.6367     0.1227   -99999.0    92.0008     0.8690    46.8028     2.2321     1.3583    63.1869  1634.0000   -99999.0 
   1260.2000    10.6335     0.1075   -99999.0    96.2424     0.8648    45.3612     2.2310     1.3579    63.0459  1678.0000   -99999.0 
   1260.4000    10.2685     0.0966   -99999.0    99.7016     0.8596    46.3754     2.2293     1.3456    64.9673  1679.7913   -99999.0 
   1260.6000    10.3038     0.0980   -99999.0   100.3318     0.8544    47.2982     2.2260     1.3314    67.1024  1683.0000   -99999.0 
   1260.8000    10.3990     0.1167   -99999.0    98.9222     0.8492    47.0958     2.2211     1.3184    66.2188  1678.0852   -99999.0 
   1261.0000    10.5425     0.1428   -99999.0    96.0685     0.8416    46.6005     2.2133     1.3056    66.5228  1706.9370   -99999.0 
   1261.2000    10.6200     0.1538   -99999.0    95.2253     0.8340    46.8520     2.2040     1.2972    66.1000  1776.0000   -99999.0 
   1261.4000    10.7764     0.1541   -99999.0    97.5239     0.8282    48.4583     2.2011     1.2972    65.4560  1699.6443   -99999.0 
   1261.6000    10.8686     0.1565   -99999.0    97.2799     0.8218    52.5394     2.1940     1.2951    64.6071  1688.3542   -99999.0 
   1261.8000    10.9463     0.1580   -99999.0    92.6126     0.8204    56.2568     2.1758     1.2882    63.7554  1673.0000   -99999.0 
   1262.0000    11.0800     0.1597   -99999.0    88.2148     0.8204    55.0104     2.1630     1.2882    63.2143  1714.9907   -99999.0 
   1262.2000    11.1317     0.1652   -99999.0    87.4693     0.8207    50.0441     2.1622     1.2898    64.6539  1717.0000   -99999.0 
   1262.4000    11.1737     0.1621   -99999.0    89.3596     0.8213    47.4673     2.1625     1.2972    66.2853  1663.0576   -99999.0 
   1262.6000    10.8130     0.1501   -99999.0    92.2467     0.8189    48.4112     2.1644     1.2972    66.8588  1605.0000   -99999.0 
   1262.8000    10.7579     0.1427   -99999.0    94.5807     0.8143    49.9079     2.1773     1.2972    66.6724  1761.0000   -99999.0 
   1263.0000    10.7484     0.1367   -99999.0    96.4768     0.8094    48.8253     2.1905     1.2934    64.9720  1704.0657   -99999.0 
   1263.2000    10.5773     0.1240   -99999.0    97.1462     0.8045    47.5133     2.1933     1.2882    64.2462  1625.0000   -99999.0 
   1263.4000    10.4287     0.1139   -99999.0    96.7827     0.7978    48.5045     2.1911     1.2794    64.1216  1732.0000   -99999.0 
   1263.6000    10.4178     0.1092   -99999.0    96.2577     0.7906    50.0402     2.1961     1.2752    64.7422  1693.9460   -99999.0 
   1263.8000    10.3765     0.0973   -99999.0    96.0000     0.7834    49.7991     2.2013     1.2677    65.0000  1625.0000   -99999.0 
