~VERSION INFORMATION                                                           
 VERS.           2.0: CWLS Log ASCII Standard - Version 2.0                    
 WRAP.            NO: One Line per Depth Step                                  
~WELL INFORMATION                                                              
#MNEM.UNIT              DATA            DESCRIPTION OF MNEMONIC                
#-----------            ----            -----------------------                
 STRT.M             898.09              :Start Depth                           
 STOP.M            1708.40              :Stop  Depth                           
 STEP.M             0.1524              :Step                                  
 NULL.              -99999.0            :Null Value                            
 COMP.     PETROLEO BRASILEIRO S/A      :Company                               
 ORIG.     SIGEO EXPORTACAO PERFIL      :Origem dos dados                      
 WELL.     7-LP-84-ES                   :Well                                  
 FLD.      LAGOA PARDA                  :Field                                 
 STAT.     ESPIRITO SANTO               :State                                 
 API.      342700024200                 :API Code                              
 X.                411577.00            :Surface X                             
 Y.               7831472.80            :Surface Y                             
 HZCS.           UTM                    :Horizontal Coordinate System          
 MC.               39 W                 :Meridiano Central
 LATI.           -19:36:35.478          :Latitude                              
 LONG.           -39:50:35.593          :Longitude                             
 GDAT.           SIRGAS2000             :Geodetic Datum                        
 LMF.            MR                     :Log Measure From                      
 EDF.M               9.00               :Elevation Derrick Floor               
 EGL.M               4.40               :GROUND ELEVATION                      
~CURVE INFORMATION                                                             
 DEPT.M                                 :Measured Depth                        
 CALI.in                                :CALIPER 
 CILD.mS/m                              :CALIBRATED DEEP INDUCTION CONDUCTIVITY 
 DRHO.g/cm3                             :BULK DENSITIY CORRECTION 
 EFAC.Adim                              :ELETROFACIES 
 GR.gAPI                                :GAMMA RAY 
 ILD.ohm.m                              :INDUCTION DEEP RESISTIVITY 
 NPHI.%                                 :THERMAL NEUTRON POROSITY (ORIGINAL RATIO METHOD) IN SELECTED LITHOLOGY 
 NPOR.%                                 :NEUTRON POROSITY (ENVIRONMENTALLY CORRECTED AND ALPHA PROCESSED) 
 RHOB.g/cm3                             :BULK DENSITY 
 SFLU.ohm.m                             :SFL RESISTIVITY UNAVERAGED 
 SP.mV                                  :SPONTANEOUS POTENTIAL 
 TENS.lbf                               :LINE TENSION 
 VSH.v/v                                :VOLUME DE FOLHELHO 
~ASCII LOG DATA                                                                
# ...
   1558.7463     8.4916   617.5095    -0.0551     1.0000    88.8594     1.6094    28.3310    28.2913     2.1982     3.4398   -79.0469  1935.0000     0.0000 
   1558.8987     8.4998   640.4197    -0.0361     1.0000    89.9844     1.5538    28.7056    27.3178     2.2076     3.4918   -80.0625  1928.7500     0.0000 
   1559.0511     8.4848   678.9229    -0.0366     1.0000    89.9375     1.4660    30.2994    26.6739     2.2429     3.2865   -80.6094  1923.7500     0.0000 
   1559.2035     8.4158   737.0874    -0.0511     1.0000    89.0938     1.3594    31.4392    29.7607     2.2486     3.0692   -80.4375  1922.5000     0.0000 
   1559.3559     8.4217   799.0576    -0.0163     1.0000    86.7031     1.2498    33.0353    34.2712     2.2216     2.8944   -80.1562  1918.7500     0.0000 
   1559.5083     8.4219   877.5432    -0.0138     1.0000    83.2031     1.1543    31.7245    32.8720     2.1990     2.6002   -80.2500  1916.2500     0.0000 
   1559.6607     8.3762   920.3118    -0.0511     1.0000    81.3906     1.1055    31.6239    29.8279     2.1462     2.1773   -80.0938  1927.5000     0.0000 
   1559.8131     8.4207   901.6296    -0.0315     1.0000    85.5781     1.1094    33.1909    31.5323     2.1783     1.8165   -77.8438  1942.5000     0.0010 
   1559.9655     8.4219   882.6909     0.0117     1.0000    94.8281     1.1289    34.4437    36.9995     2.2421     1.6607   -71.2109  1946.2500     0.0134 
   1560.1179     8.4676   876.6836     0.0236     2.1766   103.9062     1.1435    34.9354    36.0001     2.3012     1.7654   -62.1719  1940.0000     0.1435 
   1560.2703     8.5069   862.3347     0.0084     3.0000   109.0312     1.1668    33.3359    36.3853     2.3056     2.1985   -55.2031  1927.5000     0.2864 
   1560.4227     8.5078   828.2178    -0.0236     3.0000   110.5625     1.2104    34.1286    36.5744     2.2190     2.7043   -49.8516  1916.2500     0.4025 
   1560.5751     8.7898   789.2861    -0.0118     3.0000   113.5156     1.2748    41.2231    40.3625     2.1908     2.6860   -44.2500  1911.2500     0.5115 
   1560.7275     8.7740   736.4038    -0.0080     3.6360   119.3906     1.3659    47.0337    50.7080     1.9788     2.1293   -39.6953  1912.5000     0.7051 
   1560.8799     9.0251   675.4094    -0.0054     4.0000   124.8281     1.4663    44.9753    47.4701     2.0402     1.5981   -38.2734  1920.0000     0.7742 
   1561.0323     9.3210   646.8108    -0.0302     3.6797   125.2969     1.5409    37.1826    35.0098     2.0868     1.3553   -41.1250  1925.0000     0.6750 
   1561.1847     8.7104   628.6274    -0.0342     2.1552   117.2812     1.5899    31.3354    30.7556     2.1611     1.4807   -48.7812  1918.7500     0.4288 
   1561.3371     9.0154   612.7991    -0.0145     1.3159   104.6406     1.6136    25.9888    26.2848     2.2180     2.1276   -58.8594  1913.7500     0.2396 
   1561.4895     9.3970   624.9714    -0.0162     1.0000    92.6562     1.6005    24.1379    23.0011     2.1893     3.4053   -65.9531  1928.7500     0.1135 
   1561.6419     8.4307   637.0176    -0.0123     1.0000    84.4375     1.5772    26.7456    26.7273     2.1579     4.9216   -68.0312  1947.5000     0.0530 
   1561.7943     8.3453   637.3318     0.0294     1.0000    83.3438     1.5642    26.7389    26.7163     2.1935     5.5358   -67.0625  1945.0000     0.0603 
   1561.9467     8.9995   645.5635    -0.0250     1.0000    89.5781     1.5432    29.2603    27.8809     2.0516     4.7668   -64.1562  1931.2500     0.1361 
   1562.0991    10.9219   664.2075    -0.0327     2.4824   100.7188     1.5113    36.5295    41.4307     1.7024     3.4564   -57.3047  1921.2500     0.5770 
   1562.2515    11.6626   673.4314    -0.0428     4.0000   110.6094     1.4794    42.8345    48.6206     1.7563     2.3824   -46.4766  1920.0000     1.0000 
   1562.4039    11.8777   693.3416    -0.0386     4.0000   115.2812     1.4385    44.9554    48.1991     1.6385     1.6919   -37.4688  1928.7500     1.0000 
   1562.5563    12.0277   722.3330    -0.0159     4.0000   116.7656     1.3987    44.8421    50.6104     1.6197     1.3269   -33.6250  1936.2500     1.0000 
   1562.7087    10.8340   722.7598    -0.0516     4.0000   117.0938     1.3821    43.5516    46.5424     1.6535     1.1927   -32.3711  1940.0000     1.0000 
   1562.8611    11.0564   726.2905    -0.0170     4.0000   117.5469     1.3665    37.3657    37.7502     1.9390     1.1939   -31.4531  1946.2500     0.9536 
   1563.0135     8.8066   752.5212    -0.0333     4.0000   117.1719     1.3309    40.5792    35.8215     2.1191     1.3129   -30.0000  1946.2500     0.8518 
   1563.1659     9.6338   775.7168    -0.0747     4.0000   115.6094     1.2968    43.5120    43.6035     1.6636     1.5334   -27.6133  1935.0000     0.9035 
   1563.3183     9.8163   781.1345    -0.0200     4.0000   113.8594     1.2866    42.9733    51.4587     1.7170     1.7310   -25.8945  1926.2500     0.9195 
   1563.4707    10.5142   771.1138    -0.0356     4.0000   113.7969     1.3017    42.0837    45.8435     1.6618     1.7431   -26.0352  1926.2500     0.9186 
   1563.6231    10.6302   750.3198    -0.0460     4.0000   116.9219     1.3356    42.7483    44.3756     1.7198     1.5821   -27.1445  1927.5000     0.9085 
   1563.7755    10.1753   724.6472     0.0022     4.0000   121.4531     1.3692    42.1120    42.3294     1.8766     1.4350   -28.0820  1928.7500     0.8902 
   1563.9279    10.8955   722.4705     0.0168     4.0000   124.7656     1.3821    39.4928    39.8804     1.9308     1.3739   -28.5430  1930.0000     0.9592 
   1564.0803    11.2876   724.6619     0.0635     4.0000   124.2969     1.3874    36.2335    40.9554     1.9462     1.3649   -29.1602  1930.0000     1.0000 
   1564.2327    11.2588   711.4917     0.0344     4.0000   120.7031     1.4146    41.0767    40.5407     1.8053     1.3751   -30.3711  1928.7500     1.0000 
   1564.3851    11.5322   681.3816    -0.0316     4.0000   116.9062     1.4723    45.9412    43.9545     1.6499     1.3609   -31.7656  1928.7500     1.0000 
   1564.5375    11.5086   645.8225    -0.0153     4.0000   113.9531     1.5418    39.9170    43.3495     1.9038     1.3072   -33.9805  1935.0000     0.8202 
   1564.6899     8.6875   623.9226    -0.0238     4.0000   109.7031     1.5959    34.7534    34.2773     2.0332     1.3107   -39.8750  1936.2500     0.6061 
   1564.8423     8.8230   613.5591     0.0081     3.3696   101.2344     1.6135    29.5593    27.1851     2.0918     1.6246   -50.8750  1926.2500     0.3768 
   1564.9947     9.0187   628.3213    -0.0266     1.0836    89.9375     1.5795    26.9989    25.3845     2.1068     2.4318   -63.4141  1918.7500     0.1339 
   1565.1471     8.8025   664.4124    -0.0007     1.0000    80.7656     1.5126    26.8897    25.4071     2.0726     3.3485   -72.7344  1920.0000     0.0332 
   1565.2995     8.4463   690.2000     0.0912     1.0000    76.0938     1.4452    27.1362    24.7993     2.2446     3.7772   -78.0625  1936.2500     0.0000 
   1565.4519     8.4680   725.6824     0.0140     1.0000    73.5938     1.3610    25.1419    24.7119     2.2607     3.7145   -80.7500  1952.5000     0.0000 
   1565.6043     8.2629   807.1243    -0.0326     1.0000    71.5156     1.2423    24.1951    26.5869     2.1208     3.4362   -82.0312  1948.7500     0.0000 
   1565.7567     9.4463   898.2009     0.0034     1.0000    70.1562     1.1186    26.4404    29.1504     1.6865     3.0621   -82.9062  1948.7500     0.0000 
   1565.9091    10.2773   991.4243    -0.0245     2.6321    70.3438     1.0102    28.7064    27.9861     1.8402     2.7224   -83.5156  1955.0000     0.5440 
   1566.0615    10.5027  1098.8928    -0.0396     3.0816    73.7188     0.9124    30.2109    27.2621     1.9424     2.5242   -83.4062  1945.0000     0.6939 
   1566.2139     8.4414  1218.0378    -0.0437     1.0000    79.6719     0.8237    33.9233    30.4993     2.0967     2.4323   -82.2656  1931.2500     0.0000 
   1566.3663     8.5507  1346.2849    -0.0029     1.0000    84.0781     0.7481    31.7398    35.6628     2.1420     2.3438   -80.9375  1932.5000     0.0000 
