~VERSION INFORMATION                                                           
 VERS.           2.0: CWLS Log ASCII Standard - Version 2.0                    
 WRAP.            NO: One Line per Depth Step                                  
~WELL INFORMATION                                                              
#MNEM.UNIT              DATA            DESCRIPTION OF MNEMONIC                
#-----------            ----            -----------------------                
 STRT.M             952.00              :Start Depth                           
 STOP.M            1604.00              :Stop  Depth                           
 STEP.M             0.2000              :Step                                  
 NULL.              -99999.0            :Null Value                            
 COMP.     PETROLEO BRASILEIRO S/A      :Company                               
 ORIG.     SIGEO EXPORTACAO PERFIL      :Origem dos dados                      
 WELL.     7-LP-85-ES                   :Well                                  
 FLD.      LAGOA PARDA                  :Field                                 
 STAT.     ESPIRITO SANTO               :State                                 
 API.      342700026300                 :API Code                              
 X.                412944.10            :Surface X                             
 Y.               7831795.90            :Surface Y                             
 HZCS.           UTM                    :Horizontal Coordinate System          
 MC.               39 W                 :Meridiano Central
 LATI.           -19:36:25.186          :Latitude                              
 LONG.           -39:49:48.609          :Longitude                             
 GDAT.           SIRGAS2000             :Geodetic Datum                        
 LMF.            MR                     :Log Measure From                      
 EDF.M               8.00               :Elevation Derrick Floor               
 EGL.M               3.00               :GROUND ELEVATION                      
~CURVE INFORMATION                                                             
 DEPT.M                                 :Measured Depth                        
 CALI.in                                :CALIPER 
 DRHO.g/cm3                             :BULK DENSITIY CORRECTION 
 EFAC.Adim                              :ELETROFACIES 
 GR.gAPI                                :GAMMA RAY 
 ILD.ohm.m                              :INDUCTION DEEP RESISTIVITY 
 NPHI.%                                 :THERMAL NEUTRON POROSITY (ORIGINAL RATIO METHOD) IN SELECTED LITHOLOGY 
 RHOB.g/cm3                             :BULK DENSITY 
 SN.ohm.m                               :SHORT NORMAL RESISTIVITY 
 SP.mV                                  :SPONTANEOUS POTENTIAL 
 TENS.lbf                               :LINE TENSION 
 VSH.v/v                                :VOLUME DE FOLHELHO 
~ASCII LOG DATA                                                                
# ...
   1048.0000     9.9666     0.1471   -99999.0   120.4476     1.2050    45.2523     2.1431     1.6319    38.2945  1634.0000   -99999.0 
   1048.2000     9.9894     0.1324   -99999.0   124.3396     1.2023    43.9523     2.1332     1.6293    39.1789  1492.4067   -99999.0 
   1048.4000    10.0200     0.1185   -99999.0   119.3917     1.1979    44.7224     2.1264     1.6293    40.6514  1510.0078   -99999.0 
   1048.6000    10.0022     0.1090   -99999.0   113.7543     1.1940    46.0499     2.1250     1.6226    41.6216  1566.0000   -99999.0 
   1048.8000     9.9628     0.1043   -99999.0   114.6950     1.1940    47.8602     2.1286     1.6181    41.0466  1486.1995   -99999.0 
   1049.0000    10.2674     0.1073   -99999.0   118.8260     1.1940    48.4628     2.1378     1.6268    40.0808  1492.0261   -99999.0 
   1049.2000    10.3085     0.1136   -99999.0   121.2846     1.1940    45.6699     2.1467     1.6181    38.5027  1542.0000   -99999.0 
   1049.4000    10.5269     0.1125   -99999.0   122.3907     1.1940    43.1486     2.1498     1.6275    37.3781  1525.1233   -99999.0 
   1049.6000    10.5206     0.1044   -99999.0   122.7688     1.1940    43.3575     2.1518     1.6293    37.6688  1522.7808   -99999.0 
   1049.8000    10.4138     0.1010   -99999.0   122.4126     1.1940    43.2039     2.1602     1.6240    37.5000  1527.0000   -99999.0 
   1050.0000    10.2641     0.1018   -99999.0   120.0136     1.1940    42.4252     2.1759     1.6094    38.0466  1527.0000   -99999.0 
   1050.2000    10.2056     0.1030   -99999.0   113.0248     1.1940    43.5466     2.1944     1.5996    41.4050  1528.3975   -99999.0 
   1050.4000    10.2843     0.1038   -99999.0   108.8055     1.1951    46.3237     2.1927     1.6026    43.4405  1542.0000   -99999.0 
   1050.6000    10.4061     0.1086   -99999.0   113.9224     1.1967    47.9776     2.1706     1.6149    43.0693  1514.0039   -99999.0 
   1050.8000    10.3963     0.1160   -99999.0   121.6573     1.1996    46.3563     2.1478     1.6299    42.1638  1504.5996   -99999.0 
   1051.0000    10.6171     0.1156   -99999.0   123.8083     1.2032    43.4180     2.1437     1.6482    40.7260  1556.0000   -99999.0 
   1051.2000    10.5321     0.1097   -99999.0   125.5132     1.2087    41.5014     2.1549     1.6407    39.9380  1562.5486   -99999.0 
   1051.4000    10.3539     0.1051   -99999.0   127.8409     1.2133    39.6482     2.1696     1.6368    40.1869  1566.0000   -99999.0 
   1051.6000    10.3228     0.1019   -99999.0   127.9527     1.2190    40.0124     2.1773     1.6368    40.2118  1464.0000   -99999.0 
   1051.8000    10.2886     0.0949   -99999.0   126.0898     1.2173    44.5042     2.1750     1.6368    40.6184  1464.0000   -99999.0 
   1052.0000    10.2329     0.0866   -99999.0   123.2491     1.2111    48.4791     2.1658     1.6368    42.1467  1600.5342   -99999.0 
   1052.2000    10.2235     0.0867   -99999.0   117.3772     1.2005    47.0330     2.1580     1.6368    42.3866  1602.2244   -99999.0 
   1052.4000    10.2212     0.1030   -99999.0   114.2942     1.1882    46.5957     2.1612     1.6368    42.7000  1556.0000   -99999.0 
   1052.6000    10.2568     0.1322   -99999.0   116.5554     1.1716    49.8004     2.1640     1.6368    42.3635  1527.3989   -99999.0 
   1052.8000     9.9163     0.1445   -99999.0   119.9843     1.1460    50.8215     2.1451     1.6276    41.9390  1528.7559   -99999.0 
   1053.0000     9.3656     0.1152   -99999.0   120.6273     1.1006    46.7559     2.1309     1.6129    40.2671  1566.0000   -99999.0 
   1053.2000     9.2233     0.0752   -99999.0   118.0210     1.0356    41.5150     2.1649     1.5926    38.8327  1543.4316   -99999.0 
   1053.4000     9.2164     0.0641   -99999.0   114.0913     0.9586    37.4034     2.2295     1.5760    36.3193  1531.6575   -99999.0 
   1053.6000     8.9954     0.0806   -99999.0   112.2748     0.8869    35.5648     2.2502     1.5552    30.9215  1478.0000   -99999.0 
   1053.8000     8.8056     0.0933   -99999.0   106.7656     0.8409    36.1640     2.2087     1.5488    22.2365  1568.8333   -99999.0 
   1054.0000     8.8703     0.1004   -99999.0    95.3154     0.8242    39.1453     2.1222     1.5273    20.9708  1601.7756   -99999.0 
   1054.2000     8.8426     0.1225   -99999.0    89.6497     0.8299    41.4806     2.0458     1.5170    29.6852  1488.0000   -99999.0 
   1054.4000     8.9722     0.1553   -99999.0    96.8440     0.8528    40.6530     2.0286     1.5102    39.1395  1564.3110   -99999.0 
   1054.6000     9.2826     0.1775   -99999.0   106.3590     0.9041    39.6784     2.0619     1.5167    44.6795  1605.0000   -99999.0 
   1054.8000     9.7477     0.1757   -99999.0   109.6554     0.9861    40.5700     2.1147     1.5335    44.9446  1527.0000   -99999.0 
   1055.0000     9.8318     0.1546   -99999.0   109.5054     1.0644    41.1932     2.1500     1.5551    44.7411  1504.0195   -99999.0 
   1055.2000     9.7679     0.1289   -99999.0   108.2181     1.1208    41.6245     2.1570     1.5660    44.0689  1488.0000   -99999.0 
   1055.4000     9.7714     0.1131   -99999.0   107.8203     1.1542    40.6766     2.1556     1.5691    43.8572  1507.0000   -99999.0 
   1055.6000     9.7768     0.1018   -99999.0   112.7312     1.1725    37.3797     2.1585     1.5834    44.1736  1502.2637   -99999.0 
   1055.8000     9.8603     0.0930   -99999.0   118.4543     1.1822    35.5565     2.1598     1.5978    45.5224  1498.0000   -99999.0 
   1056.0000     9.9091     0.0932   -99999.0   120.5189     1.1858    36.5847     2.1698     1.6069    44.2132  1489.0957   -99999.0 
   1056.2000     9.9739     0.0921   -99999.0   118.2029     1.1845    37.2439     2.1832     1.6069    41.4882  1439.0000   -99999.0 
   1056.4000    10.0443     0.0853   -99999.0   113.9854     1.1809    38.1364     2.1831     1.6012    38.4161  1583.2598   -99999.0 
   1056.6000    10.2326     0.0854   -99999.0   111.4791     1.1771    42.2119     2.1664     1.5996    36.9121  1608.6455   -99999.0 
   1056.8000    10.2480     0.0892   -99999.0   112.7803     1.1711    47.0746     2.1440     1.5996    36.0400  1439.0000   -99999.0 
   1057.0000    10.2514     0.0816   -99999.0   114.7827     1.1657    48.6299     2.1336     1.5996    36.1000  1522.3740   -99999.0 
   1057.2000    10.4732     0.0752   -99999.0   118.7424     1.1641    47.4563     2.1465     1.6069    37.4950  1555.0276   -99999.0 
   1057.4000    10.5562     0.0854   -99999.0   119.7592     1.1614    45.9848     2.1704     1.6107    37.6373  1517.0000   -99999.0 
   1057.6000    10.4310     0.0926   -99999.0   117.0709     1.1632    46.5115     2.1796     1.6181    40.0539  1485.1692   -99999.0 
   1057.8000    10.6120     0.0843   -99999.0   116.8772     1.1641    49.5765     2.1723     1.6074    42.1543  1468.0000   -99999.0 
   1058.0000    10.5479     0.0727   -99999.0   117.5789     1.1695    50.9003     2.1705     1.6049    41.9628  1576.0000   -99999.0 
   1058.2000    10.5039     0.0779   -99999.0   114.7335     1.1695    48.3469     2.1876     1.5996    41.2480  1510.2991   -99999.0 
   1058.4000    10.3992     0.0964   -99999.0   114.3293     1.1695    46.8805     2.2103     1.5996    40.5505  1464.0000   -99999.0 
   1058.6000    10.2979     0.1080   -99999.0   117.1902     1.1662    48.5261     2.2174     1.6093    40.5000  1483.0000   -99999.0 
   1058.8000    10.2952     0.1064   -99999.0   117.3240     1.1641    48.6003     2.2108     1.6240    40.0811  1485.6182   -99999.0 
   1059.0000    10.0910     0.1050   -99999.0   116.2984     1.1664    44.8404     2.1995     1.6293    39.6164  1488.0000   -99999.0 
   1059.2000     9.9989     0.1076   -99999.0   115.9220     1.1699    40.2256     2.1903     1.6276    42.6110  1439.0000   -99999.0 
   1059.4000    10.0500     0.1013   -99999.0   114.9461     1.1722    38.4707     2.1837     1.6181    43.2055  1502.1062   -99999.0 
   1059.6000    10.0732     0.0939   -99999.0   117.7054     1.1680    40.1300     2.1787     1.6181    44.6546  1576.0000   -99999.0 
   1059.8000    10.0866     0.0985   -99999.0   123.4388     1.1612    43.8056     2.1770     1.6171    44.5488  1385.0000   -99999.0 
