~VERSION INFORMATION                                                           
 VERS.           2.0: CWLS Log ASCII Standard - Version 2.0                    
 WRAP.            NO: One Line per Depth Step                                  
~WELL INFORMATION                                                              
#MNEM.UNIT              DATA            DESCRIPTION OF MNEMONIC                
#-----------            ----            -----------------------                
 STRT.M             952.00              :Start Depth                           
 STOP.M            1604.00              :Stop  Depth                           
 STEP.M             0.2000              :Step                                  
 NULL.              -99999.0            :Null Value                            
 COMP.     PETROLEO BRASILEIRO S/A      :Company                               
 ORIG.     SIGEO EXPORTACAO PERFIL      :Origem dos dados                      
 WELL.     7-LP-85-ES                   :Well                                  
 FLD.      LAGOA PARDA                  :Field                                 
 STAT.     ESPIRITO SANTO               :State                                 
 API.      342700026300                 :API Code                              
 X.                412944.10            :Surface X                             
 Y.               7831795.90            :Surface Y                             
 HZCS.           UTM                    :Horizontal Coordinate System          
 MC.               39 W                 :Meridiano Central
 LATI.           -19:36:25.186          :Latitude                              
 LONG.           -39:49:48.609          :Longitude                             
 GDAT.           SIRGAS2000             :Geodetic Datum                        
 LMF.            MR                     :Log Measure From                      
 EDF.M               8.00               :Elevation Derrick Floor               
 EGL.M               3.00               :GROUND ELEVATION                      
~CURVE INFORMATION                                                             
 DEPT.M                                 :Measured Depth                        
 CALI.in                                :CALIPER 
 DRHO.g/cm3                             :BULK DENSITIY CORRECTION 
 EFAC.Adim                              :ELETROFACIES 
 GR.gAPI                                :GAMMA RAY 
 ILD.ohm.m                              :INDUCTION DEEP RESISTIVITY 
 NPHI.%                                 :THERMAL NEUTRON POROSITY (ORIGINAL RATIO METHOD) IN SELECTED LITHOLOGY 
 RHOB.g/cm3                             :BULK DENSITY 
 SN.ohm.m                               :SHORT NORMAL RESISTIVITY 
 SP.mV                                  :SPONTANEOUS POTENTIAL 
 TENS.lbf                               :LINE TENSION 
 VSH.v/v                                :VOLUME DE FOLHELHO 
~ASCII LOG DATA                                                                
# ...
   1084.0000    10.0727     0.1150   -99999.0   105.8539     0.9160    59.5816     2.1379     1.3583    51.2732  1537.0000   -99999.0 
   1084.2000    10.4757     0.1034   -99999.0   107.1373     0.9238    51.8704     2.1397     1.3695    50.6380  1751.0000   -99999.0 
   1084.4000    10.5201     0.1015   -99999.0   112.8110     0.9311    46.8188     2.1530     1.3772    50.4984  1724.3608   -99999.0 
   1084.6000    10.4911     0.1053   -99999.0   115.3075     0.9350    44.9573     2.1680     1.3876    49.3035  1698.0000   -99999.0 
   1084.8000    10.3762     0.1115   -99999.0   112.5163     0.9349    44.9344     2.1737     1.3883    48.9891  1676.2322   -99999.0 
   1085.0000    10.3896     0.1150   -99999.0   107.6173     0.9302    45.9226     2.1702     1.3772    49.7319  1527.0000   -99999.0 
   1085.2000    10.4250     0.1142   -99999.0   104.0961     0.9242    46.0745     2.1688     1.3701    50.5016  1548.8071   -99999.0 
   1085.4000    10.4119     0.1109   -99999.0   103.2321     0.9137    45.3598     2.1687     1.3577    50.9772  1555.0996   -99999.0 
   1085.6000    10.4626     0.1086   -99999.0   103.6623     0.9039    44.7091     2.1631     1.3490    52.2883  1542.0000   -99999.0 
   1085.8000    10.3829     0.1094   -99999.0   104.0823     0.8932    43.9190     2.1607     1.3490    52.2555  1542.0000   -99999.0 
   1086.0000    10.2900     0.1100   -99999.0   108.1067     0.8851    43.9920     2.1660     1.3490    50.7988  1541.9736   -99999.0 
   1086.2000    10.2712     0.1044   -99999.0   113.9527     0.8804    45.9810     2.1644     1.3490    49.5550  1522.0000   -99999.0 
   1086.4000    10.2112     0.0997   -99999.0   114.7236     0.8778    47.5346     2.1591     1.3490    49.1130  1518.8701   -99999.0 
   1086.6000    10.3689     0.0999   -99999.0   111.5727     0.8770    49.2769     2.1636     1.3402    48.8308  1517.0000   -99999.0 
   1086.8000    10.4475     0.1015   -99999.0   110.8259     0.8795    53.0420     2.1770     1.3397    49.4248  1527.0000   -99999.0 
   1087.0000    10.4531     0.1041   -99999.0   111.8563     0.8810    56.5623     2.1836     1.3397    49.7630  1543.3267   -99999.0 
   1087.2000    10.2912     0.1050   -99999.0   109.7992     0.8810    58.8455     2.1787     1.3397    50.7252  1556.0000   -99999.0 
   1087.4000    10.1850     0.0983   -99999.0   107.2062     0.8818    59.3622     2.1689     1.3490    52.2938  1517.0000   -99999.0 
   1087.6000     9.9750     0.0855   -99999.0   106.7000     0.8882    55.7450     2.1610     1.3490    52.6000  1519.5000   -99999.0 
   1087.8000    10.1550     0.0735   -99999.0   105.1378     0.8946    51.1855     2.1531     1.3490    52.6625  1522.0000   -99999.0 
   1088.0000    10.2012     0.0730   -99999.0   103.2371     0.8972    50.0923     2.1520     1.3490    52.3127  1634.0000   -99999.0 
   1088.2000    10.2974     0.0857   -99999.0   105.3362     0.8945    50.8492     2.1656     1.3490    51.3941  1616.9565   -99999.0 
   1088.4000    10.4849     0.1020   -99999.0   107.7741     0.8933    49.8285     2.1815     1.3490    50.7752  1595.0000   -99999.0 
   1088.6000    10.6218     0.1142   -99999.0   105.9964     0.8977    45.9077     2.1868     1.3490    51.1247  1488.0000   -99999.0 
   1088.8000    10.6650     0.1166   -99999.0   102.5634     0.9031    42.2914     2.1810     1.3490    51.5000  1542.6062   -99999.0 
   1089.0000    10.7724     0.1174   -99999.0   103.7845     0.9057    41.7606     2.1691     1.3554    51.9804  1634.0000   -99999.0 
   1089.2000    10.8100     0.1200   -99999.0   107.5961     0.9037    42.9586     2.1560     1.3677    52.3997  1634.0000   -99999.0 
   1089.4000    10.7240     0.1184   -99999.0   108.4488     0.8989    44.2414     2.1532     1.3677    53.0866  1542.0000   -99999.0 
   1089.6000    10.5003     0.1151   -99999.0   110.4337     0.9000    46.7388     2.1604     1.3677    52.8143  1575.0381   -99999.0 
   1089.8000    10.4119     0.1084   -99999.0   113.7328     0.9035    48.5818     2.1658     1.3589    52.4000  1595.0000   -99999.0 
   1090.0000    10.3579     0.1000   -99999.0   113.9528     0.9052    48.6071     2.1667     1.3583    51.1016  1644.0000   -99999.0 
   1090.2000    10.1047     0.0992   -99999.0   111.7232     0.9025    52.8692     2.1735     1.3583    50.6681  1575.6350   -99999.0 
   1090.4000     9.9427     0.1089   -99999.0   108.8800     0.8962    61.1696     2.1849     1.3583    50.2764  1522.0000   -99999.0 
   1090.6000     9.7845     0.1174   -99999.0   108.9626     0.8860    61.6745     2.1844     1.3566    50.2000  1576.0000   -99999.0 
   1090.8000     9.4952     0.1190   -99999.0   112.8900     0.8780    54.3543     2.1591     1.3382    50.1503  1576.0000   -99999.0 
   1091.0000     9.7415     0.1174   -99999.0   115.6097     0.8701    50.1039     2.1272     1.3200    49.0474  1576.0000   -99999.0 
   1091.2000     9.9337     0.1087   -99999.0   111.7020     0.8625    49.9531     2.1197     1.3092    49.9220  1507.0000   -99999.0 
   1091.4000     9.9470     0.0964   -99999.0   106.9656     0.8590    48.6311     2.1403     1.3092    50.6262  1498.7466   -99999.0 
   1091.6000     9.9300     0.0960   -99999.0   109.3122     0.8620    46.6891     2.1600     1.3092    49.7280  1488.0000   -99999.0 
   1091.8000     9.8176     0.0997   -99999.0   116.7894     0.8672    46.1305     2.1647     1.3287    49.2059  1556.0000   -99999.0 
   1092.0000     9.7726     0.0917   -99999.0   121.5114     0.8732    45.8351     2.1589     1.3559    49.2628  1579.7690   -99999.0 
   1092.2000     9.7805     0.0805   -99999.0   119.5121     0.8812    45.7199     2.1556     1.3742    49.2000  1620.0000   -99999.0 
   1092.4000     9.9593     0.0710   -99999.0   116.8067     0.8912    46.7263     2.1510     1.3678    49.8972  1517.4055   -99999.0 
   1092.6000    10.3893     0.0670   -99999.0   122.2962     0.9014    48.9714     2.1421     1.3554    51.5701  1535.1956   -99999.0 
   1092.8000    10.4162     0.0689   -99999.0   125.6655     0.9083    51.2325     2.1386     1.3490    52.5862  1576.0000   -99999.0 
   1093.0000    10.4387     0.0737   -99999.0   119.6150     0.9080    52.2659     2.1465     1.3490    52.4201  1489.2244   -99999.0 
   1093.2000    10.1504     0.0849   -99999.0   112.8619     0.9078    52.5172     2.1602     1.3583    51.1300  1483.0000   -99999.0 
   1093.4000    10.0844     0.0979   -99999.0   110.5654     0.9102    53.0760     2.1681     1.3583    50.4673  1529.2925   -99999.0 
   1093.6000    10.1061     0.0975   -99999.0   111.0831     0.9175    51.8375     2.1664     1.3583    50.6870  1566.0000   -99999.0 
   1093.8000    10.1100     0.0863   -99999.0   115.0378     0.9255    48.4413     2.1666     1.3583    49.4365  1561.0000   -99999.0 
   1094.0000    10.0952     0.0855   -99999.0   116.5547     0.9300    45.9946     2.1819     1.3630    49.7979  1577.8215   -99999.0 
   1094.2000    10.1042     0.0912   -99999.0   115.4543     0.9294    46.6880     2.2013     1.3754    50.4035  1595.0000   -99999.0 
   1094.4000    10.1152     0.0932   -99999.0   116.8672     0.9268    50.3721     2.2110     1.3772    50.9433  1556.0000   -99999.0 
   1094.6000    10.0930     0.0950   -99999.0   117.6251     0.9268    52.6302     2.2093     1.3731    52.5613  1543.4790   -99999.0 
   1094.8000    10.1100     0.0943   -99999.0   114.6189     0.9268    51.5538     2.2040     1.3677    54.1185  1527.0000   -99999.0 
   1095.0000    10.1717     0.0930   -99999.0   109.8363     0.9242    49.9102     2.2009     1.3583    54.6661  1517.0000   -99999.0 
   1095.2000    10.2000     0.0930   -99999.0   107.2475     0.9131    49.5652     2.1989     1.3583    54.0631  1531.3818   -99999.0 
   1095.4000    10.1183     0.0903   -99999.0   109.5433     0.9022    49.4719     2.1943     1.3583    53.5913  1556.0000   -99999.0 
   1095.6000    10.0303     0.0820   -99999.0   112.5862     0.8974    49.0923     2.1880     1.3583    52.8039  1503.3477   -99999.0 
   1095.8000     9.9900     0.0793   -99999.0   111.4967     0.9048    48.3112     2.1866     1.3612    52.8975  1531.1311   -99999.0 
