~VERSION INFORMATION                                                           
 VERS.           2.0: CWLS Log ASCII Standard - Version 2.0                    
 WRAP.            NO: One Line per Depth Step                                  
~WELL INFORMATION                                                              
#MNEM.UNIT              DATA            DESCRIPTION OF MNEMONIC                
#-----------            ----            -----------------------                
 STRT.M             789.58              :Start Depth                           
 STOP.M            1481.02              :Stop  Depth                           
 STEP.M             0.1524              :Step                                  
 NULL.              -99999.0            :Null Value                            
 COMP.     PETROLEO BRASILEIRO S/A      :Company                               
 ORIG.     SIGEO EXPORTACAO PERFIL      :Origem dos dados                      
 WELL.     7-LP-88-ES                   :Well                                  
 FLD.      LAGOA PARDA                  :Field                                 
 STAT.     ESPIRITO SANTO               :State                                 
 API.      342700034000                 :API Code                              
 X.                410166.50            :Surface X                             
 Y.               7830454.00            :Surface Y                             
 HZCS.           UTM                    :Horizontal Coordinate System          
 MC.               39 W                 :Meridiano Central
 LATI.           -19:37:08.391          :Latitude                              
 LONG.           -39:51:24.187          :Longitude                             
 GDAT.           SIRGAS2000             :Geodetic Datum                        
 LMF.            MR                     :Log Measure From                      
 EDF.M              10.00               :Elevation Derrick Floor               
 EGL.M               4.80               :GROUND ELEVATION                      
~CURVE INFORMATION                                                             
 DEPT.M                                 :Measured Depth                        
 CALI.in                                :CALIPER 
 CALI.in                                :CALIPER 
 CILD.mS/m                              :CALIBRATED DEEP INDUCTION CONDUCTIVITY 
 DRHO.g/cm3                             :BULK DENSITIY CORRECTION 
 DRHO.g/cm3                             :BULK DENSITIY CORRECTION 
 GR.gAPI                                :GAMMA RAY 
 ILD.ohm.m                              :INDUCTION DEEP RESISTIVITY 
 NPHI.%                                 :THERMAL NEUTRON POROSITY (ORIGINAL RATIO METHOD) IN SELECTED LITHOLOGY 
 NPHI.%                                 :THERMAL NEUTRON POROSITY (ORIGINAL RATIO METHOD) IN SELECTED LITHOLOGY 
 NPOR.%                                 :NEUTRON POROSITY (ENVIRONMENTALLY CORRECTED AND ALPHA PROCESSED) 
 NPOR.%                                 :NEUTRON POROSITY (ENVIRONMENTALLY CORRECTED AND ALPHA PROCESSED) 
 PEF.Adim                               :PHOTOELETRIC FACTOR 
 PEF.Adim                               :PHOTOELETRIC FACTOR 
 RHOB.g/cm3                             :BULK DENSITY 
 RHOB.g/cm3                             :BULK DENSITY 
 RSFL.uohm                              :Raw SFL Conductivity 
 SFLU.ohm.m                             :SFL RESISTIVITY UNAVERAGED 
 SP.mV                                  :SPONTANEOUS POTENTIAL 
 TENS.lbf                               :LINE TENSION 
~ASCII LOG DATA                                                                
# ...
   1420.5201   -99999.0     9.0938  1026.6665   -99999.0     0.0705   140.5000     0.9740   -99999.0    40.2983   -99999.0    43.1527   -99999.0     3.6680   -99999.0     2.2663   834.1991     1.1938   -94.9570  2290.0000 
   1420.6725   -99999.0     9.0938  1029.1219   -99999.0     0.0832   141.7500     0.9717   -99999.0    40.7605   -99999.0    38.7868   -99999.0     3.7559   -99999.0     2.2812   856.9630     1.1621   -93.9713  2315.0000 
   1420.8249   -99999.0     9.0156  1031.6844   -99999.0     0.0729   140.0000     0.9693   -99999.0    41.0985   -99999.0    41.7372   -99999.0     3.6738   -99999.0     2.2541   834.4752     1.1934   -93.9893  2315.0000 
   1420.9773   -99999.0     9.0234  1028.1481   -99999.0     0.1135   138.6250     0.9726   -99999.0    40.7611   -99999.0    43.2295   -99999.0     3.5605   -99999.0     2.2706   862.8147     1.1542   -94.7994  2320.0000 
   1421.1297   -99999.0     9.0859  1019.6813   -99999.0     0.1542   137.8750     0.9807   -99999.0    40.8402   -99999.0    43.6802   -99999.0     3.5020   -99999.0     2.2983   855.2691     1.1643   -95.5604  2355.0000 
   1421.2821   -99999.0     9.1016  1013.5989   -99999.0     0.1465   137.7500     0.9866   -99999.0    40.5866   -99999.0    44.0751   -99999.0     3.3594   -99999.0     2.2859   854.6121     1.1652   -94.9393  2345.0000 
   1421.4345   -99999.0     9.1406   996.9646   -99999.0     0.1332   139.5000     1.0031   -99999.0    40.2416   -99999.0    36.2952   -99999.0     3.3145   -99999.0     2.2981   882.3873     1.1286   -95.7889  2365.0000 
   1421.5869   -99999.0     9.0781   981.9805   -99999.0     0.1088   131.6250     1.0184   -99999.0    39.1918   -99999.0    39.5315   -99999.0     3.5645   -99999.0     2.2804   852.0484     1.1688   -98.0446  2355.0000 
   1421.7393   -99999.0     9.0703   970.2970   -99999.0     0.1228   134.2500     1.0306   -99999.0    38.6225   -99999.0    42.2516   -99999.0     4.3086   -99999.0     2.3200   856.9243     1.1620   -99.0496  2305.0000 
   1421.8917   -99999.0     9.0781   952.2332   -99999.0     0.0920   129.5000     1.0502   -99999.0    37.8557   -99999.0    38.5019   -99999.0     4.2227   -99999.0     2.2959   797.4407     1.2493   -99.3535  2280.0000 
   1422.0441   -99999.0     9.0938   928.9209   -99999.0     0.1012   134.3750     1.0766   -99999.0    36.8772   -99999.0    37.3061   -99999.0     3.8145   -99999.0     2.3041   784.7632     1.2689   -99.4893  2310.0000 
   1422.1965   -99999.0     9.0781   907.8486   -99999.0     0.1032   128.2500     1.1015   -99999.0    35.7949   -99999.0    37.5386   -99999.0     3.2812   -99999.0     2.2873   740.5202     1.3451  -100.0714  2340.0000 
   1422.3489   -99999.0     9.2812   896.3282   -99999.0     0.1149   130.8750     1.1157   -99999.0    35.0804   -99999.0    35.4347   -99999.0     3.4414   -99999.0     2.3166   759.7616     1.3107   -99.2113  2300.0000 
   1422.5013   -99999.0     9.0781   886.5786   -99999.0     0.0669   137.2500     1.1279   -99999.0    34.4461   -99999.0    34.2449   -99999.0     3.5078   -99999.0     2.2813   736.3382     1.3524   -98.5537  2320.0000 
   1422.6537   -99999.0     9.0391   882.7252   -99999.0     0.0850   141.7500     1.1329   -99999.0    33.9684   -99999.0    31.7588   -99999.0     3.5996   -99999.0     2.3180   717.7629     1.3873   -97.8142  2305.0000 
   1422.8061   -99999.0     9.4375   886.2233   -99999.0     0.0971   138.5000     1.1284   -99999.0    34.3198   -99999.0    37.2117   -99999.0     3.4883   -99999.0     2.3183   703.0287     1.4164   -98.4355  2295.0000 
   1422.9585   -99999.0     9.0000   889.3683   -99999.0     0.1079   134.7500     1.1244   -99999.0    35.3499   -99999.0    35.5594   -99999.0     3.4688   -99999.0     2.3069   724.2998     1.3749   -98.5000  2360.0000 
   1423.1109   -99999.0     8.9375   901.6432   -99999.0     0.1082   135.3750     1.1091   -99999.0    36.5072   -99999.0    34.7937   -99999.0     3.3105   -99999.0     2.2938   790.2397     1.2609   -98.3858  2345.0000 
   1423.2633   -99999.0     9.0938   908.8487   -99999.0     0.0723   139.3750     1.1003   -99999.0    37.6800   -99999.0    37.3334   -99999.0     3.1973   -99999.0     2.2086   860.0869     1.1584   -98.9464  2315.0000 
   1423.4157   -99999.0     9.1797   910.7805   -99999.0     0.1045   136.2500     1.0980   -99999.0    38.9984   -99999.0    40.5959   -99999.0     3.1465   -99999.0     2.2087   849.2616     1.1726   -98.7715  2315.0000 
   1423.5681   -99999.0     9.2578   907.3396   -99999.0     0.1299   136.3750     1.1021   -99999.0    39.6189   -99999.0    41.5105   -99999.0     3.2090   -99999.0     2.1848   808.0393     1.2326   -98.2933  2290.0000 
   1423.7205   -99999.0     9.0703   891.8155   -99999.0     0.1741   133.5000     1.1213   -99999.0    38.5597   -99999.0    38.6566   -99999.0     3.3242   -99999.0     2.2359   797.4321     1.2487   -97.3362  2265.0000 
   1423.8729   -99999.0     9.2109   863.7974   -99999.0     0.1708   134.7500     1.1578   -99999.0    36.2051   -99999.0    42.2338   -99999.0     3.5508   -99999.0     2.2741   839.5553     1.1864   -96.6786  2305.0000 
   1424.0253   -99999.0     9.1016   849.5322   -99999.0     0.1224   127.1875     1.1771   -99999.0    34.5579   -99999.0    38.9926   -99999.0     3.7051   -99999.0     2.3224   849.7770     1.1718   -95.9391  2325.0000 
   1424.1777   -99999.0     9.0000   852.4381   -99999.0     0.0825   124.5625     1.1731   -99999.0    33.5175   -99999.0    24.0844   -99999.0     3.6914   -99999.0     2.3558   738.6981     1.3505   -95.5322  2370.0000 
   1424.3301   -99999.0     8.7500   848.2408   -99999.0     0.0960   123.8125     1.1789   -99999.0    33.2376   -99999.0    23.7390   -99999.0     3.5234   -99999.0     2.3253   565.0473     1.7731   -95.7284  2315.0000 
   1424.4825   -99999.0     8.7891   840.6786   -99999.0     0.1428   130.5000     1.1895   -99999.0    33.3521   -99999.0    38.7614   -99999.0     3.3027   -99999.0     2.3106   545.0725     1.8267   -96.3213  2335.0000 
   1424.6349   -99999.0     8.8594   832.8369   -99999.0     0.1772   136.5000     1.2007   -99999.0    34.9535   -99999.0    41.3902   -99999.0     3.3711   -99999.0     2.3234   664.3315     1.5043   -96.8322  2350.0000 
   1424.7873   -99999.0     8.9766   818.1741   -99999.0     0.1149   143.6250     1.2223   -99999.0    35.8767   -99999.0    35.1167   -99999.0     3.4453   -99999.0     2.3081   734.4585     1.3566   -97.3320  2310.0000 
   1424.9397   -99999.0     9.0234   820.2372   -99999.0     0.0819   149.0000     1.2192   -99999.0    35.8752   -99999.0    37.1550   -99999.0     3.6035   -99999.0     2.3133   746.5256     1.3338   -96.6898  2300.0000 
   1425.0921   -99999.0     8.8438   839.4101   -99999.0     0.0728   152.2500     1.1914   -99999.0    35.0648   -99999.0    39.3647   -99999.0     3.5254   -99999.0     2.3184   729.3542     1.3653   -97.0820  2345.0000 
   1425.2445   -99999.0     8.9922   852.0563   -99999.0     0.0786   151.2500     1.1736   -99999.0    35.3988   -99999.0    34.6260   -99999.0     3.4043   -99999.0     2.3311   762.7801     1.3057   -96.7822  2350.0000 
   1425.3969   -99999.0     8.9922   854.3700   -99999.0     0.0766   151.2500     1.1705   -99999.0    35.5140   -99999.0    33.4582   -99999.0     3.3711   -99999.0     2.3420   763.1338     1.3048   -95.8361  2285.0000 
   1425.5493   -99999.0     8.9453   854.0737   -99999.0     0.0466   146.2500     1.1709   -99999.0    35.7649   -99999.0    32.8787   -99999.0     3.4219   -99999.0     2.3122   763.8358     1.3036   -95.4645  2285.0000 
   1425.7017   -99999.0     8.9766   846.1612   -99999.0     0.0559   145.0000     1.1818   -99999.0    35.6837   -99999.0    36.5040   -99999.0     3.6309   -99999.0     2.3453   737.0046     1.3512   -94.6379  2335.0000 
   1425.8541   -99999.0     8.9688   833.2903   -99999.0     0.0370   144.0000     1.2001   -99999.0    35.9091   -99999.0    38.5186   -99999.0     3.6602   -99999.0     2.3144   691.8584     1.4397   -93.9912  2335.0000 
