~VERSION INFORMATION                                                           
 VERS.           2.0: CWLS Log ASCII Standard - Version 2.0                    
 WRAP.            NO: One Line per Depth Step                                  
~WELL INFORMATION                                                              
#MNEM.UNIT              DATA            DESCRIPTION OF MNEMONIC                
#-----------            ----            -----------------------                
 STRT.M             789.58              :Start Depth                           
 STOP.M            1481.02              :Stop  Depth                           
 STEP.M             0.1524              :Step                                  
 NULL.              -99999.0            :Null Value                            
 COMP.     PETROLEO BRASILEIRO S/A      :Company                               
 ORIG.     SIGEO EXPORTACAO PERFIL      :Origem dos dados                      
 WELL.     7-LP-88-ES                   :Well                                  
 FLD.      LAGOA PARDA                  :Field                                 
 STAT.     ESPIRITO SANTO               :State                                 
 API.      342700034000                 :API Code                              
 X.                410166.50            :Surface X                             
 Y.               7830454.00            :Surface Y                             
 HZCS.           UTM                    :Horizontal Coordinate System          
 MC.               39 W                 :Meridiano Central
 LATI.           -19:37:08.391          :Latitude                              
 LONG.           -39:51:24.187          :Longitude                             
 GDAT.           SIRGAS2000             :Geodetic Datum                        
 LMF.            MR                     :Log Measure From                      
 EDF.M              10.00               :Elevation Derrick Floor               
 EGL.M               4.80               :GROUND ELEVATION                      
~CURVE INFORMATION                                                             
 DEPT.M                                 :Measured Depth                        
 CALI.in                                :CALIPER 
 CALI.in                                :CALIPER 
 CILD.mS/m                              :CALIBRATED DEEP INDUCTION CONDUCTIVITY 
 DRHO.g/cm3                             :BULK DENSITIY CORRECTION 
 DRHO.g/cm3                             :BULK DENSITIY CORRECTION 
 GR.gAPI                                :GAMMA RAY 
 ILD.ohm.m                              :INDUCTION DEEP RESISTIVITY 
 NPHI.%                                 :THERMAL NEUTRON POROSITY (ORIGINAL RATIO METHOD) IN SELECTED LITHOLOGY 
 NPHI.%                                 :THERMAL NEUTRON POROSITY (ORIGINAL RATIO METHOD) IN SELECTED LITHOLOGY 
 NPOR.%                                 :NEUTRON POROSITY (ENVIRONMENTALLY CORRECTED AND ALPHA PROCESSED) 
 NPOR.%                                 :NEUTRON POROSITY (ENVIRONMENTALLY CORRECTED AND ALPHA PROCESSED) 
 PEF.Adim                               :PHOTOELETRIC FACTOR 
 PEF.Adim                               :PHOTOELETRIC FACTOR 
 RHOB.g/cm3                             :BULK DENSITY 
 RHOB.g/cm3                             :BULK DENSITY 
 RSFL.uohm                              :Raw SFL Conductivity 
 SFLU.ohm.m                             :SFL RESISTIVITY UNAVERAGED 
 SP.mV                                  :SPONTANEOUS POTENTIAL 
 TENS.lbf                               :LINE TENSION 
~ASCII LOG DATA                                                                
# ...
    921.2579     8.5469   -99999.0  1100.2739    -0.0047   -99999.0   110.9375     0.9089    47.6866   -99999.0    54.6511   -99999.0     3.2196   -99999.0     2.1447   -99999.0   975.1296     1.0212  -126.9683  1730.0000 
    921.4103     8.5501   -99999.0  1110.5474    -0.0055   -99999.0   106.1875     0.9005    48.1727   -99999.0    53.1255   -99999.0     3.6215   -99999.0     2.1450   -99999.0   956.9553     1.0406  -127.0000  1755.0000 
    921.5627     8.6609   -99999.0  1116.7606     0.0058   -99999.0   105.8125     0.8954    48.3486   -99999.0    49.3055   -99999.0     3.4973   -99999.0     2.1620   -99999.0   959.9346     1.0374  -127.4578  1730.0000 
    921.7151     8.6843   -99999.0  1120.3546     0.0436   -99999.0   105.0000     0.8926    47.2145   -99999.0    54.3909   -99999.0     3.1694   -99999.0     2.1979   -99999.0   971.6371     1.0249  -127.3856  1755.0000 
    921.8675     8.7344   -99999.0  1123.3912    -0.0067   -99999.0   106.1250     0.8902    46.7714   -99999.0    51.6461   -99999.0     3.4518   -99999.0     2.1444   -99999.0   997.3633     0.9985  -127.6039  1760.0000 
    922.0199     8.7734   -99999.0  1126.4568     0.0014   -99999.0   106.0625     0.8877    47.6732   -99999.0    55.6758   -99999.0     3.1789   -99999.0     2.1544   -99999.0   993.9213     1.0019  -128.0827  1720.0000 
    922.1723     8.7378   -99999.0  1130.2368    -0.0045   -99999.0   115.9375     0.8848    49.2012   -99999.0    46.4541   -99999.0     3.6434   -99999.0     2.1184   -99999.0   994.5374     1.0013  -128.3539  1765.0000 
    922.3247     8.6022   -99999.0  1133.4962     0.0070   -99999.0   114.0625     0.8822    47.3067   -99999.0    46.1448   -99999.0     3.5012   -99999.0     2.1395   -99999.0  1001.8352     0.9940  -128.1461  1740.0000 
    922.4771     8.5469   -99999.0  1135.8840     0.0073   -99999.0   113.6250     0.8804    47.4527   -99999.0    56.2844   -99999.0     3.3598   -99999.0     2.1450   -99999.0  1003.8079     0.9920  -128.5829  1740.0000 
    922.6295     8.5427   -99999.0  1135.0205    -0.0088   -99999.0   108.7500     0.8810    47.4973   -99999.0    56.5108   -99999.0     3.5521   -99999.0     2.1205   -99999.0  1017.6639     0.9785  -128.2816  1745.0000 
    922.7819     8.5618   -99999.0  1132.5140     0.0084   -99999.0   110.3125     0.8830    46.1384   -99999.0    40.3957   -99999.0     3.3554   -99999.0     2.1290   -99999.0   994.0743     1.0018  -128.1355  1705.0000 
    922.9343     8.6694   -99999.0  1126.0734     0.0172   -99999.0   114.3125     0.8880    45.5075   -99999.0    47.3441   -99999.0     3.5328   -99999.0     2.1586   -99999.0   986.0627     1.0099  -128.1250  1725.0000 
    923.0867     8.8438   -99999.0  1117.6597     0.0131   -99999.0   116.1875     0.8947    46.5272   -99999.0    48.5814   -99999.0     3.3516   -99999.0     2.1325   -99999.0   979.3225     1.0168  -128.1250  1750.0000 
    923.2391     8.5835   -99999.0  1113.5503     0.0639   -99999.0   117.6875     0.8980    47.4914   -99999.0    44.7337   -99999.0     3.5293   -99999.0     2.1587   -99999.0  1001.1488     0.9947  -128.4683  1750.0000 
    923.3915     8.5751   -99999.0  1109.9143     0.1086   -99999.0   113.5625     0.9010    48.2969   -99999.0    53.5837   -99999.0     3.2411   -99999.0     2.2034   -99999.0  1007.1379     0.9887  -128.9578  1765.0000 
    923.5439     8.9395   -99999.0  1106.8699     0.0054   -99999.0   107.8750     0.9034    47.8370   -99999.0    51.8988   -99999.0     3.0844   -99999.0     2.1141   -99999.0   977.5822     1.0187  -129.5722  1745.0000 
    923.6963     9.0475   -99999.0  1101.7894     0.0051   -99999.0   106.1250     0.9076    48.4038   -99999.0    46.2815   -99999.0     3.3368   -99999.0     2.1402   -99999.0   959.1272     1.0383  -129.3961  1765.0000 
    923.8487     9.0164   -99999.0  1100.4139    -0.0065   -99999.0   108.5000     0.9087    47.9773   -99999.0    52.7974   -99999.0     3.3381   -99999.0     2.1356   -99999.0   974.6797     1.0217  -129.1461  1745.0000 
    924.0011     8.6774   -99999.0  1100.1541     0.0064   -99999.0   108.1875     0.9090    47.3915   -99999.0    45.4907   -99999.0     3.0849   -99999.0     2.1189   -99999.0   924.4306     1.0775  -129.3539  1745.0000 
    924.1535     8.6094   -99999.0  1105.8386     0.0218   -99999.0   112.0000     0.9043    47.4107   -99999.0    59.8059   -99999.0     3.4907   -99999.0     2.1244   -99999.0   883.6666     1.1270  -128.8027  1740.0000 
    924.3059     8.6138   -99999.0  1115.6371     0.0104   -99999.0   109.4375     0.8964    46.5221   -99999.0    49.0561   -99999.0     3.5231   -99999.0     2.1162   -99999.0   913.7166     1.0900  -128.0632  1725.0000 
    924.4583     8.6406   -99999.0  1123.2766     0.0127   -99999.0   108.1875     0.8903    45.7894   -99999.0    44.5381   -99999.0     3.4269   -99999.0     2.1155   -99999.0   968.4586     1.0285  -128.0000  1765.0000 
    924.6107     8.6417   -99999.0  1117.2322     0.0266   -99999.0   106.9375     0.8951    46.3304   -99999.0    48.5753   -99999.0     3.3919   -99999.0     2.1315   -99999.0  1007.8796     0.9881  -128.0000  1735.0000 
    924.7631     8.6953   -99999.0  1111.8313     0.0245   -99999.0   108.3750     0.8994    46.5241   -99999.0    44.8068   -99999.0     3.2333   -99999.0     2.1448   -99999.0  1026.7683     0.9699  -127.6566  1745.0000 
    924.9155     8.5831   -99999.0  1106.5541     0.0113   -99999.0   116.8125     0.9037    46.1875   -99999.0    49.6679   -99999.0     3.4817   -99999.0     2.1360   -99999.0  1046.0363     0.9520  -128.1973  1745.0000 
    925.0679     8.7080   -99999.0  1103.8391     0.0069   -99999.0   112.5000     0.9059    46.9399   -99999.0    47.6927   -99999.0     3.4339   -99999.0     2.1216   -99999.0  1033.2904     0.9637  -128.2500  1740.0000 
    925.2203     8.8134   -99999.0  1110.0939     0.0233   -99999.0   112.8750     0.9008    46.9848   -99999.0    47.6868   -99999.0     3.3566   -99999.0     2.1414   -99999.0   971.7985     1.0250  -128.5933  1735.0000 
    925.3727     8.7417   -99999.0  1118.6305     0.0376   -99999.0   114.6250     0.8940    46.7560   -99999.0    51.7315   -99999.0     3.6688   -99999.0     2.1853   -99999.0   926.3588     1.0751  -127.9383  1735.0000 
    925.5251     8.4826   -99999.0  1118.8372     0.0124   -99999.0   119.3125     0.8938    47.2969   -99999.0    42.3572   -99999.0     3.5433   -99999.0     2.1489   -99999.0   882.7887     1.1282  -127.4173  1720.0000 
    925.6775     8.4297   -99999.0  1110.9664    -0.0056   -99999.0   120.5625     0.9001    48.7884   -99999.0    50.4110   -99999.0     3.3574   -99999.0     2.1200   -99999.0   940.4107     1.0593  -127.0889  1720.0000 
    925.8299     8.4774   -99999.0  1100.9923    -0.0032   -99999.0   121.1250     0.9083    48.2086   -99999.0    50.2435   -99999.0     3.1214   -99999.0     2.1310   -99999.0  1016.0369     0.9805  -126.6620  1730.0000 
    925.9823     8.5830   -99999.0  1101.8230     0.0136   -99999.0   117.8125     0.9076    47.6222   -99999.0    48.4211   -99999.0     3.3066   -99999.0     2.1336   -99999.0  1074.1549     0.9273  -127.3116  1725.0000 
    926.1347     8.7266   -99999.0  1113.3401     0.0162   -99999.0   115.3750     0.8982    46.9763   -99999.0    61.3756   -99999.0     3.3890   -99999.0     2.1566   -99999.0   985.5556     1.0112  -127.3750  1760.0000 
    926.2871     8.8750   -99999.0  1131.7819     0.0235   -99999.0   110.1250     0.8836    46.7269   -99999.0    41.3685   -99999.0     3.1495   -99999.0     2.1535   -99999.0   916.2962     1.0872  -127.4895  1765.0000 
    926.4395     8.8270   -99999.0  1150.8895     0.0260   -99999.0   113.5625     0.8689    44.4768   -99999.0    52.5148   -99999.0     3.3603   -99999.0     2.1956   -99999.0   894.8527     1.1128  -127.8434  1710.0000 
    926.5919     8.5937   -99999.0  1158.8950     0.0295   -99999.0   112.9375     0.8629    46.8641   -99999.0    44.0083   -99999.0     3.6877   -99999.0     2.1771   -99999.0   928.2213     1.0729  -128.9051  1760.0000 
