~VERSION INFORMATION                                                           
 VERS.           2.0: CWLS Log ASCII Standard - Version 2.0                    
 WRAP.            NO: One Line per Depth Step                                  
~WELL INFORMATION                                                              
#MNEM.UNIT              DATA            DESCRIPTION OF MNEMONIC                
#-----------            ----            -----------------------                
 STRT.M             898.09              :Start Depth                           
 STOP.M            1708.40              :Stop  Depth                           
 STEP.M             0.1524              :Step                                  
 NULL.              -99999.0            :Null Value                            
 COMP.     PETROLEO BRASILEIRO S/A      :Company                               
 ORIG.     SIGEO EXPORTACAO PERFIL      :Origem dos dados                      
 WELL.     7-LP-84-ES                   :Well                                  
 FLD.      LAGOA PARDA                  :Field                                 
 STAT.     ESPIRITO SANTO               :State                                 
 API.      342700024200                 :API Code                              
 X.                411577.00            :Surface X                             
 Y.               7831472.80            :Surface Y                             
 HZCS.           UTM                    :Horizontal Coordinate System          
 MC.               39 W                 :Meridiano Central
 LATI.           -19:36:35.478          :Latitude                              
 LONG.           -39:50:35.593          :Longitude                             
 GDAT.           SIRGAS2000             :Geodetic Datum                        
 LMF.            MR                     :Log Measure From                      
 EDF.M               9.00               :Elevation Derrick Floor               
 EGL.M               4.40               :GROUND ELEVATION                      
~CURVE INFORMATION                                                             
 DEPT.M                                 :Measured Depth                        
 CALI.in                                :CALIPER 
 CILD.mS/m                              :CALIBRATED DEEP INDUCTION CONDUCTIVITY 
 DRHO.g/cm3                             :BULK DENSITIY CORRECTION 
 EFAC.Adim                              :ELETROFACIES 
 GR.gAPI                                :GAMMA RAY 
 ILD.ohm.m                              :INDUCTION DEEP RESISTIVITY 
 NPHI.%                                 :THERMAL NEUTRON POROSITY (ORIGINAL RATIO METHOD) IN SELECTED LITHOLOGY 
 NPOR.%                                 :NEUTRON POROSITY (ENVIRONMENTALLY CORRECTED AND ALPHA PROCESSED) 
 RHOB.g/cm3                             :BULK DENSITY 
 SFLU.ohm.m                             :SFL RESISTIVITY UNAVERAGED 
 SP.mV                                  :SPONTANEOUS POTENTIAL 
 TENS.lbf                               :LINE TENSION 
 VSH.v/v                                :VOLUME DE FOLHELHO 
~ASCII LOG DATA                                                                
# ...
   1667.5598     8.4140  1555.9824    -0.0429   -99999.0    75.3750     0.6425    19.8631    19.7327     2.1526     1.7897   -75.0938  2033.7500     0.0000 
   1667.7122     8.4219  1645.2898    -0.0477   -99999.0    71.4531     0.6098    21.5195    18.3380     2.1677     1.7948   -76.7500  2023.7500     0.0000 
   1667.8646     8.4375  1721.9712    -0.0469   -99999.0    69.0938     0.5828    23.4314    20.6787     2.1981     1.6410   -77.8438  2022.5000     0.0000 
   1668.0170     8.4453  1778.9607    -0.0212   -99999.0    68.4531     0.5631    23.7041    24.9359     2.2535     1.4073   -78.5781  2027.5000     0.0000 
   1668.1694     8.4765  1826.9983    -0.0476   -99999.0    67.9844     0.5473    23.9109    24.3813     2.2386     1.2030   -79.0469  2030.0000     0.0000 
   1668.3218     8.4766  1878.4082    -0.0435   -99999.0    68.1562     0.5319    24.6231    23.1308     2.2404     1.0994   -79.2500  2030.0000     0.0000 
   1668.4742     8.4376  1939.5864    -0.0212   -99999.0    69.3438     0.5174    24.4270    23.0755     2.2538     1.0778   -79.0469  2030.0000     0.0000 
   1668.6266     8.4375  1975.6755    -0.0182   -99999.0    70.8281     0.5086    25.3250    23.9754     2.2507     1.0788   -78.5625  2032.5000     0.0000 
   1668.7790     8.4141  1974.3901    -0.0195   -99999.0    72.7031     0.5080    28.7567    27.5757     2.2508     1.0625   -77.5781  2032.5000     0.0000 
   1668.9314     8.3517  1949.5356    -0.0231   -99999.0    75.3906     0.5144    32.0526    30.7373     2.2550     1.0178   -76.0312  2026.2500     0.0000 
   1669.0838     8.4139  1903.4041    -0.0444   -99999.0    79.2500     0.5280    29.9057    29.4998     2.2290     0.9656   -74.8594  2022.5000     0.0000 
   1669.2362     8.2816  1823.5349    -0.0246   -99999.0    82.9375     0.5533    26.6022    26.1871     2.2781     0.9319   -74.3906  2017.5000     0.0000 
   1669.3886     8.2890  1691.4543    -0.0171   -99999.0    84.5938     0.5947    30.7037    26.7845     2.2473     0.9273   -74.3438  2007.5000     0.0000 
   1669.5410     8.2579  1543.1675     0.0050   -99999.0    82.4219     0.6480    31.6902    32.6782     2.2902     0.9474   -74.8750  1998.7500     0.0000 
   1669.6934     8.3746  1418.7773    -0.0291   -99999.0    77.0000     0.7053    28.9459    28.3173     2.2686     0.9778   -75.8594  1995.0000     0.0000 
   1669.8458     8.4762  1309.5232    -0.0542   -99999.0    71.7500     0.7552    28.1647    26.1032     2.2094     1.0718   -76.9062  2002.5000     0.0000 
   1669.9982     8.4065  1267.8904    -0.0121   -99999.0    69.3906     0.7775    27.7748    27.2186     2.2037     1.4760   -77.6719  2017.5000     0.0000 
   1670.1506     8.4374  1300.5708    -0.0099   -99999.0    68.9375     0.7652    25.7431    24.4537     2.1684     2.2148   -78.2188  2026.2500     0.0000 
   1670.3030     8.4219  1362.1741    -0.0230   -99999.0    68.2969     0.7301    25.6709    24.1892     2.1865     2.6633   -78.5781  2027.5000     0.0000 
   1670.4554     8.3362  1463.9590    -0.0253   -99999.0    68.2500     0.6784    26.1360    25.3677     2.2270     2.3252   -78.6094  2025.0000     0.0000 
   1670.6078     8.4761  1630.2405    -0.0313   -99999.0    69.2500     0.6123    24.9725    24.8348     2.2157     1.5953   -78.7500  2016.2500     0.0000 
   1670.7602     8.4688  1854.1541    -0.0356   -99999.0    71.3750     0.5400    25.2033    25.3361     2.2089     1.1088   -79.1094  2013.7500     0.0000 
   1670.9126     8.4298  2137.7212     0.0023   -99999.0    74.7969     0.4711    26.4191    26.0933     2.2373     0.9496   -79.4219  2023.7500     0.0000 
   1671.0650     8.4687  2441.2388     0.0024   -99999.0    79.8906     0.4141    25.5348    26.3176     2.2163     0.9341   -79.5625  2031.2500     0.0000 
   1671.2174     8.4454  2706.8770    -0.0040   -99999.0    85.8281     0.3739    25.2609    23.9563     2.2566     0.9863   -79.5312  2032.5000     0.0000 
   1671.3698     8.4687  2880.7095    -0.0349   -99999.0    88.5469     0.3515    24.8993    23.3208     2.2314     1.0768   -79.4688  2031.2500     0.0000 
   1671.5222     8.5311  2921.8799    -0.0353   -99999.0    85.6406     0.3459    24.4217    23.2331     2.2500     1.1629   -79.3438  2028.7500     0.0000 
   1671.6746     8.5702  2841.8354    -0.0363   -99999.0    79.7500     0.3545    23.9952    23.2846     2.2648     1.2017   -79.1719  2023.7500     0.0000 
   1671.8270     8.5080  2687.1313    -0.0484   -99999.0    75.9531     0.3755    23.5638    21.8994     2.2461     1.1975   -78.9688  2021.2500     0.0000 
   1671.9794     8.4143  2462.9497    -0.0377   -99999.0    75.2031     0.4138    23.6165    22.6097     2.2729     1.1886   -78.8906  2021.2500     0.0000 
   1672.1318     8.3440  2123.5322    -0.0082   -99999.0    74.9844     0.4759    24.0891    23.3727     2.3137     1.2077   -79.0312  2010.0000     0.0000 
   1672.2842     8.3827  1799.7075    -0.0249   -99999.0    74.0625     0.5554    23.2704    23.9037     2.2947     1.2920   -78.9375  1997.5000     0.0000 
   1672.4366     8.3906  1564.0916    -0.0200   -99999.0    73.7344     0.6473    18.3411    18.6279     2.3713     1.5070   -78.5312  1998.7500     0.0000 
   1672.5890     8.4140  1324.9548    -0.0417   -99999.0    74.4375     0.7667    12.5732    12.3352     2.3907     1.9745   -78.0938  2008.7500     0.0000 
   1672.7414     8.4374  1089.4001     0.0065   -99999.0    74.3281     0.9446     8.8837     9.4849     2.4989     2.9258   -77.6250  2021.2500     0.0000 
   1672.8938     8.2117   841.9817     0.0280   -99999.0    73.9531     1.2331     7.8514     8.1696     2.4660     4.7253   -77.2188  2030.0000     0.0000 
   1673.0462     8.3668   610.1333     0.0995   -99999.0    74.2500     1.6853     7.1594     6.7139     2.6199     7.9542   -77.0000  2031.2500     0.0000 
   1673.1986     8.5463   439.4377    -0.0278   -99999.0    74.4375     2.3238     5.9296     5.8289     2.5616    13.1823   -76.8750  2028.7500     0.0000 
   1673.3510     8.5313   322.0681    -0.0332   -99999.0    73.3594     3.2126     5.3875     5.2246     2.5982    20.1933   -76.7188  2026.2500     0.0000 
   1673.5034     8.5001   229.0984    -0.0147   -99999.0    70.8750     4.4541     6.5964     6.3530     2.5638    28.0331   -76.5312  2023.7500     0.0000 
   1673.6558     8.4377   167.1841     0.0020   -99999.0    69.0156     5.7829     8.5739     9.0485     2.5397    35.4769   -76.2188  2023.7500     0.0000 
   1673.8082     8.3207   146.9763     0.0248   -99999.0    69.5625     6.3458     9.2003    10.5942     2.5520    40.9500   -75.9688  2026.2500     0.0000 
   1673.9606     8.3125   172.5903     0.0115   -99999.0    71.2188     5.5040     8.5922     8.6227     2.5489    43.9840   -76.1250  2033.7500     0.0000 
   1674.1130     8.4137   275.9211    -0.0282   -99999.0    71.9531     3.8442     8.6681     6.8604     2.5935    37.7842   -76.4531  2043.7500     0.0000 
   1674.2654     8.4608   428.4089    -0.0547   -99999.0    71.1406     2.4712    12.7930     9.6130     2.4694    20.3728   -76.7500  2042.5000     0.0000 
   1674.4178     8.4298   628.1057    -0.0196   -99999.0    70.3594     1.6646    18.3472    19.2383     2.3799     6.9016   -77.1094  2032.5000     0.0000 
   1674.5702     8.3517   877.2361    -0.0269   -99999.0    71.0156     1.1935    22.7661    25.8789     2.2239     2.6857   -77.4688  2025.0000     0.0000 
   1674.7226     8.3983  1108.5999    -0.0171   -99999.0    71.7656     0.9173    25.0687    25.7559     2.2653     1.4759   -77.6875  2021.2500     0.0000 
   1674.8750     8.3751  1378.7312    -0.0359   -99999.0    72.0000     0.7304    24.6315    26.0286     2.2484     1.1593   -77.7188  2020.0000     0.0000 
   1675.0274     8.4062  1757.8616    -0.0389   -99999.0    72.3125     0.5826    23.7297    21.5759     2.2536     1.1176   -77.6875  2017.5000     0.0000 
   1675.1798     8.4296  2139.1147    -0.0416   -99999.0    73.5469     0.4820    23.8874    22.0512     2.2595     1.1644   -77.8125  2008.7500     0.0000 
