~VERSION INFORMATION                                                           
 VERS.           2.0: CWLS Log ASCII Standard - Version 2.0                    
 WRAP.            NO: One Line per Depth Step                                  
~WELL INFORMATION                                                              
#MNEM.UNIT              DATA            DESCRIPTION OF MNEMONIC                
#-----------            ----            -----------------------                
 STRT.M             952.00              :Start Depth                           
 STOP.M            1604.00              :Stop  Depth                           
 STEP.M             0.2000              :Step                                  
 NULL.              -99999.0            :Null Value                            
 COMP.     PETROLEO BRASILEIRO S/A      :Company                               
 ORIG.     SIGEO EXPORTACAO PERFIL      :Origem dos dados                      
 WELL.     7-LP-85-ES                   :Well                                  
 FLD.      LAGOA PARDA                  :Field                                 
 STAT.     ESPIRITO SANTO               :State                                 
 API.      342700026300                 :API Code                              
 X.                412944.10            :Surface X                             
 Y.               7831795.90            :Surface Y                             
 HZCS.           UTM                    :Horizontal Coordinate System          
 MC.               39 W                 :Meridiano Central
 LATI.           -19:36:25.186          :Latitude                              
 LONG.           -39:49:48.609          :Longitude                             
 GDAT.           SIRGAS2000             :Geodetic Datum                        
 LMF.            MR                     :Log Measure From                      
 EDF.M               8.00               :Elevation Derrick Floor               
 EGL.M               3.00               :GROUND ELEVATION                      
~CURVE INFORMATION                                                             
 DEPT.M                                 :Measured Depth                        
 CALI.in                                :CALIPER 
 DRHO.g/cm3                             :BULK DENSITIY CORRECTION 
 EFAC.Adim                              :ELETROFACIES 
 GR.gAPI                                :GAMMA RAY 
 ILD.ohm.m                              :INDUCTION DEEP RESISTIVITY 
 NPHI.%                                 :THERMAL NEUTRON POROSITY (ORIGINAL RATIO METHOD) IN SELECTED LITHOLOGY 
 RHOB.g/cm3                             :BULK DENSITY 
 SN.ohm.m                               :SHORT NORMAL RESISTIVITY 
 SP.mV                                  :SPONTANEOUS POTENTIAL 
 TENS.lbf                               :LINE TENSION 
 VSH.v/v                                :VOLUME DE FOLHELHO 
~ASCII LOG DATA                                                                
# ...
   1468.0000     9.4882     0.2244   -99999.0   122.0185     1.0691    45.6031     2.2536     1.6788    79.8370  1896.7400     1.0000 
   1468.2000     9.6938     0.2244   -99999.0   122.5002     1.0691    44.9773     2.2549     1.6687    79.4875  1840.7322     1.0000 
   1468.4000     9.4487     0.2034   -99999.0   122.1810     1.0686    42.9710     2.2576     1.6658    79.5437  1819.8582     1.0000 
   1468.6000     9.2800     0.1855   -99999.0   120.5500     1.0654    41.7950     2.2615     1.6539    78.6000  1861.5000     1.0000 
   1468.8000     9.3631     0.1936   -99999.0   122.0871     1.0622    43.8196     2.2630     1.6482    77.7375  1969.7532     1.0000 
   1469.0000     9.4800     0.2117   -99999.0   126.0867     1.0617    48.6174     2.2566     1.6467    78.1496  1857.7532     1.0000 
   1469.2000     9.5631     0.2148   -99999.0   128.1437     1.0617    53.0932     2.2404     1.6418    79.3311  1844.6299     1.0000 
   1469.4000     9.5350     0.2053   -99999.0   126.7762     1.0599    53.9329     2.2200     1.6482    79.5749  1864.4775     1.0000 
   1469.6000     9.4763     0.1959   -99999.0   122.1903     1.0568    50.3688     2.2050     1.6482    80.2432  1876.5195     1.0000 
   1469.8000     9.4499     0.1959   -99999.0   118.5886     1.0586    46.9064     2.2099     1.6524    81.0122  1862.9763     1.0000 
   1470.0000     9.5000     0.2065   -99999.0   118.5177     1.0684    46.0006     2.2310     1.6596    80.3764  1858.0957     1.0000 
   1470.2000     9.5100     0.2200   -99999.0   120.5976     1.0814    46.7590     2.2500     1.6672    79.3009  1887.9487     1.0000 
   1470.4000     9.4362     0.2176   -99999.0   123.0397     1.0880    47.5829     2.2523     1.6708    78.9933  1862.9250     1.0000 
   1470.6000     9.4313     0.2006   -99999.0   126.8947     1.0930    47.4881     2.2574     1.6788    78.8260  1920.7664     1.0000 
   1470.8000     9.4106     0.1828   -99999.0   128.6614     1.0963    46.6489     2.2694     1.6680    78.9743  1807.5237     1.0000 
   1471.0000     9.4302     0.1812   -99999.0   124.8327     1.0996    45.0202     2.2862     1.6615    79.2488  1860.3188     1.0000 
   1471.2000     9.4260     0.1970   -99999.0   120.7793     1.1015    43.6145     2.2971     1.6672    79.6440  1858.6560     1.0000 
   1471.4000     9.7580     0.2145   -99999.0   120.5109     1.1038    44.0182     2.2797     1.6773    80.9963  1857.0552     1.0000 
   1471.6000     9.6300     0.2105   -99999.0   123.3626     1.1041    46.4727     2.2356     1.6887    81.6039  1851.6497     1.0000 
   1471.8000     9.3851     0.1831   -99999.0   125.8476     1.1041    48.2540     2.2080     1.6982    80.5984  1873.8857     1.0000 
   1472.0000     9.3843     0.1605   -99999.0   125.0854     1.1041    47.0797     2.2145     1.6888    80.7381  1902.8333     1.0000 
   1472.2000     9.3700     0.1636   -99999.0   122.0901     1.1069    43.6939     2.2382     1.6797    80.1268  1902.1101     1.0000 
   1472.4000     9.3743     0.1789   -99999.0   121.7344     1.1092    41.6106     2.2440     1.6866    79.1656  1827.1443     1.0000 
   1472.6000     9.3949     0.1855   -99999.0   123.4201     1.1092    42.3981     2.2236     1.6866    78.4507  2032.5315     1.0000 
   1472.8000     9.3518     0.1824   -99999.0   124.3059     1.1120    44.9663     2.1940     1.6788    79.3472  1965.2126     1.0000 
   1473.0000     9.3800     0.1682   -99999.0   124.5857     1.1188    46.8717     2.1754     1.6745    80.4714  1831.4041     1.0000 
   1473.2000     9.4552     0.1559   -99999.0   124.2846     1.1256    46.5052     2.1765     1.6751    81.5102  1908.0012     1.0000 
   1473.4000     9.5498     0.1650   -99999.0   120.6134     1.1376    44.2775     2.2029     1.6865    81.2020  1917.2322     1.0000 
   1473.6000     9.4093     0.1878   -99999.0   117.6075     1.1533    43.1262     2.2362     1.7097    81.1000  1833.7925     1.0000 
   1473.8000     9.4176     0.1909   -99999.0   117.4000     1.1621    43.6645     2.2511     1.7303    80.7276  1953.1050     1.0000 
   1474.0000     9.3447     0.1825   -99999.0   116.1870     1.1666    44.2472     2.2521     1.7378    79.8468  1861.4961     1.0000 
   1474.2000     9.3549     0.1850   -99999.0   113.8037     1.1662    44.0954     2.2455     1.7298    79.2509  1859.2769     1.0000 
   1474.4000     9.3644     0.1863   -99999.0   114.1481     1.1597    44.2821     2.2399     1.7232    78.8211  1866.1665     1.0000 
   1474.6000     9.4383     0.1780   -99999.0   117.9453     1.1469    45.1947     2.2460     1.7076    79.8181  1864.8149     1.0000 
   1474.8000     9.4964     0.1768   -99999.0   121.4818     1.1326    45.4915     2.2633     1.6961    79.8371  1924.2729     1.0000 
   1475.0000     9.4206     0.1924   -99999.0   120.1631     1.1182    44.7086     2.2864     1.6827    81.4937  1843.5381     1.0000 
   1475.2000     9.3600     0.2024   -99999.0   117.4472     1.1102    44.0856     2.2990     1.6851    82.4228  1833.1182     1.0000 
   1475.4000     9.3672     0.1856   -99999.0   118.6224     1.1092    43.3447     2.2867     1.6866    82.4403  1791.7637     1.0000 
   1475.6000     9.3941     0.1663   -99999.0   121.3454     1.1103    41.4185     2.2817     1.6916    81.8273  1892.8884     1.0000 
   1475.8000     9.3154     0.1781   -99999.0   121.0559     1.1156    39.3706     2.3088     1.7041    81.0047  1782.2205     1.0000 
   1476.0000     9.4396     0.2065   -99999.0   120.5072     1.1223    39.4324     2.3314     1.6982    81.3323  1961.5984     1.0000 
   1476.2000     9.5078     0.2117   -99999.0   122.9638     1.1272    42.3945     2.3143     1.7011    80.3106  1861.0801     1.0000 
   1476.4000     9.2751     0.1944   -99999.0   124.8492     1.1272    44.2801     2.2894     1.7061    81.4535  1841.5630     1.0000 
   1476.6000     9.2499     0.1721   -99999.0   125.7961     1.1272    43.0888     2.2741     1.7178    83.1915  1872.8752     1.0000 
   1476.8000     9.2431     0.1588   -99999.0   125.5694     1.1348    41.9642     2.2638     1.7415    81.9388  1846.1890     1.0000 
   1477.0000     9.2376     0.1572   -99999.0   126.2417     1.1451    43.0866     2.2647     1.7548    81.9236  1917.0000     1.0000 
   1477.2000     9.2021     0.1627   -99999.0   129.7705     1.1531    45.7556     2.2791     1.7769    81.4417  1880.7126     1.0000 
   1477.4000     9.2100     0.1621   -99999.0   131.7572     1.1667    47.3172     2.2870     1.7915    80.0058  1824.5315     1.0000 
   1477.6000     9.2100     0.1510   -99999.0   130.3894     1.1824    46.3073     2.2784     1.8188    79.6220  1889.9250     1.0000 
   1477.8000     9.2360     0.1409   -99999.0   130.7674     1.2053    44.5957     2.2653     1.8465    80.3205  1923.4946     1.0000 
   1478.0000     9.2374     0.1333   -99999.0   133.1539     1.2438    43.3441     2.2541     1.9079    80.2359  1834.6311     1.0000 
   1478.2000     9.1898     0.1339   -99999.0   131.9728     1.3091    42.7257     2.2579     1.9927    80.6953  1939.6182     1.0000 
   1478.4000     9.1759     0.1605   -99999.0   126.9604     1.4035    43.0742     2.3014     2.1243    80.8391  1884.5366     1.0000 
   1478.6000     9.3670     0.1930   -99999.0   122.6066     1.5315    43.2792     2.3561     2.2862    80.4883  1931.5825     1.0000 
   1478.8000     9.2183     0.1818   -99999.0   122.2004     1.7085    41.0369     2.3503     2.4941    79.6705  1890.5276     1.0000 
   1479.0000     8.7572     0.1522   -99999.0   122.8224     1.9547    36.9157     2.2986     2.8419    77.2912  1929.4580     1.0000 
   1479.2000     8.6811     0.1504   -99999.0   120.7740     2.3198    34.5677     2.2529     3.2330    74.3892  1878.8110     1.0000 
   1479.4000     8.6927     0.1522   -99999.0   114.7496     2.7705    35.6254     2.2293     3.7425    72.6256  1934.5000     1.0000 
   1479.6000     8.6936     0.1209   -99999.0   107.4684     3.2139    35.7672     2.2257     4.3215    68.2717  1866.8911     1.0000 
   1479.8000     8.7000     0.0763   -99999.0   101.9349     3.6032    32.9438     2.2508     4.7506    67.4009  1877.9541     0.8515 
