~VERSION INFORMATION                                                           
 VERS.           2.0: CWLS Log ASCII Standard - Version 2.0                    
 WRAP.            NO: One Line per Depth Step                                  
~WELL INFORMATION                                                              
#MNEM.UNIT              DATA            DESCRIPTION OF MNEMONIC                
#-----------            ----            -----------------------                
 STRT.M             952.00              :Start Depth                           
 STOP.M            1604.00              :Stop  Depth                           
 STEP.M             0.2000              :Step                                  
 NULL.              -99999.0            :Null Value                            
 COMP.     PETROLEO BRASILEIRO S/A      :Company                               
 ORIG.     SIGEO EXPORTACAO PERFIL      :Origem dos dados                      
 WELL.     7-LP-85-ES                   :Well                                  
 FLD.      LAGOA PARDA                  :Field                                 
 STAT.     ESPIRITO SANTO               :State                                 
 API.      342700026300                 :API Code                              
 X.                412944.10            :Surface X                             
 Y.               7831795.90            :Surface Y                             
 HZCS.           UTM                    :Horizontal Coordinate System          
 MC.               39 W                 :Meridiano Central
 LATI.           -19:36:25.186          :Latitude                              
 LONG.           -39:49:48.609          :Longitude                             
 GDAT.           SIRGAS2000             :Geodetic Datum                        
 LMF.            MR                     :Log Measure From                      
 EDF.M               8.00               :Elevation Derrick Floor               
 EGL.M               3.00               :GROUND ELEVATION                      
~CURVE INFORMATION                                                             
 DEPT.M                                 :Measured Depth                        
 CALI.in                                :CALIPER 
 DRHO.g/cm3                             :BULK DENSITIY CORRECTION 
 EFAC.Adim                              :ELETROFACIES 
 GR.gAPI                                :GAMMA RAY 
 ILD.ohm.m                              :INDUCTION DEEP RESISTIVITY 
 NPHI.%                                 :THERMAL NEUTRON POROSITY (ORIGINAL RATIO METHOD) IN SELECTED LITHOLOGY 
 RHOB.g/cm3                             :BULK DENSITY 
 SN.ohm.m                               :SHORT NORMAL RESISTIVITY 
 SP.mV                                  :SPONTANEOUS POTENTIAL 
 TENS.lbf                               :LINE TENSION 
 VSH.v/v                                :VOLUME DE FOLHELHO 
~ASCII LOG DATA                                                                
# ...
   1336.0000     9.0737     0.1233   -99999.0    96.6472     0.9367    44.5941     2.2052     1.4388    70.1051  1717.0000   -99999.0 
   1336.2000     9.1567     0.1210   -99999.0    95.1996     0.9323    43.8665     2.1827     1.4315    69.7734  1720.6680   -99999.0 
   1336.4000     9.0900     0.1200   -99999.0    93.7943     0.9267    43.2292     2.1811     1.4289    70.3367  1720.8975   -99999.0 
   1336.6000     9.0721     0.1211   -99999.0    90.5252     0.9239    42.4718     2.2159     1.4254    71.2075  1698.0000   -99999.0 
   1336.8000     9.0735     0.1310   -99999.0    89.0023     0.9211    42.7495     2.2531     1.4191    71.8694  1733.5420   -99999.0 
   1337.0000     9.0605     0.1320   -99999.0    91.8539     0.9163    44.2481     2.2531     1.4191    73.2795  1712.6653   -99999.0 
   1337.2000     9.0900     0.1208   -99999.0    92.8457     0.9135    43.6219     2.2376     1.4191    73.6819  1713.4763   -99999.0 
   1337.4000     9.1082     0.1210   -99999.0    91.5747     0.9120    41.2267     2.2469     1.4191    73.1570  1717.0000   -99999.0 
   1337.6000     9.1200     0.1276   -99999.0    92.3119     0.9120    40.7792     2.2557     1.4281    72.8160  1730.7991   -99999.0 
   1337.8000     9.2156     0.1356   -99999.0    93.9252     0.9110    43.6541     2.2451     1.4266    71.8071  1728.5156   -99999.0 
   1338.0000     9.2564     0.1484   -99999.0    96.0892     0.9067    46.6649     2.2352     1.4191    71.6089  1717.0000   -99999.0 
   1338.2000     9.1514     0.1469   -99999.0    97.1714     0.9022    47.0529     2.2217     1.4107    71.4429  1721.2847   -99999.0 
   1338.4000     9.0400     0.1243   -99999.0    95.1476     0.8967    44.6034     2.2051     1.3996    72.2339  1703.0000   -99999.0 
   1338.6000     9.0400     0.1067   -99999.0    95.0261     0.8903    42.7273     2.1912     1.3949    72.7853  1744.9016   -99999.0 
   1338.8000     9.0241     0.0980   -99999.0    96.4146     0.8823    41.9989     2.1836     1.3900    73.4382  1790.0000   -99999.0 
   1339.0000     9.0400     0.1002   -99999.0    94.5917     0.8766    40.4637     2.1913     1.3900    73.5575  1703.0000   -99999.0 
   1339.2000     9.0609     0.1138   -99999.0    91.4558     0.8730    39.9133     2.2041     1.3900    72.9070  1727.2808   -99999.0 
   1339.4000     9.1119     0.1205   -99999.0    91.2117     0.8744    41.8885     2.2092     1.3900    71.4035  1732.4919   -99999.0 
   1339.6000     9.0400     0.1212   -99999.0    92.4957     0.8816    44.3202     2.2227     1.3996    70.8827  1720.9604   -99999.0 
   1339.8000     9.0400     0.1254   -99999.0    92.0088     0.9000    45.5331     2.2380     1.4030    70.3222  1698.0000   -99999.0 
   1340.0000     8.9732     0.1200   -99999.0    90.5652     0.9262    45.1455     2.2266     1.4158    70.0668  1730.7310   -99999.0 
   1340.2000     8.9400     0.1033   -99999.0    89.1216     0.9546    43.2327     2.2083     1.4287    70.3941  1747.0000   -99999.0 
   1340.4000     8.9254     0.0856   -99999.0    90.4146     0.9771    41.0710     2.2201     1.4576    71.4878  1713.5105   -99999.0 
   1340.6000     8.8718     0.0623   -99999.0    91.2345     1.0142    37.9958     2.2471     1.5084    71.7000  1751.0000   -99999.0 
   1340.8000     8.8783     0.0338   -99999.0    83.7366     1.0793    34.3015     2.2596     1.5735    69.3149  1706.9685   -99999.0 
   1341.0000     8.8669     0.0134   -99999.0    71.1450     1.1725    32.2755     2.2530     1.6424    67.6378  1714.0237   -99999.0 
   1341.2000     8.8900     0.0075   -99999.0    65.7870     1.2572    31.0992     2.2649     1.7209    68.4252  1751.0000   -99999.0 
   1341.4000     8.8644     0.0061   -99999.0    61.6827     1.3027    28.6265     2.3092     1.7811    68.6145  1692.9055   -99999.0 
   1341.6000     8.8850     0.0043   -99999.0    51.1000     1.3077    25.2900     2.3595     1.8197    67.1833  1776.0000   -99999.0 
   1341.8000     8.8600     0.0094   -99999.0    43.1899     1.2930    23.3649     2.3722     1.8038    66.8395  1764.0249   -99999.0 
   1342.0000     8.8837     0.0201   -99999.0    46.6315     1.2644    24.6473     2.3417     1.7322    68.2870  1751.0000   -99999.0 
   1342.2000     8.8621     0.0280   -99999.0    56.7806     1.2066    29.7421     2.2964     1.6397    70.4970  1717.0000   -99999.0 
   1342.4000     8.8842     0.0276   -99999.0    62.2576     1.1194    34.8169     2.2690     1.5461    72.5328  1741.5447   -99999.0 
   1342.6000     8.8681     0.0277   -99999.0    62.5358     1.0367    36.3304     2.2598     1.4894    72.5630  1729.3857   -99999.0 
   1342.8000     8.8888     0.0290   -99999.0    63.6424     0.9832    36.7146     2.2612     1.4584    72.2081  1712.8135   -99999.0 
   1343.0000     8.8671     0.0283   -99999.0    68.0591     0.9623    36.9506     2.2660     1.4488    72.2941  1732.0000   -99999.0 
   1343.2000     8.8667     0.0243   -99999.0    69.2681     0.9579    36.3840     2.2613     1.4488    70.9024  1744.6416   -99999.0 
   1343.4000     8.8893     0.0191   -99999.0    63.9138     0.9550    36.3564     2.2502     1.4488    70.3978  1751.0000   -99999.0 
   1343.6000     8.8658     0.0173   -99999.0    58.2779     0.9437    36.8494     2.2469     1.4488    70.5580  1761.0000   -99999.0 
   1343.8000     8.8860     0.0204   -99999.0    57.9035     0.9324    36.4488     2.2514     1.4368    70.8205  1737.5078   -99999.0 
   1344.0000     8.8626     0.0284   -99999.0    60.8782     0.9251    36.6067     2.2539     1.4199    72.4550  1717.4265   -99999.0 
   1344.2000     8.8764     0.0294   -99999.0    63.8087     0.9190    38.0180     2.2414     1.3974    73.0087  1724.7190   -99999.0 
   1344.4000     8.8624     0.0197   -99999.0    65.3079     0.9107    38.4066     2.2252     1.3831    74.5079  1751.0000   -99999.0 
   1344.6000     8.8644     0.0143   -99999.0    64.3779     0.9025    37.9093     2.2297     1.3691    74.0038  1722.0420   -99999.0 
   1344.8000     8.8851     0.0193   -99999.0    63.2461     0.8940    38.3336     2.2491     1.3662    73.5672  1717.8201   -99999.0 
   1345.0000     8.8695     0.0191   -99999.0    65.8815     0.8833    38.6266     2.2526     1.3583    73.0189  1731.5276   -99999.0 
   1345.2000     8.8721     0.0146   -99999.0    67.6366     0.8711    38.0304     2.2429     1.3583    72.6789  1742.0000   -99999.0 
   1345.4000     8.8810     0.0154   -99999.0    66.1798     0.8580    38.1487     2.2323     1.3480    72.4293  1717.0000   -99999.0 
   1345.6000     8.8776     0.0211   -99999.0    66.5374     0.8452    38.5822     2.2227     1.3346    71.9240  1719.0669   -99999.0 
   1345.8000     8.8818     0.0240   -99999.0    67.4451     0.8325    37.0818     2.2107     1.3208    72.2451  1722.0000   -99999.0 
   1346.0000     8.8611     0.0198   -99999.0    65.8315     0.8241    35.1686     2.1967     1.3183    73.5266  1735.5156   -99999.0 
   1346.2000     8.8795     0.0153   -99999.0    63.8547     0.8229    34.9080     2.1907     1.3215    73.9547  1698.0000   -99999.0 
   1346.4000     8.8799     0.0133   -99999.0    63.4000     0.8267    34.8539     2.1947     1.3274    73.1686  1778.8530   -99999.0 
   1346.6000     8.8802     0.0101   -99999.0    64.2776     0.8335    35.0632     2.1979     1.3394    71.4399  1820.0000   -99999.0 
   1346.8000     8.8686     0.0070   -99999.0    67.6622     0.8456    37.0920     2.2037     1.3397    70.7276  1790.0000   -99999.0 
   1347.0000     8.8720     0.0082   -99999.0    70.6396     0.8547    39.5016     2.2128     1.3397    70.1201  1781.6035   -99999.0 
   1347.2000     8.8874     0.0099   -99999.0    70.1055     0.8606    40.5313     2.2233     1.3397    70.2736  1776.0000   -99999.0 
   1347.4000     8.8712     0.0129   -99999.0    69.2020     0.8659    39.8044     2.2314     1.3397    69.9858  1781.3857   -99999.0 
   1347.6000     8.8993     0.0192   -99999.0    69.9537     0.8722    38.6357     2.2282     1.3397    68.5243  1800.0000   -99999.0 
   1347.8000     8.8900     0.0220   -99999.0    67.5377     0.8801    38.6017     2.2096     1.3476    67.6056  1754.9985   -99999.0 
