~VERSION INFORMATION                                                           
 VERS.           2.0: CWLS Log ASCII Standard - Version 2.0                    
 WRAP.            NO: One Line per Depth Step                                  
~WELL INFORMATION                                                              
#MNEM.UNIT              DATA            DESCRIPTION OF MNEMONIC                
#-----------            ----            -----------------------                
 STRT.M             789.58              :Start Depth                           
 STOP.M            1481.02              :Stop  Depth                           
 STEP.M             0.1524              :Step                                  
 NULL.              -99999.0            :Null Value                            
 COMP.     PETROLEO BRASILEIRO S/A      :Company                               
 ORIG.     SIGEO EXPORTACAO PERFIL      :Origem dos dados                      
 WELL.     7-LP-88-ES                   :Well                                  
 FLD.      LAGOA PARDA                  :Field                                 
 STAT.     ESPIRITO SANTO               :State                                 
 API.      342700034000                 :API Code                              
 X.                410166.50            :Surface X                             
 Y.               7830454.00            :Surface Y                             
 HZCS.           UTM                    :Horizontal Coordinate System          
 MC.               39 W                 :Meridiano Central
 LATI.           -19:37:08.391          :Latitude                              
 LONG.           -39:51:24.187          :Longitude                             
 GDAT.           SIRGAS2000             :Geodetic Datum                        
 LMF.            MR                     :Log Measure From                      
 EDF.M              10.00               :Elevation Derrick Floor               
 EGL.M               4.80               :GROUND ELEVATION                      
~CURVE INFORMATION                                                             
 DEPT.M                                 :Measured Depth                        
 CALI.in                                :CALIPER 
 CALI.in                                :CALIPER 
 CILD.mS/m                              :CALIBRATED DEEP INDUCTION CONDUCTIVITY 
 DRHO.g/cm3                             :BULK DENSITIY CORRECTION 
 DRHO.g/cm3                             :BULK DENSITIY CORRECTION 
 GR.gAPI                                :GAMMA RAY 
 ILD.ohm.m                              :INDUCTION DEEP RESISTIVITY 
 NPHI.%                                 :THERMAL NEUTRON POROSITY (ORIGINAL RATIO METHOD) IN SELECTED LITHOLOGY 
 NPHI.%                                 :THERMAL NEUTRON POROSITY (ORIGINAL RATIO METHOD) IN SELECTED LITHOLOGY 
 NPOR.%                                 :NEUTRON POROSITY (ENVIRONMENTALLY CORRECTED AND ALPHA PROCESSED) 
 NPOR.%                                 :NEUTRON POROSITY (ENVIRONMENTALLY CORRECTED AND ALPHA PROCESSED) 
 PEF.Adim                               :PHOTOELETRIC FACTOR 
 PEF.Adim                               :PHOTOELETRIC FACTOR 
 RHOB.g/cm3                             :BULK DENSITY 
 RHOB.g/cm3                             :BULK DENSITY 
 RSFL.uohm                              :Raw SFL Conductivity 
 SFLU.ohm.m                             :SFL RESISTIVITY UNAVERAGED 
 SP.mV                                  :SPONTANEOUS POTENTIAL 
 TENS.lbf                               :LINE TENSION 
~ASCII LOG DATA                                                                
# ...
    943.2035     8.3906   -99999.0  1160.4355     0.0028   -99999.0   114.6250     0.8617    47.8698   -99999.0    53.0907   -99999.0     3.2613   -99999.0     2.1556   -99999.0   937.8742     1.0624  -124.8433  1755.0000 
    943.3559     8.3906   -99999.0  1158.6337     0.0100   -99999.0   117.6875     0.8631    48.6513   -99999.0    59.0076   -99999.0     3.5152   -99999.0     2.1582   -99999.0   882.0031     1.1293  -124.6462  1780.0000 
    943.5083     8.3963   -99999.0  1158.2761     0.0002   -99999.0   115.0000     0.8634    48.0629   -99999.0    46.9842   -99999.0     2.9048   -99999.0     2.1514   -99999.0   940.9201     1.0588  -124.3962  1800.0000 
    943.6607     8.4219   -99999.0  1162.8790     0.0154   -99999.0   119.6875     0.8599    47.2510   -99999.0    45.0591   -99999.0     3.2338   -99999.0     2.1696   -99999.0  1036.5548     0.9614  -123.9172  1760.0000 
    943.8131     8.6805   -99999.0  1175.2590     0.0014   -99999.0   119.3125     0.8509    48.9707   -99999.0    59.8508   -99999.0     3.4164   -99999.0     2.1533   -99999.0  1088.9700     0.9146  -123.6461  1780.0000 
    943.9655     8.6546   -99999.0  1192.7975     0.0188   -99999.0   119.0000     0.8384    49.6032   -99999.0    50.0245   -99999.0     3.6173   -99999.0     2.1718   -99999.0  1043.0017     0.9549  -123.6250  1750.0000 
    944.1179     8.6562   -99999.0  1200.6135     0.0032   -99999.0   116.1875     0.8329    50.0622   -99999.0    53.8503   -99999.0     3.6409   -99999.0     2.1555   -99999.0  1076.3254     0.9253  -123.8539  1775.0000 
    944.2703     8.5234   -99999.0  1199.9330    -0.0104   -99999.0   117.1250     0.8334    50.4141   -99999.0    52.5732   -99999.0     3.3611   -99999.0     2.1116   -99999.0  1122.4941     0.8873  -123.0739  1775.0000 
    944.4227     8.5469   -99999.0  1197.0554     0.0046   -99999.0   120.9375     0.8354    49.5201   -99999.0    47.9489   -99999.0     3.4113   -99999.0     2.1295   -99999.0  1127.0823     0.8835  -123.2289  1745.0000 
    944.5751     8.4086   -99999.0  1199.3217    -0.0070   -99999.0   121.7500     0.8338    48.2299   -99999.0    56.2157   -99999.0     3.2606   -99999.0     2.1152   -99999.0  1071.3939     0.9297  -123.5933  1775.0000 
    944.7275     8.5781   -99999.0  1203.6401    -0.0099   -99999.0   116.5000     0.8308    48.0113   -99999.0    57.2630   -99999.0     3.3016   -99999.0     2.1091   -99999.0  1043.0355     0.9548  -123.3961  1745.0000 
    944.8799     8.4640   -99999.0  1205.5809     0.0019   -99999.0   116.2500     0.8295    47.0163   -99999.0    44.3908   -99999.0     3.4628   -99999.0     2.1351   -99999.0  1013.7559     0.9824  -123.6039  1760.0000 
    945.0323     8.5312   -99999.0  1204.5225     0.0270   -99999.0   114.0000     0.8302    46.1576   -99999.0    46.7598   -99999.0     3.4153   -99999.0     2.1687   -99999.0   987.0565     1.0089  -123.1673  1760.0000 
    945.1847     8.5469   -99999.0  1199.5448     0.0251   -99999.0   118.3750     0.8337    47.8757   -99999.0    48.7459   -99999.0     3.5775   -99999.0     2.1638   -99999.0  1001.0042     0.9948  -123.5827  1755.0000 
    945.3371     8.5781   -99999.0  1193.9377    -0.0038   -99999.0   114.0625     0.8376    49.3075   -99999.0    51.8690   -99999.0     3.5162   -99999.0     2.1256   -99999.0  1083.5748     0.9195  -123.2245  1750.0000 
    945.4895     8.5205   -99999.0  1194.6594     0.0115   -99999.0   111.7500     0.8371    49.1944   -99999.0    49.1975   -99999.0     3.3346   -99999.0     2.1510   -99999.0  1130.9534     0.8806  -123.1303  1740.0000 
    945.6419     8.7184   -99999.0  1203.7185     0.0221   -99999.0   107.0000     0.8308    49.0116   -99999.0    63.8573   -99999.0     3.3799   -99999.0     2.1399   -99999.0  1114.3672     0.8936  -123.2395  1730.0000 
    945.7943     9.0416   -99999.0  1217.3842     0.0222   -99999.0   107.0000     0.8214    49.6606   -99999.0    57.4944   -99999.0     3.4450   -99999.0     2.1386   -99999.0  1036.6301     0.9611  -123.1355  1755.0000 
    945.9467     8.7344   -99999.0  1226.2510     0.0247   -99999.0   106.8125     0.8155    48.9134   -99999.0    43.8105   -99999.0     3.3760   -99999.0     2.1586   -99999.0  1049.9174     0.9485  -122.7816  1770.0000 
    946.0991     8.5986   -99999.0  1236.6694     0.0237   -99999.0   107.0625     0.8086    48.0353   -99999.0    50.4272   -99999.0     3.4146   -99999.0     2.1562   -99999.0  1068.1355     0.9323  -123.3223  1745.0000 
    946.2515     8.5677   -99999.0  1247.3687     0.0049   -99999.0   106.0000     0.8017    48.2247   -99999.0    48.0940   -99999.0     3.4232   -99999.0     2.1378   -99999.0  1092.8589     0.9112  -123.1461  1815.0000 
    946.4039     8.6822   -99999.0  1261.9688    -0.0018   -99999.0   111.6250     0.7924    46.9771   -99999.0    57.7010   -99999.0     3.3009   -99999.0     2.1169   -99999.0  1067.2065     0.9332  -123.3539  1795.0000 
    946.5563     8.7608   -99999.0  1275.3928    -0.0075   -99999.0   113.0000     0.7841    47.5112   -99999.0    57.8689   -99999.0     3.3552   -99999.0     2.1273   -99999.0  1075.9231     0.9256  -123.3750  1765.0000 
    946.7087     8.7656   -99999.0  1281.0111     0.0075   -99999.0   116.5625     0.7806    47.1251   -99999.0    50.4267   -99999.0     3.3727   -99999.0     2.1194   -99999.0  1086.9363     0.9162  -122.7456  1785.0000 
    946.8611     8.6150   -99999.0  1282.1660    -0.0060   -99999.0   115.7500     0.7799    48.5639   -99999.0    47.8558   -99999.0     3.3856   -99999.0     2.1293   -99999.0  1100.6077     0.9048  -122.5731  1760.0000 
    947.0135     8.6583   -99999.0  1281.7413     0.0028   -99999.0   113.3750     0.7802    51.0710   -99999.0    51.6693   -99999.0     3.2256   -99999.0     2.1305   -99999.0  1116.1705     0.8922  -122.5625  1765.0000 
    947.1659     8.7500   -99999.0  1278.4308    -0.0031   -99999.0   110.6875     0.7822    53.0603   -99999.0    54.0681   -99999.0     3.0372   -99999.0     2.1344   -99999.0  1141.6920     0.8723  -123.0774  1750.0000 
    947.3183     8.8135   -99999.0  1277.1440     0.0085   -99999.0   111.1250     0.7830    52.0984   -99999.0    62.9212   -99999.0     3.3136   -99999.0     2.1257   -99999.0  1162.2352     0.8568  -123.0106  1780.0000 
    947.4707     8.5469   -99999.0  1279.5157     0.0045   -99999.0   113.5625     0.7815    53.4330   -99999.0    85.1375   -99999.0     3.4337   -99999.0     2.1372   -99999.0  1126.6620     0.8840  -123.8009  1760.0000 
    947.6231     8.7353   -99999.0  1280.5448     0.0027   -99999.0   112.5000     0.7809    52.3784   -99999.0    62.8966   -99999.0     3.5509   -99999.0     2.1326   -99999.0  1061.7347     0.9382  -124.2184  1755.0000 
    947.7755     8.7642   -99999.0  1276.1227     0.0431   -99999.0   109.5000     0.7836    50.4721   -99999.0    44.3795   -99999.0     3.2642   -99999.0     2.1700   -99999.0  1044.2986     0.9536  -124.3645  1815.0000 
    947.9279     8.7500   -99999.0  1265.2048     0.0057   -99999.0   110.1875     0.7904    49.5338   -99999.0    64.3598   -99999.0     3.4762   -99999.0     2.1355   -99999.0  1094.2274     0.9103  -124.2605  1760.0000 
    948.0803     8.8802   -99999.0  1250.3523     0.0010   -99999.0   109.9375     0.7998    49.0795   -99999.0    61.6416   -99999.0     3.3963   -99999.0     2.1214   -99999.0  1201.6052     0.8294  -124.8222  1755.0000 
    948.2327     8.9844   -99999.0  1241.8817     0.0577   -99999.0   108.0000     0.8052    47.8603   -99999.0    50.4191   -99999.0     3.6601   -99999.0     2.1909   -99999.0  1208.1284     0.8243  -125.2183  1760.0000 
    948.3851     8.9737   -99999.0  1239.4541     0.0355   -99999.0   108.0000     0.8068    46.8937   -99999.0    52.5589   -99999.0     3.5463   -99999.0     2.1679   -99999.0  1128.4025     0.8829  -125.8222  1755.0000 
    948.5375     8.7656   -99999.0  1237.2242     0.0129   -99999.0   111.7500     0.8083    47.3475   -99999.0    42.3580   -99999.0     3.3449   -99999.0     2.1361   -99999.0  1048.1588     0.9505  -126.4472  1765.0000 
