~VERSION INFORMATION                                                           
 VERS.           2.0: CWLS Log ASCII Standard - Version 2.0                    
 WRAP.            NO: One Line per Depth Step                                  
~WELL INFORMATION                                                              
#MNEM.UNIT              DATA            DESCRIPTION OF MNEMONIC                
#-----------            ----            -----------------------                
 STRT.M             952.00              :Start Depth                           
 STOP.M            1604.00              :Stop  Depth                           
 STEP.M             0.2000              :Step                                  
 NULL.              -99999.0            :Null Value                            
 COMP.     PETROLEO BRASILEIRO S/A      :Company                               
 ORIG.     SIGEO EXPORTACAO PERFIL      :Origem dos dados                      
 WELL.     7-LP-85-ES                   :Well                                  
 FLD.      LAGOA PARDA                  :Field                                 
 STAT.     ESPIRITO SANTO               :State                                 
 API.      342700026300                 :API Code                              
 X.                412944.10            :Surface X                             
 Y.               7831795.90            :Surface Y                             
 HZCS.           UTM                    :Horizontal Coordinate System          
 MC.               39 W                 :Meridiano Central
 LATI.           -19:36:25.186          :Latitude                              
 LONG.           -39:49:48.609          :Longitude                             
 GDAT.           SIRGAS2000             :Geodetic Datum                        
 LMF.            MR                     :Log Measure From                      
 EDF.M               8.00               :Elevation Derrick Floor               
 EGL.M               3.00               :GROUND ELEVATION                      
~CURVE INFORMATION                                                             
 DEPT.M                                 :Measured Depth                        
 CALI.in                                :CALIPER 
 DRHO.g/cm3                             :BULK DENSITIY CORRECTION 
 EFAC.Adim                              :ELETROFACIES 
 GR.gAPI                                :GAMMA RAY 
 ILD.ohm.m                              :INDUCTION DEEP RESISTIVITY 
 NPHI.%                                 :THERMAL NEUTRON POROSITY (ORIGINAL RATIO METHOD) IN SELECTED LITHOLOGY 
 RHOB.g/cm3                             :BULK DENSITY 
 SN.ohm.m                               :SHORT NORMAL RESISTIVITY 
 SP.mV                                  :SPONTANEOUS POTENTIAL 
 TENS.lbf                               :LINE TENSION 
 VSH.v/v                                :VOLUME DE FOLHELHO 
~ASCII LOG DATA                                                                
# ...
   1588.0000     8.6500     0.0241     1.0000    69.4567     0.5481    22.6230     2.2682     2.3064    22.0213  1909.5591     0.0578 
   1588.2000     8.6672     0.0207     1.0000    67.9723     0.5571    21.9940     2.2594     2.3633    20.9000  1878.0000     0.0325 
   1588.4000     8.6659     0.0241     1.0000    68.3714     0.5698    22.0885     2.2651     2.4384    20.7821  1900.9802     0.0396 
   1588.6000     8.6520     0.0351     1.0000    69.3311     0.5850    22.5445     2.2862     2.5231    20.6098  1890.8542     0.0557 
   1588.8000     8.6621     0.0394     1.0000    70.2283     0.6028    22.5879     2.3003     2.6071    20.8642  1873.0000     0.0735 
   1589.0000     8.6595     0.0349     1.0000    70.9105     0.6228    22.3384     2.3082     2.6937    21.4157  1873.0000     0.0861 
   1589.2000     8.6668     0.0305     1.0000    70.8484     0.6496    21.8426     2.3152     2.7877    22.4547  1877.1929     0.0858 
   1589.4000     8.6515     0.0265     1.0000    70.0302     0.6887    21.1145     2.3190     2.8783    23.5207  1870.1326     0.0686 
   1589.6000     8.6646     0.0240     1.0000    70.8485     0.7493    20.5232     2.3209     3.0226    24.5243  1865.1182     0.0855 
   1589.8000     8.6545     0.0287     1.0000    74.0043     0.8287    20.2602     2.3354     3.2339    26.0634  1885.7559     0.1465 
   1590.0000     8.6600     0.0408     1.0000    78.1407     0.9312    20.6907     2.3623     3.5349    28.6671  1873.0000     0.2353 
   1590.2000     8.6640     0.0482     1.0000    79.1197     1.0719    21.3360     2.3760     3.9942    31.0804  1871.3989     0.2579 
   1590.4000     8.6557     0.0399     1.0000    76.9748     1.2651    20.4977     2.3774     4.6973    33.0264  1869.0000     0.2091 
   1590.6000     8.6600     0.0269     1.0000    74.1828     1.5157    18.4243     2.4128     5.8402    36.7396  1878.0000     0.1509 
   1590.8000     8.6634     0.0203     1.0000    66.9355     1.8143    17.1637     2.5147     7.6509    44.2236  1874.9646     0.0137 
   1591.0000     8.6635     0.0184     1.0000    56.6331     2.1321    15.3413     2.6185     9.9012    50.9933  1871.5984     0.0000 
   1591.2000     8.6504     0.0180     1.0000    49.3789     2.4295    11.3594     2.6815    12.2630    54.6163  1887.4290     0.0000 
   1591.4000     8.6645     0.0277     1.0000    46.4063     2.6313     7.4232     2.7093    13.8132    56.2743  1878.0000     0.0000 
   1591.6000     8.6617     0.0373     1.0000    44.6307     2.6796     5.4924     2.7180    14.1985    56.8240  1878.0000     0.0000 
   1591.8000     8.6520     0.0381     1.0000    44.4798     2.5068     5.2779     2.7135    13.2539    56.6101  1873.5051     0.0000 
   1592.0000     8.6637     0.0437     1.0000    45.2268     2.1278     6.6347     2.7096    11.1900    56.8521  1876.9436     0.0000 
   1592.2000     8.6243     0.0603     1.0000    46.4854     1.7038    10.1574     2.7043     8.7635    55.6193  1870.9055     0.0000 
   1592.4000     8.6184     0.0668     1.0000    49.3735     1.3446    16.2837     2.6826     6.4872    53.2445  1893.2427     0.0000 
   1592.6000     8.6256     0.0584     1.0000    53.4673     1.0810    22.4266     2.6274     4.7605    48.5547  1869.5930     0.0000 
   1592.8000     8.5355     0.0559     1.0000    60.0177     0.8912    24.0329     2.5370     3.7104    40.4295  1873.0000     0.0000 
   1593.0000     8.4755     0.0555     1.0000    66.9875     0.7510    22.2277     2.4396     3.1288    32.1168  1873.0000     0.0000 
   1593.2000     8.4709     0.0466     1.0000    69.8317     0.6566    20.5378     2.3678     2.8335    26.5953  1872.2322     0.0455 
   1593.4000     8.4720     0.0436     1.0000    68.7421     0.6009    20.3716     2.3412     2.6726    23.8831  1867.5786     0.0263 
   1593.6000     8.4742     0.0510     1.0000    67.9870     0.5731    20.4800     2.3349     2.5351    22.1060  1876.5498     0.0134 
   1593.8000     8.4602     0.0518     1.0000    67.9357     0.5623    20.1784     2.3258     2.4479    21.7888  1869.0000     0.0111 
   1594.0000     8.4700     0.0433     1.0000    70.6712     0.5610    20.2606     2.3130     2.3878    21.3669  1870.3386     0.0606 
   1594.2000     8.4700     0.0381   -99999.0    76.4290     0.5594    20.9352     2.3064     2.3414    21.8882  1863.9421     0.1723 
   1594.4000     8.4892     0.0351   -99999.0    83.5762     0.5560    21.4374     2.3012     2.2974    22.2918  1872.4304     0.3341 
   1594.6000     8.4700     0.0317   -99999.0    85.3209     0.5494    21.6516     2.2969     2.2614    22.4543  1871.4448     1.0000 
   1594.8000     8.4700     0.0339   -99999.0    80.6384     0.5407    21.8367     2.2922     2.2327    22.3664  1886.7598     1.0000 
   1595.0000     8.4700     0.0414   -99999.0    75.1940     0.5293    21.6190     2.2892     2.2193    22.1104  1875.0735     1.0000 
   1595.2000     8.4779     0.0422   -99999.0    74.3295     0.5197    21.2425     2.2842     2.2306    21.0913  1869.8345     1.0000 
   1595.4000     8.4700     0.0364   -99999.0    75.8252     0.5116    21.5505     2.2789     2.2549    20.3521  1875.6050     1.0000 
   1595.6000     8.4783     0.0315   -99999.0    76.9000     0.5074    22.3817     2.2737     2.3006    20.4000  1870.5000     1.0000 
   1595.8000     8.4700     0.0301   -99999.0    76.2689     0.5058    23.1408     2.2723     2.3404    20.0708  1893.7756     1.0000 
   1596.0000     8.4746     0.0315   -99999.0    75.3626     0.5058    23.3571     2.2758     2.3398    19.9458  1873.1221     1.0000 
   1596.2000     8.4723     0.0328   -99999.0    75.6622     0.5085    23.0681     2.2788     2.2752    20.3852  1874.1482     1.0000 
   1596.4000     8.4700     0.0362   -99999.0    75.9091     0.5217    22.6399     2.2809     2.1493    21.7579  1866.2756     1.0000 
   1596.6000     8.4739     0.0394   -99999.0    74.3075     0.5545    23.0383     2.2776     2.0247    22.5580  1941.0747     1.0000 
   1596.8000     8.4659     0.0372   -99999.0    72.9048     0.6116    24.1944     2.2662     1.9641    22.5170  1942.6101     1.0000 
   1597.0000     8.4798     0.0300   -99999.0    72.5961     0.6917    25.3414     2.2487     2.0111    21.7961  1946.7046     1.0000 
   1597.2000     8.4700     0.0287   -99999.0    72.4664     0.7915   -99999.0     2.2320     2.1450    21.5004  1938.6404     1.0000 
   1597.4000     8.4700     0.0319   -99999.0    73.1799     0.9054   -99999.0     2.2201     2.2890    21.0422  1954.5774     1.0000 
   1597.6000     8.4700     0.0320   -99999.0    74.2654     1.0151   -99999.0     2.2199     2.3852    20.1346  1918.6890     1.0000 
   1597.8000     8.4365     0.0277   -99999.0    75.6228     1.0516   -99999.0     2.2348     2.3226    21.4111  1927.4919     1.0000 
   1598.0000     8.4058     0.0305   -99999.0    76.8488     0.9947   -99999.0     2.2514     2.1562    24.6022  1950.7676     1.0000 
   1598.2000     8.3921     0.0410   -99999.0    76.5638     0.8737   -99999.0     2.2631     1.9289    29.8323  1894.2715     1.0000 
   1598.4000     8.3800     0.0494   -99999.0    74.8115     0.7340   -99999.0     2.2708     1.7045    36.0241  1872.1758     1.0000 
   1598.6000     8.3852     0.0510   -99999.0    73.4926     0.6206   -99999.0     2.2730     1.5658    36.3489  1871.0735     1.0000 
   1598.8000     8.3734     0.0510   -99999.0    74.1307     0.5410   -99999.0     2.2629     1.4873    28.6327  1885.4604     1.0000 
   1599.0000     8.3786     0.0510   -99999.0    75.0999     0.4937   -99999.0     2.2471     1.4233    23.5714  1885.8542     1.0000 
   1599.2000     8.3700     0.0519   -99999.0   -99999.0     0.4730   -99999.0     2.2443     1.3671    24.8117  1873.0000     1.0000 
   1599.4000     8.3623     0.0561   -99999.0   -99999.0     0.4713   -99999.0     2.2570     1.2934    30.6457  1888.3542     1.0000 
   1599.6000     8.3692     0.0663   -99999.0   -99999.0     0.4831   -99999.0     2.2775     1.2372    41.0807  1878.0000     1.0000 
   1599.8000     8.3561     0.0896   -99999.0   -99999.0     0.5039   -99999.0     2.3032     1.2190    56.6783  1876.0381     1.0000 
